[{"Year":1972,"Type":"Flood","Subtype":null,"Country":"Afghanistan","Location":"West","Latitude":null,"Longitude":null,"Country Latitude":33.7680065,"Country Longitude":66.2385139,"Location Latitude":null,"Location Longitude":null,"Smart Coords":null,"Start Year":1972,"Start Month":1.0,"Start Day":null,"End Year":1972,"End Month":1.0,"End Day":null,"Total Affected":250000.0,"Total Deaths":150.0},{"Year":1972,"Type":"Extreme temperature","Subtype":"Heat wave","Country":"Argentina","Location":"Buenos Aires","Latitude":null,"Longitude":null,"Country Latitude":-34.9964963,"Country Longitude":-64.9672817,"Location Latitude":-34.6075682,"Location Longitude":-58.4370894,"Smart Coords":"[{\"Lat\": -34.6075682, \"Lng\": -58.4370894}]","Start Year":1972,"Start Month":1.0,"Start Day":4.0,"End Year":1972,"End Month":1.0,"End Day":4.0,"Total Affected":null,"Total Deaths":100.0},{"Year":1972,"Type":"Storm","Subtype":null,"Country":"Belgium","Location":null,"Latitude":null,"Longitude":null,"Country Latitude":50.6402809,"Country Longitude":4.6667145,"Location Latitude":null,"Location Longitude":null,"Smart Coords":null,"Start Year":1972,"Start Month":11.0,"Start Day":null,"End Year":1972,"End Month":11.0,"End Day":null,"Total Affected":null,"Total Deaths":null},{"Year":1972,"Type":"Storm","Subtype":"Convective storm","Country":"Bangladesh","Location":"Mymensingh","Latitude":null,"Longitude":null,"Country Latitude":24.4769288,"Country Longitude":90.2934413,"Location Latitude":24.8889305,"Location Longitude":90.3845187,"Smart Coords":"[{\"Lat\": 24.8889305, \"Lng\": 90.3845187}]","Start Year":1972,"Start Month":4.0,"Start Day":2.0,"End Year":1972,"End Month":4.0,"End Day":2.0,"Total Affected":25000.0,"Total Deaths":200.0},{"Year":1972,"Type":"Flood","Subtype":null,"Country":"Bangladesh","Location":"Sylhet","Latitude":null,"Longitude":null,"Country Latitude":24.4769288,"Country Longitude":90.2934413,"Location Latitude":24.7358854,"Location Longitude":91.6852476,"Smart Coords":"[{\"Lat\": 24.7358854, \"Lng\": 91.6852476}]","Start Year":1972,"Start Month":6.0,"Start Day":25.0,"End Year":1972,"End Month":6.0,"End Day":25.0,"Total Affected":null,"Total Deaths":50.0},{"Year":1972,"Type":"Flood","Subtype":null,"Country":"Botswana","Location":null,"Latitude":null,"Longitude":null,"Country Latitude":-23.1681782,"Country Longitude":24.5928742,"Location Latitude":null,"Location Longitude":null,"Smart Coords":null,"Start Year":1972,"Start Month":1.0,"Start Day":19.0,"End Year":1972,"End Month":1.0,"End Day":19.0,"Total Affected":1000.0,"Total Deaths":null},{"Year":1972,"Type":"Landslide","Subtype":"Landslide","Country":"Colombia","Location":"San Josecito","Latitude":null,"Longitude":null,"Country Latitude":4.099917,"Country Longitude":-72.9088133,"Location Latitude":7.14316,"Location Longitude":-75.195932,"Smart Coords":null,"Start Year":1972,"Start Month":1.0,"Start Day":26.0,"End Year":1972,"End Month":1.0,"End Day":26.0,"Total Affected":null,"Total Deaths":70.0},{"Year":1972,"Type":"Storm","Subtype":null,"Country":"Germany Fed Rep","Location":"Lower Saxony","Latitude":null,"Longitude":null,"Country Latitude":50.626761,"Country Longitude":9.037884,"Location Latitude":null,"Location Longitude":null,"Smart Coords":"[{\"Lat\": 52.8398531, \"Lng\": 9.075962}]","Start Year":1972,"Start Month":11.0,"Start Day":12.0,"End Year":1972,"End Month":11.0,"End Day":12.0,"Total Affected":null,"Total Deaths":54.0},{"Year":1972,"Type":"Flood","Subtype":null,"Country":"Spain","Location":"Alicante province","Latitude":null,"Longitude":null,"Country Latitude":39.3260685,"Country Longitude":-4.8379791,"Location Latitude":38.3436365,"Location Longitude":-0.4881708,"Smart Coords":"[{\"Lat\": 38.3436365, \"Lng\": -0.4881708}]","Start Year":1972,"Start Month":11.0,"Start Day":null,"End Year":1972,"End Month":11.0,"End Day":null,"Total Affected":null,"Total Deaths":null},{"Year":1972,"Type":"Storm","Subtype":"Tropical cyclone","Country":"Fiji","Location":"Much of nation","Latitude":null,"Longitude":null,"Country Latitude":-18.1239696,"Country Longitude":179.0122737,"Location Latitude":null,"Location Longitude":null,"Smart Coords":null,"Start Year":1972,"Start Month":10.0,"Start Day":24.0,"End Year":1972,"End Month":10.0,"End Day":24.0,"Total Affected":120000.0,"Total Deaths":3.0},{"Year":1972,"Type":"Storm","Subtype":null,"Country":"United Kingdom","Location":null,"Latitude":null,"Longitude":null,"Country Latitude":54.7023545,"Country Longitude":-3.2765753,"Location Latitude":null,"Location Longitude":null,"Smart Coords":null,"Start Year":1972,"Start Month":11.0,"Start Day":null,"End Year":1972,"End Month":11.0,"End Day":null,"Total Affected":null,"Total Deaths":null},{"Year":1972,"Type":"Landslide","Subtype":"Landslide","Country":"Hong Kong","Location":"Kwungton, Victoria","Latitude":null,"Longitude":null,"Country Latitude":22.352957,"Country Longitude":113.962891,"Location Latitude":null,"Location Longitude":null,"Smart Coords":null,"Start Year":1972,"Start Month":6.0,"Start Day":18.0,"End Year":1972,"End Month":6.0,"End Day":18.0,"Total Affected":1000.0,"Total Deaths":100.0},{"Year":1972,"Type":"Wildfire","Subtype":"Land fire (Brush, Bush, Pasture)","Country":"Hong Kong","Location":null,"Latitude":null,"Longitude":null,"Country Latitude":22.352957,"Country Longitude":113.962891,"Location Latitude":null,"Location Longitude":null,"Smart Coords":null,"Start Year":1972,"Start Month":1.0,"Start Day":null,"End Year":1972,"End Month":1.0,"End Day":null,"Total Affected":null,"Total Deaths":null},{"Year":1972,"Type":"Wildfire","Subtype":"Land fire (Brush, Bush, Pasture)","Country":"Hong Kong","Location":null,"Latitude":null,"Longitude":null,"Country Latitude":22.352957,"Country Longitude":113.962891,"Location Latitude":null,"Location Longitude":null,"Smart Coords":null,"Start Year":1972,"Start Month":4.0,"Start Day":null,"End Year":1972,"End Month":4.0,"End Day":null,"Total Affected":null,"Total Deaths":null},{"Year":1972,"Type":"Wildfire","Subtype":"Land fire (Brush, Bush, Pasture)","Country":"Hong Kong","Location":null,"Latitude":null,"Longitude":null,"Country Latitude":22.352957,"Country Longitude":113.962891,"Location Latitude":null,"Location Longitude":null,"Smart Coords":null,"Start Year":1972,"Start Month":10.0,"Start Day":null,"End Year":1972,"End Month":10.0,"End Day":null,"Total Affected":null,"Total Deaths":null},{"Year":1972,"Type":"Flood","Subtype":null,"Country":"Hong Kong","Location":null,"Latitude":null,"Longitude":null,"Country Latitude":22.352957,"Country Longitude":113.962891,"Location Latitude":null,"Location Longitude":null,"Smart Coords":null,"Start Year":1972,"Start Month":5.0,"Start Day":7.0,"End Year":1972,"End Month":5.0,"End Day":7.0,"Total Affected":7565.0,"Total Deaths":null},{"Year":1972,"Type":"Flood","Subtype":null,"Country":"Hong Kong","Location":null,"Latitude":null,"Longitude":null,"Country Latitude":22.352957,"Country Longitude":113.962891,"Location Latitude":null,"Location Longitude":null,"Smart Coords":null,"Start Year":1972,"Start Month":6.0,"Start Day":16.0,"End Year":1972,"End Month":6.0,"End Day":16.0,"Total Affected":14607.0,"Total Deaths":138.0},{"Year":1972,"Type":"Drought","Subtype":"Drought","Country":"Honduras","Location":null,"Latitude":null,"Longitude":null,"Country Latitude":15.2572432,"Country Longitude":-86.0755145,"Location Latitude":null,"Location Longitude":null,"Smart Coords":null,"Start Year":1972,"Start Month":null,"Start Day":null,"End Year":1973,"End Month":null,"End Day":null,"Total Affected":300000.0,"Total Deaths":null},{"Year":1972,"Type":"Flood","Subtype":null,"Country":"Haiti","Location":"Les Cayes region","Latitude":null,"Longitude":null,"Country Latitude":19.1399952,"Country Longitude":-72.3570972,"Location Latitude":null,"Location Longitude":null,"Smart Coords":"[{\"Lat\": 18.1944428, \"Lng\": -73.7511601}]","Start Year":1972,"Start Month":5.0,"Start Day":20.0,"End Year":1972,"End Month":5.0,"End Day":20.0,"Total Affected":40000.0,"Total Deaths":78.0},{"Year":1972,"Type":"Drought","Subtype":"Drought","Country":"Indonesia","Location":"Central Java, Southern Isles","Latitude":null,"Longitude":null,"Country Latitude":-2.4833826,"Country Longitude":117.8902853,"Location Latitude":null,"Location Longitude":null,"Smart Coords":"[{\"Lat\": -7.3032412, \"Lng\": 110.0044145}]","Start Year":1972,"Start Month":null,"Start Day":null,"End Year":1973,"End Month":null,"End Day":null,"Total Affected":3500000.0,"Total Deaths":null},{"Year":1972,"Type":"Storm","Subtype":"Tropical cyclone","Country":"India","Location":"Andhra Pradesh, Orissa","Latitude":null,"Longitude":null,"Country Latitude":22.3511148,"Country Longitude":78.6677428,"Location Latitude":null,"Location Longitude":null,"Smart Coords":"[{\"Lat\": 15.9240905, \"Lng\": 80.1863809}, {\"Lat\": 20.5431241, \"Lng\": 84.6897321}]","Start Year":1972,"Start Month":9.0,"Start Day":10.0,"End Year":1972,"End Month":9.0,"End Day":10.0,"Total Affected":4500000.0,"Total Deaths":100.0},{"Year":1972,"Type":"Storm","Subtype":"Tropical cyclone","Country":"India","Location":"Madras City","Latitude":null,"Longitude":null,"Country Latitude":22.3511148,"Country Longitude":78.6677428,"Location Latitude":12.91248855,"Location Longitude":80.1372223339,"Smart Coords":"[{\"Lat\": 13.0836939, \"Lng\": 80.270186}]","Start Year":1972,"Start Month":12.0,"Start Day":1.0,"End Year":1972,"End Month":12.0,"End Day":1.0,"Total Affected":30000.0,"Total Deaths":80.0},{"Year":1972,"Type":"Drought","Subtype":"Drought","Country":"India","Location":"Central","Latitude":null,"Longitude":null,"Country Latitude":22.3511148,"Country Longitude":78.6677428,"Location Latitude":9.67140205,"Location Longitude":76.5342119309,"Smart Coords":null,"Start Year":1972,"Start Month":null,"Start Day":null,"End Year":1973,"End Month":null,"End Day":null,"Total Affected":200000000.0,"Total Deaths":null},{"Year":1972,"Type":"Storm","Subtype":null,"Country":"India","Location":"Srinagar, Kashmir","Latitude":null,"Longitude":null,"Country Latitude":22.3511148,"Country Longitude":78.6677428,"Location Latitude":34.0747444,"Location Longitude":74.8204443,"Smart Coords":"[{\"Lat\": 34.0747444, \"Lng\": 74.8204443}, {\"Lat\": 26.2644203, \"Lng\": 71.6027498}]","Start Year":1972,"Start Month":10.0,"Start Day":21.0,"End Year":1972,"End Month":10.0,"End Day":21.0,"Total Affected":75.0,"Total Deaths":50.0},{"Year":1972,"Type":"Storm","Subtype":"Convective storm","Country":"Iran, Islamic Republic of","Location":null,"Latitude":null,"Longitude":null,"Country Latitude":32.6475314,"Country Longitude":54.5643516,"Location Latitude":null,"Location Longitude":null,"Smart Coords":null,"Start Year":1972,"Start Month":2.0,"Start Day":10.0,"End Year":1972,"End Month":2.0,"End Day":10.0,"Total Affected":null,"Total Deaths":60.0},{"Year":1972,"Type":"Earthquake","Subtype":"Ground movement","Country":"Iran, Islamic Republic of","Location":"Qir, Karzin, Jahrom, Firuzabad (Southwest Iran)","Latitude":"28.415","Longitude":"52.765","Country Latitude":32.6475314,"Country Longitude":54.5643516,"Location Latitude":null,"Location Longitude":null,"Smart Coords":"[{\"Lat\": 28.845604, \"Lng\": 52.5727236}]","Start Year":1972,"Start Month":4.0,"Start Day":10.0,"End Year":1972,"End Month":4.0,"End Day":10.0,"Total Affected":23458.0,"Total Deaths":5057.0},{"Year":1972,"Type":"Earthquake","Subtype":"Ground movement","Country":"Italy","Location":"Ancona","Latitude":"43.8","Longitude":"13.3","Country Latitude":42.6384261,"Country Longitude":12.674297,"Location Latitude":43.4801204,"Location Longitude":13.2187906092,"Smart Coords":null,"Start Year":1972,"Start Month":2.0,"Start Day":4.0,"End Year":1972,"End Month":2.0,"End Day":4.0,"Total Affected":450.0,"Total Deaths":1.0},{"Year":1972,"Type":"Landslide","Subtype":"Landslide","Country":"Japan","Location":"Oimawashi","Latitude":null,"Longitude":null,"Country Latitude":36.5748441,"Country Longitude":139.2394179,"Location Latitude":39.33309625,"Location Longitude":140.5704425683,"Smart Coords":null,"Start Year":1972,"Start Month":7.0,"Start Day":5.0,"End Year":1972,"End Month":7.0,"End Day":5.0,"Total Affected":null,"Total Deaths":80.0},{"Year":1972,"Type":"Storm","Subtype":"Tropical cyclone","Country":"Japan","Location":"Honshu","Latitude":null,"Longitude":null,"Country Latitude":36.5748441,"Country Longitude":139.2394179,"Location Latitude":37.490012,"Location Longitude":139.8356621412,"Smart Coords":"[{\"Lat\": 37.490012, \"Lng\": 139.8356621412412}]","Start Year":1972,"Start Month":9.0,"Start Day":16.0,"End Year":1972,"End Month":9.0,"End Day":16.0,"Total Affected":null,"Total Deaths":50.0},{"Year":1972,"Type":"Flood","Subtype":null,"Country":"Japan","Location":null,"Latitude":null,"Longitude":null,"Country Latitude":36.5748441,"Country Longitude":139.2394179,"Location Latitude":null,"Location Longitude":null,"Smart Coords":null,"Start Year":1972,"Start Month":7.0,"Start Day":3.0,"End Year":1972,"End Month":7.0,"End Day":3.0,"Total Affected":null,"Total Deaths":458.0},{"Year":1972,"Type":"Storm","Subtype":"Tropical cyclone","Country":"Kiribati","Location":"Tarawa & Funafuti","Latitude":null,"Longitude":null,"Country Latitude":0.3448612,"Country Longitude":173.6641773,"Location Latitude":null,"Location Longitude":null,"Smart Coords":null,"Start Year":1972,"Start Month":10.0,"Start Day":21.0,"End Year":1972,"End Month":10.0,"End Day":21.0,"Total Affected":700.0,"Total Deaths":3.0},{"Year":1972,"Type":"Flood","Subtype":"Riverine flood","Country":"Korea, Republic of","Location":"North, Central","Latitude":null,"Longitude":null,"Country Latitude":36.638392,"Country Longitude":127.6961188,"Location Latitude":null,"Location Longitude":null,"Smart Coords":null,"Start Year":1972,"Start Month":8.0,"Start Day":19.0,"End Year":1972,"End Month":8.0,"End Day":19.0,"Total Affected":1126785.0,"Total Deaths":672.0},{"Year":1972,"Type":"Flood","Subtype":null,"Country":"Korea, Republic of","Location":null,"Latitude":null,"Longitude":null,"Country Latitude":36.638392,"Country Longitude":127.6961188,"Location Latitude":null,"Location Longitude":null,"Smart Coords":null,"Start Year":1972,"Start Month":9.0,"Start Day":13.0,"End Year":1972,"End Month":9.0,"End Day":13.0,"Total Affected":1554.0,"Total Deaths":75.0},{"Year":1972,"Type":"Storm","Subtype":"Tropical cyclone","Country":"Madagascar","Location":"Central","Latitude":null,"Longitude":null,"Country Latitude":-18.9249604,"Country Longitude":46.4416422,"Location Latitude":-14.5428907,"Location Longitude":48.7490174,"Smart Coords":null,"Start Year":1972,"Start Month":2.0,"Start Day":14.0,"End Year":1972,"End Month":2.0,"End Day":14.0,"Total Affected":2510056.0,"Total Deaths":91.0},{"Year":1972,"Type":"Flood","Subtype":"Flash flood","Country":"Mexico","Location":"Mexico city","Latitude":null,"Longitude":null,"Country Latitude":23.6585116,"Country Longitude":-102.0077097,"Location Latitude":19.4326296,"Location Longitude":-99.1331785,"Smart Coords":"[{\"Lat\": 23.6585116, \"Lng\": -102.0077097}]","Start Year":1972,"Start Month":5.0,"Start Day":3.0,"End Year":1972,"End Month":5.0,"End Day":3.0,"Total Affected":100070.0,"Total Deaths":37.0},{"Year":1972,"Type":"Storm","Subtype":"Tropical cyclone","Country":"Mauritius","Location":"Rodrigues Isl.","Latitude":null,"Longitude":null,"Country Latitude":-20.2759451,"Country Longitude":57.5703566,"Location Latitude":null,"Location Longitude":null,"Smart Coords":"[{\"Lat\": -19.719514850000003, \"Lng\": 63.41759376094734}]","Start Year":1972,"Start Month":2.0,"Start Day":17.0,"End Year":1972,"End Month":2.0,"End Day":17.0,"Total Affected":25016.0,"Total Deaths":2.0},{"Year":1972,"Type":"Storm","Subtype":"Tropical cyclone","Country":"New Caledonia","Location":"Noumea, Poindimie","Latitude":null,"Longitude":null,"Country Latitude":-21.3019905,"Country Longitude":165.4880773,"Location Latitude":null,"Location Longitude":null,"Smart Coords":null,"Start Year":1972,"Start Month":6.0,"Start Day":2.0,"End Year":1972,"End Month":6.0,"End Day":2.0,"Total Affected":null,"Total Deaths":3.0},{"Year":1972,"Type":"Earthquake","Subtype":"Ground movement","Country":"Nicaragua","Location":"Managua","Latitude":"12.184","Longitude":"-86.223","Country Latitude":12.6090157,"Country Longitude":-85.2936911,"Location Latitude":12.1544035,"Location Longitude":-86.2737642,"Smart Coords":"[{\"Lat\": 12.1544035, \"Lng\": -86.2737642}]","Start Year":1972,"Start Month":12.0,"Start Day":23.0,"End Year":1972,"End Month":12.0,"End Day":23.0,"Total Affected":720000.0,"Total Deaths":10000.0},{"Year":1972,"Type":"Storm","Subtype":null,"Country":"Netherlands","Location":null,"Latitude":null,"Longitude":null,"Country Latitude":52.2434979,"Country Longitude":5.6343227,"Location Latitude":null,"Location Longitude":null,"Smart Coords":null,"Start Year":1972,"Start Month":11.0,"Start Day":12.0,"End Year":1972,"End Month":11.0,"End Day":13.0,"Total Affected":null,"Total Deaths":null},{"Year":1972,"Type":"Landslide","Subtype":"Landslide","Country":"Nepal","Location":null,"Latitude":null,"Longitude":null,"Country Latitude":28.1083929,"Country Longitude":84.0917139,"Location Latitude":null,"Location Longitude":null,"Smart Coords":null,"Start Year":1972,"Start Month":8.0,"Start Day":7.0,"End Year":1972,"End Month":8.0,"End Day":7.0,"Total Affected":null,"Total Deaths":105.0},{"Year":1972,"Type":"Drought","Subtype":"Drought","Country":"Nepal","Location":"Hill area","Latitude":null,"Longitude":null,"Country Latitude":28.1083929,"Country Longitude":84.0917139,"Location Latitude":null,"Location Longitude":null,"Smart Coords":"[{\"Lat\": 28.2811716, \"Lng\": 83.3915662395429}]","Start Year":1972,"Start Month":null,"Start Day":null,"End Year":1973,"End Month":null,"End Day":null,"Total Affected":900000.0,"Total Deaths":null},{"Year":1972,"Type":"Earthquake","Subtype":"Ground movement","Country":"Pakistan","Location":"Tangir, Gupis, Rawalpindi, Peshawar","Latitude":"36","Longitude":"73.4","Country Latitude":30.3308401,"Country Longitude":71.247499,"Location Latitude":null,"Location Longitude":null,"Smart Coords":"[{\"Lat\": 33.5914237, \"Lng\": 73.0535122}, {\"Lat\": 34.0123846, \"Lng\": 71.5787458}]","Start Year":1972,"Start Month":9.0,"Start Day":3.0,"End Year":1972,"End Month":9.0,"End Day":3.0,"Total Affected":5000.0,"Total Deaths":100.0},{"Year":1972,"Type":"Flood","Subtype":null,"Country":"Panama","Location":"Capital, San Miguelit","Latitude":null,"Longitude":null,"Country Latitude":8.559559,"Country Longitude":-81.1308434,"Location Latitude":null,"Location Longitude":null,"Smart Coords":"[{\"Lat\": 8.9819403, \"Lng\": -79.523501}]","Start Year":1972,"Start Month":6.0,"Start Day":19.0,"End Year":1972,"End Month":6.0,"End Day":19.0,"Total Affected":300.0,"Total Deaths":null},{"Year":1972,"Type":"Earthquake","Subtype":"Ground movement","Country":"Peru","Location":"Juanjui, Tarapoto","Latitude":"-6.855","Longitude":"-76.726","Country Latitude":-6.8699697,"Country Longitude":-75.0458515,"Location Latitude":-6.498804,"Location Longitude":-76.3545018,"Smart Coords":null,"Start Year":1972,"Start Month":3.0,"Start Day":20.0,"End Year":1972,"End Month":3.0,"End Day":20.0,"Total Affected":1575000.0,"Total Deaths":12.0},{"Year":1972,"Type":"Storm","Subtype":"Tropical cyclone","Country":"Philippines","Location":"Visayan Islands","Latitude":null,"Longitude":null,"Country Latitude":12.7503486,"Country Longitude":122.7312101,"Location Latitude":10.89925685,"Location Longitude":123.0189432715,"Smart Coords":"[{\"Lat\": 12.4927738, \"Lng\": 124.6392398}]","Start Year":1972,"Start Month":1.0,"Start Day":6.0,"End Year":1972,"End Month":1.0,"End Day":6.0,"Total Affected":28.0,"Total Deaths":204.0},{"Year":1972,"Type":"Storm","Subtype":"Tropical cyclone","Country":"Philippines","Location":"South Luzon","Latitude":null,"Longitude":null,"Country Latitude":12.7503486,"Country Longitude":122.7312101,"Location Latitude":14.5101233,"Location Longitude":121.0529078,"Smart Coords":"[{\"Lat\": 14.5101233, \"Lng\": 121.0529078}]","Start Year":1972,"Start Month":6.0,"Start Day":23.0,"End Year":1972,"End Month":6.0,"End Day":23.0,"Total Affected":385000.0,"Total Deaths":131.0},{"Year":1972,"Type":"Storm","Subtype":"Tropical cyclone","Country":"Philippines","Location":"South, Misamis province","Latitude":null,"Longitude":null,"Country Latitude":12.7503486,"Country Longitude":122.7312101,"Location Latitude":null,"Location Longitude":null,"Smart Coords":"[{\"Lat\": 8.1470175, \"Lng\": 123.8459793}]","Start Year":1972,"Start Month":12.0,"Start Day":3.0,"End Year":1972,"End Month":12.0,"End Day":3.0,"Total Affected":107650.0,"Total Deaths":100.0},{"Year":1972,"Type":"Flood","Subtype":null,"Country":"Philippines","Location":"Central, NorthLuzon","Latitude":null,"Longitude":null,"Country Latitude":12.7503486,"Country Longitude":122.7312101,"Location Latitude":null,"Location Longitude":null,"Smart Coords":null,"Start Year":1972,"Start Month":7.0,"Start Day":null,"End Year":1972,"End Month":7.0,"End Day":null,"Total Affected":2770647.0,"Total Deaths":653.0},{"Year":1972,"Type":"Storm","Subtype":"Tropical cyclone","Country":"Papua New Guinea","Location":"New Britain, North province","Latitude":null,"Longitude":null,"Country Latitude":-5.6816069,"Country Longitude":144.2489081,"Location Latitude":null,"Location Longitude":null,"Smart Coords":"[{\"Lat\": -5.2245897, \"Lng\": 151.55696765353173}]","Start Year":1972,"Start Month":5.0,"Start Day":null,"End Year":1972,"End Month":5.0,"End Day":null,"Total Affected":null,"Total Deaths":null},{"Year":1972,"Type":"Storm","Subtype":"Convective storm","Country":"Turkey","Location":"Istanbul","Latitude":null,"Longitude":null,"Country Latitude":38.9597594,"Country Longitude":34.9249653,"Location Latitude":41.0091982,"Location Longitude":28.9662187,"Smart Coords":"[{\"Lat\": 41.0091982, \"Lng\": 28.9662187}]","Start Year":1972,"Start Month":2.0,"Start Day":4.0,"End Year":1972,"End Month":2.0,"End Day":4.0,"Total Affected":null,"Total Deaths":30.0},{"Year":1972,"Type":"Storm","Subtype":"Tropical cyclone","Country":"Tuvalu","Location":"Funafuti","Latitude":null,"Longitude":null,"Country Latitude":-8.6405212,"Country Longitude":179.1582918182,"Location Latitude":-8.5199633,"Location Longitude":179.1982548,"Smart Coords":"[{\"Lat\": -8.5199633, \"Lng\": 179.1982548}]","Start Year":1972,"Start Month":10.0,"Start Day":21.0,"End Year":1972,"End Month":10.0,"End Day":21.0,"Total Affected":700.0,"Total Deaths":6.0},{"Year":1972,"Type":"Landslide","Subtype":"Landslide","Country":"United States","Location":"West Virginia","Latitude":null,"Longitude":null,"Country Latitude":39.7837304,"Country Longitude":-100.445882,"Location Latitude":38.4758406,"Location Longitude":-80.8408415,"Smart Coords":"[{\"Lat\": 38.4758406, \"Lng\": -80.8408415}]","Start Year":1972,"Start Month":null,"Start Day":null,"End Year":1972,"End Month":null,"End Day":null,"Total Affected":null,"Total Deaths":400.0},{"Year":1972,"Type":"Storm","Subtype":"Tropical cyclone","Country":"United States","Location":"East","Latitude":null,"Longitude":null,"Country Latitude":39.7837304,"Country Longitude":-100.445882,"Location Latitude":42.592677,"Location Longitude":-110.952959,"Smart Coords":null,"Start Year":1972,"Start Month":6.0,"Start Day":18.0,"End Year":1972,"End Month":6.0,"End Day":18.0,"Total Affected":null,"Total Deaths":122.0},{"Year":1972,"Type":"Storm","Subtype":"Tropical cyclone","Country":"United States","Location":null,"Latitude":null,"Longitude":null,"Country Latitude":39.7837304,"Country Longitude":-100.445882,"Location Latitude":null,"Location Longitude":null,"Smart Coords":null,"Start Year":1972,"Start Month":6.0,"Start Day":null,"End Year":1972,"End Month":6.0,"End Day":null,"Total Affected":null,"Total Deaths":134.0},{"Year":1972,"Type":"Extreme temperature","Subtype":"Heat wave","Country":"United States","Location":"New York","Latitude":null,"Longitude":null,"Country Latitude":39.7837304,"Country Longitude":-100.445882,"Location Latitude":40.7127281,"Location Longitude":-74.0060152,"Smart Coords":"[{\"Lat\": 40.7127281, \"Lng\": -74.0060152}]","Start Year":1972,"Start Month":7.0,"Start Day":22.0,"End Year":1972,"End Month":7.0,"End Day":22.0,"Total Affected":null,"Total Deaths":10.0},{"Year":1972,"Type":"Flood","Subtype":null,"Country":"United States","Location":"Rapid city (South Dakota), Buffalo Creek (West Virginia)","Latitude":null,"Longitude":null,"Country Latitude":39.7837304,"Country Longitude":-100.445882,"Location Latitude":null,"Location Longitude":null,"Smart Coords":"[{\"Lat\": 40.7971285, \"Lng\": -79.679139}]","Start Year":1972,"Start Month":6.0,"Start Day":9.0,"End Year":1972,"End Month":6.0,"End Day":9.0,"Total Affected":3000.0,"Total Deaths":237.0},{"Year":1972,"Type":"Storm","Subtype":"Tropical cyclone","Country":"Vanuatu","Location":"Efate, Anatom","Latitude":null,"Longitude":null,"Country Latitude":-16.5255069,"Country Longitude":168.1069154,"Location Latitude":null,"Location Longitude":null,"Smart Coords":"[{\"Lat\": -17.6739005, \"Lng\": 168.3648386132254}, {\"Lat\": -20.1937608, \"Lng\": 169.8251760485294}]","Start Year":1972,"Start Month":1.0,"Start Day":18.0,"End Year":1972,"End Month":1.0,"End Day":18.0,"Total Affected":null,"Total Deaths":null},{"Year":1972,"Type":"Storm","Subtype":"Tropical cyclone","Country":"Vanuatu","Location":"Banks, Santo","Latitude":null,"Longitude":null,"Country Latitude":-16.5255069,"Country Longitude":168.1069154,"Location Latitude":null,"Location Longitude":null,"Smart Coords":"[{\"Lat\": -15.156341050000002, \"Lng\": 167.05107047173}]","Start Year":1972,"Start Month":2.0,"Start Day":2.0,"End Year":1972,"End Month":2.0,"End Day":2.0,"Total Affected":null,"Total Deaths":4.0},{"Year":1972,"Type":"Storm","Subtype":"Tropical cyclone","Country":"Vanuatu","Location":"Efate, Shepherds","Latitude":null,"Longitude":null,"Country Latitude":-16.5255069,"Country Longitude":168.1069154,"Location Latitude":null,"Location Longitude":null,"Smart Coords":"[{\"Lat\": -17.6739005, \"Lng\": 168.3648386132254}]","Start Year":1972,"Start Month":4.0,"Start Day":17.0,"End Year":1972,"End Month":4.0,"End Day":17.0,"Total Affected":null,"Total Deaths":null},{"Year":1972,"Type":"Flood","Subtype":null,"Country":"Yemen P Dem Rep","Location":null,"Latitude":null,"Longitude":null,"Country Latitude":16.120584,"Country Longitude":48.932668,"Location Latitude":null,"Location Longitude":null,"Smart Coords":null,"Start Year":1972,"Start Month":12.0,"Start Day":null,"End Year":1972,"End Month":12.0,"End Day":null,"Total Affected":null,"Total Deaths":null},{"Year":1972,"Type":"Epidemic","Subtype":"Viral disease","Country":"Yugoslavia","Location":"Belgrade, Cacak (Serbia)","Latitude":null,"Longitude":null,"Country Latitude":44.30017,"Country Longitude":18.979612,"Location Latitude":null,"Location Longitude":null,"Smart Coords":"[{\"Lat\": 44.8178131, \"Lng\": 20.4568974}, {\"Lat\": 43.8914332, \"Lng\": 20.3491624}]","Start Year":1972,"Start Month":3.0,"Start Day":7.0,"End Year":1972,"End Month":3.0,"End Day":7.0,"Total Affected":174.0,"Total Deaths":35.0},{"Year":1972,"Type":"Earthquake","Subtype":"Ground movement","Country":"Afghanistan","Location":"Sarsangi, Narin counties (Hindu Kush region)","Latitude":"36.278","Longitude":"69.681","Country Latitude":33.7680065,"Country Longitude":66.2385139,"Location Latitude":null,"Location Longitude":null,"Smart Coords":null,"Start Year":1972,"Start Month":6.0,"Start Day":24.0,"End Year":1972,"End Month":6.0,"End Day":24.0,"Total Affected":15.0,"Total Deaths":11.0},{"Year":1972,"Type":"Earthquake","Subtype":"Ground movement","Country":"Italy","Location":"Ancona","Latitude":"43.8","Longitude":"13.3","Country Latitude":42.6384261,"Country Longitude":12.674297,"Location Latitude":43.4801204,"Location Longitude":13.2187906092,"Smart Coords":null,"Start Year":1972,"Start Month":6.0,"Start Day":21.0,"End Year":1972,"End Month":6.0,"End Day":21.0,"Total Affected":null,"Total Deaths":2.0}]