[{"Year":1918,"Type":"Earthquake","Subtype":"Ground movement","Country":"China","Location":"Kwangtung (Guangdong)","Latitude":"23.5","Longitude":"117","Country Latitude":35.000074,"Country Longitude":104.999927,"Location Latitude":23.1167036,"Location Longitude":113.2340483,"Smart Coords":null,"Start Year":1918,"Start Month":2.0,"Start Day":13.0,"End Year":1918,"End Month":2.0,"End Day":13.0,"Total Affected":null,"Total Deaths":10000.0},{"Year":1918,"Type":"Epidemic","Subtype":"Viral disease","Country":"Bangladesh","Location":null,"Latitude":null,"Longitude":null,"Country Latitude":24.4769288,"Country Longitude":90.2934413,"Location Latitude":null,"Location Longitude":null,"Smart Coords":null,"Start Year":1918,"Start Month":null,"Start Day":null,"End Year":1918,"End Month":null,"End Day":null,"Total Affected":null,"Total Deaths":393000.0},{"Year":1918,"Type":"Epidemic","Subtype":"Viral disease","Country":"Canada","Location":"Natiuonwide","Latitude":null,"Longitude":null,"Country Latitude":61.0666922,"Country Longitude":-107.991707,"Location Latitude":null,"Location Longitude":null,"Smart Coords":null,"Start Year":1918,"Start Month":1.0,"Start Day":null,"End Year":1918,"End Month":1.0,"End Day":null,"Total Affected":2000000.0,"Total Deaths":50000.0},{"Year":1918,"Type":"Earthquake","Subtype":"Ground movement","Country":"Philippines","Location":"Mindanao, South Cotabato","Latitude":"8.29","Longitude":"124.4","Country Latitude":12.7503486,"Country Longitude":122.7312101,"Location Latitude":6.5016113,"Location Longitude":124.8380012,"Smart Coords":"[{\"Lat\": 7.64784075, \"Lng\": 125.17171313357012}, {\"Lat\": 6.2855239, \"Lng\": 124.9333096}]","Start Year":1918,"Start Month":8.0,"Start Day":15.0,"End Year":1918,"End Month":8.0,"End Day":15.0,"Total Affected":null,"Total Deaths":100.0},{"Year":1918,"Type":"Earthquake","Subtype":"Ground movement","Country":"Puerto Rico","Location":"Mona Passage","Latitude":"18.06","Longitude":"-67.54","Country Latitude":18.2247706,"Country Longitude":-66.4858295,"Location Latitude":null,"Location Longitude":null,"Smart Coords":null,"Start Year":1918,"Start Month":10.0,"Start Day":11.0,"End Year":1918,"End Month":10.0,"End Day":11.0,"Total Affected":null,"Total Deaths":116.0},{"Year":1918,"Type":"Epidemic","Subtype":"Viral disease","Country":"New Zealand","Location":null,"Latitude":null,"Longitude":null,"Country Latitude":-41.5000831,"Country Longitude":172.8344077,"Location Latitude":null,"Location Longitude":null,"Smart Coords":null,"Start Year":1918,"Start Month":11.0,"Start Day":null,"End Year":1918,"End Month":11.0,"End Day":null,"Total Affected":null,"Total Deaths":6700.0},{"Year":1918,"Type":"Storm","Subtype":"Tropical cyclone","Country":"United States","Location":"Louisiana (Southwest)","Latitude":null,"Longitude":null,"Country Latitude":39.7837304,"Country Longitude":-100.445882,"Location Latitude":45.5164568,"Location Longitude":-122.8401135249,"Smart Coords":"[{\"Lat\": 30.8703881, \"Lng\": -92.007126}]","Start Year":1918,"Start Month":null,"Start Day":null,"End Year":1918,"End Month":null,"End Day":null,"Total Affected":null,"Total Deaths":34.0},{"Year":1918,"Type":"Wildfire","Subtype":"Forest fire","Country":"United States","Location":"Minnesota Wisconsin","Latitude":null,"Longitude":null,"Country Latitude":39.7837304,"Country Longitude":-100.445882,"Location Latitude":43.452494,"Location Longitude":-88.6970484,"Smart Coords":null,"Start Year":1918,"Start Month":10.0,"Start Day":15.0,"End Year":1918,"End Month":10.0,"End Day":15.0,"Total Affected":null,"Total Deaths":1000.0}]