[{"Year":1987,"Type":"Earthquake","Subtype":"Ground movement","Country":"Chile","Location":"Arica, Iquique several small Andean towns","Latitude":"-19.022","Longitude":"-69.991","Country Latitude":-31.7613365,"Country Longitude":-71.3187697,"Location Latitude":null,"Location Longitude":null,"Smart Coords":null,"Start Year":1987,"Start Month":8.0,"Start Day":8.0,"End Year":1987,"End Month":8.0,"End Day":8.0,"Total Affected":5112.0,"Total Deaths":5.0},{"Year":1987,"Type":"Earthquake","Subtype":"Ground movement","Country":"Ecuador","Location":"Carchi, Imbabura, Pastaza, Napo provinces","Latitude":"0.151","Longitude":"-77.785","Country Latitude":-1.3397668,"Country Longitude":-79.3666965,"Location Latitude":null,"Location Longitude":null,"Smart Coords":"[{\"Lat\": 0.8375163, \"Lng\": -78.2075154}, {\"Lat\": 0.3753621, \"Lng\": -78.355681}, {\"Lat\": -1.916667, \"Lng\": -77.0}, {\"Lat\": -0.7626471, \"Lng\": -77.9701878}]","Start Year":1987,"Start Month":3.0,"Start Day":5.0,"End Year":1987,"End Month":3.0,"End Day":5.0,"Total Affected":150000.0,"Total Deaths":5000.0},{"Year":1987,"Type":"Earthquake","Subtype":"Ground movement","Country":"Ecuador","Location":"Ambato (Tungurahua province)","Latitude":"-0.978","Longitude":"-78.05","Country Latitude":-1.3397668,"Country Longitude":-79.3666965,"Location Latitude":null,"Location Longitude":null,"Smart Coords":null,"Start Year":1987,"Start Month":9.0,"Start Day":22.0,"End Year":1987,"End Month":9.0,"End Day":22.0,"Total Affected":6.0,"Total Deaths":2.0},{"Year":1987,"Type":"Flood","Subtype":null,"Country":"Czechoslovakia","Location":"Slovakia","Latitude":null,"Longitude":null,"Country Latitude":49.323182,"Country Longitude":17.621027,"Location Latitude":null,"Location Longitude":null,"Smart Coords":"[{\"Lat\": 48.7411522, \"Lng\": 19.4528646}]","Start Year":1987,"Start Month":5.0,"Start Day":24.0,"End Year":1987,"End Month":5.0,"End Day":24.0,"Total Affected":null,"Total Deaths":null},{"Year":1987,"Type":"Landslide","Subtype":"Avalanche","Country":"Afghanistan","Location":null,"Latitude":null,"Longitude":null,"Country Latitude":33.7680065,"Country Longitude":66.2385139,"Location Latitude":null,"Location Longitude":null,"Smart Coords":null,"Start Year":1987,"Start Month":4.0,"Start Day":8.0,"End Year":1987,"End Month":4.0,"End Day":8.0,"Total Affected":null,"Total Deaths":70.0},{"Year":1987,"Type":"Epidemic","Subtype":"Bacterial disease","Country":"Angola","Location":"Luanda","Latitude":null,"Longitude":null,"Country Latitude":-11.8775768,"Country Longitude":17.5691241,"Location Latitude":-8.8272699,"Location Longitude":13.2439512,"Smart Coords":"[{\"Lat\": -8.993558, \"Lng\": 13.253163449649923}]","Start Year":1987,"Start Month":6.0,"Start Day":null,"End Year":1987,"End Month":6.0,"End Day":null,"Total Affected":673.0,"Total Deaths":59.0},{"Year":1987,"Type":"Wildfire","Subtype":"Forest fire","Country":"Argentina","Location":"Lanin area (Neuquen province), El Bolson area (Chubut province), Rio Negro province","Latitude":null,"Longitude":null,"Country Latitude":-34.9964963,"Country Longitude":-64.9672817,"Location Latitude":null,"Location Longitude":null,"Smart Coords":"[{\"Lat\": -39.6372157, \"Lng\": -71.5030569}, {\"Lat\": -41.9649027, \"Lng\": -71.5348197}, {\"Lat\": -40.4811973, \"Lng\": -67.6145911}]","Start Year":1987,"Start Month":1.0,"Start Day":22.0,"End Year":1987,"End Month":1.0,"End Day":22.0,"Total Affected":152752.0,"Total Deaths":null},{"Year":1987,"Type":"Flood","Subtype":null,"Country":"Argentina","Location":"Northwest Buenos Aires province","Latitude":null,"Longitude":null,"Country Latitude":-34.9964963,"Country Longitude":-64.9672817,"Location Latitude":null,"Location Longitude":null,"Smart Coords":"[{\"Lat\": -34.546800450000006, \"Lng\": -58.50027587749833}]","Start Year":1987,"Start Month":4.0,"Start Day":null,"End Year":1987,"End Month":4.0,"End Day":null,"Total Affected":12000.0,"Total Deaths":null},{"Year":1987,"Type":"Storm","Subtype":null,"Country":"Argentina","Location":null,"Latitude":null,"Longitude":null,"Country Latitude":-34.9964963,"Country Longitude":-64.9672817,"Location Latitude":null,"Location Longitude":null,"Smart Coords":null,"Start Year":1987,"Start Month":1.0,"Start Day":null,"End Year":1987,"End Month":1.0,"End Day":null,"Total Affected":1000.0,"Total Deaths":1.0},{"Year":1987,"Type":"Flood","Subtype":null,"Country":"Belgium","Location":null,"Latitude":null,"Longitude":null,"Country Latitude":50.6402809,"Country Longitude":4.6667145,"Location Latitude":null,"Location Longitude":null,"Smart Coords":null,"Start Year":1987,"Start Month":8.0,"Start Day":24.0,"End Year":1987,"End Month":8.0,"End Day":24.0,"Total Affected":null,"Total Deaths":null},{"Year":1987,"Type":"Epidemic","Subtype":"Bacterial disease","Country":"Benin","Location":"Atacora, Borgou, Zou provinces","Latitude":null,"Longitude":null,"Country Latitude":9.5293472,"Country Longitude":2.2584408,"Location Latitude":null,"Location Longitude":null,"Smart Coords":"[{\"Lat\": 10.7160515, \"Lng\": 1.5331527}, {\"Lat\": 9.7097453, \"Lng\": 2.7422648}, {\"Lat\": 7.2834335, \"Lng\": 2.1227604}]","Start Year":1987,"Start Month":1.0,"Start Day":1.0,"End Year":1987,"End Month":1.0,"End Day":1.0,"Total Affected":56.0,"Total Deaths":24.0},{"Year":1987,"Type":"Epidemic","Subtype":"Bacterial disease","Country":"Benin","Location":"Tanguieta, Cobly, Materi districts (Atacora province)","Latitude":null,"Longitude":null,"Country Latitude":9.5293472,"Country Longitude":2.2584408,"Location Latitude":null,"Location Longitude":null,"Smart Coords":"[{\"Lat\": 10.6300983, \"Lng\": 1.2706288}, {\"Lat\": 10.4791862, \"Lng\": 0.936429736261758}, {\"Lat\": 10.8214675, \"Lng\": 1.070225078666595}]","Start Year":1987,"Start Month":12.0,"Start Day":22.0,"End Year":1987,"End Month":12.0,"End Day":22.0,"Total Affected":347.0,"Total Deaths":41.0},{"Year":1987,"Type":"Insect infestation","Subtype":"Grasshopper","Country":"Burkina Faso","Location":null,"Latitude":null,"Longitude":null,"Country Latitude":12.0753083,"Country Longitude":-1.6880314,"Location Latitude":null,"Location Longitude":null,"Smart Coords":null,"Start Year":1987,"Start Month":null,"Start Day":null,"End Year":1987,"End Month":null,"End Day":null,"Total Affected":null,"Total Deaths":null},{"Year":1987,"Type":"Flood","Subtype":"Riverine flood","Country":"Bangladesh","Location":"Rangpur, Netrokona, Gaibandha, Noagaon, Kurigram, Jamlpur, Cox's Bazar, Chittagong, Noahkali districts","Latitude":null,"Longitude":null,"Country Latitude":24.4769288,"Country Longitude":90.2934413,"Location Latitude":null,"Location Longitude":null,"Smart Coords":"[{\"Lat\": 25.6376135, \"Lng\": 89.0826381}, {\"Lat\": 24.8855734, \"Lng\": 90.7332362}, {\"Lat\": 23.2029746, \"Lng\": 91.0331456}, {\"Lat\": 25.80522145, \"Lng\": 89.63846585173545}, {\"Lat\": 21.1766471, \"Lng\": 92.00350503412564}, {\"Lat\": 22.3336887, \"Lng\": 91.8342162}]","Start Year":1987,"Start Month":7.0,"Start Day":22.0,"End Year":1987,"End Month":7.0,"End Day":22.0,"Total Affected":29700000.0,"Total Deaths":2055.0},{"Year":1987,"Type":"Storm","Subtype":"Tropical cyclone","Country":"Bangladesh","Location":"Hatiya, Swandwip, Patuakhali, Bhola regions","Latitude":null,"Longitude":null,"Country Latitude":24.4769288,"Country Longitude":90.2934413,"Location Latitude":null,"Location Longitude":null,"Smart Coords":"[{\"Lat\": 22.2877297, \"Lng\": 91.1265769}, {\"Lat\": 22.0084243, \"Lng\": 90.38268272700292}, {\"Lat\": 22.1435694, \"Lng\": 90.79040887147522}]","Start Year":1987,"Start Month":6.0,"Start Day":4.0,"End Year":1987,"End Month":6.0,"End Day":4.0,"Total Affected":null,"Total Deaths":12.0},{"Year":1987,"Type":"Epidemic","Subtype":null,"Country":"Bangladesh","Location":"Dhamrai","Latitude":null,"Longitude":null,"Country Latitude":24.4769288,"Country Longitude":90.2934413,"Location Latitude":23.9183476,"Location Longitude":90.2142069,"Smart Coords":null,"Start Year":1987,"Start Month":11.0,"Start Day":null,"End Year":1987,"End Month":11.0,"End Day":null,"Total Affected":1000.0,"Total Deaths":100.0},{"Year":1987,"Type":"Epidemic","Subtype":null,"Country":"Bangladesh","Location":"Chittagong, Cox's Bazar","Latitude":null,"Longitude":null,"Country Latitude":24.4769288,"Country Longitude":90.2934413,"Location Latitude":21.1766471,"Location Longitude":92.0035050341,"Smart Coords":"[{\"Lat\": 22.3336887, \"Lng\": 91.8342162}, {\"Lat\": 21.1766471, \"Lng\": 92.00350503412564}]","Start Year":1987,"Start Month":12.0,"Start Day":null,"End Year":1987,"End Month":12.0,"End Day":null,"Total Affected":200.0,"Total Deaths":100.0},{"Year":1987,"Type":"Flood","Subtype":null,"Country":"Bangladesh","Location":null,"Latitude":null,"Longitude":null,"Country Latitude":24.4769288,"Country Longitude":90.2934413,"Location Latitude":null,"Location Longitude":null,"Smart Coords":null,"Start Year":1987,"Start Month":8.0,"Start Day":null,"End Year":1987,"End Month":8.0,"End Day":null,"Total Affected":null,"Total Deaths":225.0},{"Year":1987,"Type":"Epidemic","Subtype":null,"Country":"Bangladesh","Location":"Rangpur, Netrokona, Gaibandha, Noagaon, Kurigram, Jamlpur, Cox's Bazar, Chittagong, Noahkali districts","Latitude":null,"Longitude":null,"Country Latitude":24.4769288,"Country Longitude":90.2934413,"Location Latitude":null,"Location Longitude":null,"Smart Coords":"[{\"Lat\": 25.6376135, \"Lng\": 89.0826381}, {\"Lat\": 24.8855734, \"Lng\": 90.7332362}, {\"Lat\": 23.2029746, \"Lng\": 91.0331456}, {\"Lat\": 25.80522145, \"Lng\": 89.63846585173545}, {\"Lat\": 21.1766471, \"Lng\": 92.00350503412564}, {\"Lat\": 22.3336887, \"Lng\": 91.8342162}]","Start Year":1987,"Start Month":9.0,"Start Day":27.0,"End Year":1987,"End Month":9.0,"End Day":27.0,"Total Affected":600000.0,"Total Deaths":550.0},{"Year":1987,"Type":"Storm","Subtype":"Tropical cyclone","Country":"Bermuda","Location":null,"Latitude":null,"Longitude":null,"Country Latitude":32.30382,"Country Longitude":-64.7561647,"Location Latitude":null,"Location Longitude":null,"Smart Coords":null,"Start Year":1987,"Start Month":9.0,"Start Day":25.0,"End Year":1987,"End Month":9.0,"End Day":25.0,"Total Affected":40.0,"Total Deaths":null},{"Year":1987,"Type":"Flood","Subtype":"Riverine flood","Country":"Bolivia, Plurinational State of","Location":"Villa Fatima, Nueva Esperanza, Tocopilla (Cochabamba department)","Latitude":null,"Longitude":null,"Country Latitude":-17.0568696,"Country Longitude":-64.9912286,"Location Latitude":null,"Location Longitude":null,"Smart Coords":"[{\"Lat\": -16.8279683, \"Lng\": -65.210143}, {\"Lat\": -17.1926618, \"Lng\": -64.5642184}, {\"Lat\": -16.8105242, \"Lng\": -65.2667952}]","Start Year":1987,"Start Month":2.0,"Start Day":null,"End Year":1987,"End Month":2.0,"End Day":null,"Total Affected":20000.0,"Total Deaths":25.0},{"Year":1987,"Type":"Flood","Subtype":"Riverine flood","Country":"Brazil","Location":"Franco Da Rocha district, Sao Paulo","Latitude":null,"Longitude":null,"Country Latitude":-10.3333333,"Country Longitude":-53.2,"Location Latitude":null,"Location Longitude":null,"Smart Coords":"[{\"Lat\": -23.3328038, \"Lng\": -46.724446}, {\"Lat\": -23.5506507, \"Lng\": -46.6333824}]","Start Year":1987,"Start Month":1.0,"Start Day":26.0,"End Year":1987,"End Month":1.0,"End Day":26.0,"Total Affected":9000.0,"Total Deaths":95.0},{"Year":1987,"Type":"Drought","Subtype":"Drought","Country":"Brazil","Location":"Alagoas, Minas, Bahia, Maranhao, Piaui, Ceara, Rio Grande Do Norte, Paraiba, Pernambuco, Sergipe, Mina Gerais states","Latitude":null,"Longitude":null,"Country Latitude":-10.3333333,"Country Longitude":-53.2,"Location Latitude":null,"Location Longitude":null,"Smart Coords":"[{\"Lat\": -9.6611661, \"Lng\": -36.6502426}, {\"Lat\": -26.9428997, \"Lng\": -48.8360986}, {\"Lat\": -12.285251, \"Lng\": -41.9294776}, {\"Lat\": -5.2085503, \"Lng\": -45.3930262}, {\"Lat\": -7.6992782, \"Lng\": -42.5043787}, {\"Lat\": -5.3264703, \"Lng\": -39.7156073}, {\"Lat\": -7.1219366, \"Lng\": -36.7246845}, {\"Lat\": -8.4116316, \"Lng\": -37.5919699}, {\"Lat\": -10.6743911, \"Lng\": -37.3773519}, {\"Lat\": -20.406746, \"Lng\": -45.677885}]","Start Year":1987,"Start Month":6.0,"Start Day":null,"End Year":1988,"End Month":null,"End Day":null,"Total Affected":750000.0,"Total Deaths":null},{"Year":1987,"Type":"Flood","Subtype":null,"Country":"Brazil","Location":"Minas Gerais","Latitude":null,"Longitude":null,"Country Latitude":-10.3333333,"Country Longitude":-53.2,"Location Latitude":-18.5264844,"Location Longitude":-44.1588654,"Smart Coords":"[{\"Lat\": -18.5264844, \"Lng\": -44.1588654}]","Start Year":1987,"Start Month":12.0,"Start Day":25.0,"End Year":1987,"End Month":12.0,"End Day":25.0,"Total Affected":1500.0,"Total Deaths":12.0},{"Year":1987,"Type":"Storm","Subtype":"Tropical cyclone","Country":"Barbados","Location":null,"Latitude":null,"Longitude":null,"Country Latitude":13.1500331,"Country Longitude":-59.5250305,"Location Latitude":null,"Location Longitude":null,"Smart Coords":null,"Start Year":1987,"Start Month":null,"Start Day":null,"End Year":1987,"End Month":null,"End Day":null,"Total Affected":230.0,"Total Deaths":null},{"Year":1987,"Type":"Storm","Subtype":"Convective storm","Country":"Canada","Location":"Edmonton, Alberta","Latitude":null,"Longitude":null,"Country Latitude":61.0666922,"Country Longitude":-107.991707,"Location Latitude":53.5462055,"Location Longitude":-113.491241,"Smart Coords":"[{\"Lat\": 55.001251, \"Lng\": -115.002136}]","Start Year":1987,"Start Month":7.0,"Start Day":31.0,"End Year":1987,"End Month":7.0,"End Day":31.0,"Total Affected":250.0,"Total Deaths":26.0},{"Year":1987,"Type":"Flood","Subtype":"Riverine flood","Country":"Canada","Location":"Perth-Andover, New Brunswick","Latitude":null,"Longitude":null,"Country Latitude":61.0666922,"Country Longitude":-107.991707,"Location Latitude":46.7384475,"Location Longitude":-67.7057484,"Smart Coords":"[{\"Lat\": 46.500283, \"Lng\": -66.750183}]","Start Year":1987,"Start Month":4.0,"Start Day":2.0,"End Year":1987,"End Month":4.0,"End Day":2.0,"Total Affected":null,"Total Deaths":null},{"Year":1987,"Type":"Flood","Subtype":null,"Country":"Canada","Location":"Montreal","Latitude":null,"Longitude":null,"Country Latitude":61.0666922,"Country Longitude":-107.991707,"Location Latitude":45.5031824,"Location Longitude":-73.5698065,"Smart Coords":"[{\"Lat\": 45.5031824, \"Lng\": -73.5698065}]","Start Year":1987,"Start Month":7.0,"Start Day":14.0,"End Year":1987,"End Month":7.0,"End Day":14.0,"Total Affected":null,"Total Deaths":1.0},{"Year":1987,"Type":"Flood","Subtype":null,"Country":"Switzerland","Location":"Berne, Lucerne, Schwyz, Uri, Thurgovie, Vaud, Neuch\u00e2tel, Grisons, Jura","Latitude":null,"Longitude":null,"Country Latitude":46.7985624,"Country Longitude":8.2319736,"Location Latitude":null,"Location Longitude":null,"Smart Coords":"[{\"Lat\": 46.9484742, \"Lng\": 7.4521749}, {\"Lat\": 47.0505452, \"Lng\": 8.3054682}, {\"Lat\": 47.0571976, \"Lng\": 8.7222073}, {\"Lat\": 46.7864413, \"Lng\": 8.6420159}, {\"Lat\": 47.5859649, \"Lng\": 9.1428769}, {\"Lat\": 46.6356963, \"Lng\": 6.5320717}, {\"Lat\": 46.9895828, \"Lng\": 6.9292641}, {\"Lat\": 46.6960615, \"Lng\": 9.6027351}, {\"Lat\": 47.3566699, \"Lng\": 7.1598893}]","Start Year":1987,"Start Month":7.0,"Start Day":null,"End Year":1987,"End Month":7.0,"End Day":null,"Total Affected":null,"Total Deaths":null},{"Year":1987,"Type":"Storm","Subtype":null,"Country":"Switzerland","Location":"Grisons, Tessin","Latitude":null,"Longitude":null,"Country Latitude":46.7985624,"Country Longitude":8.2319736,"Location Latitude":null,"Location Longitude":null,"Smart Coords":"[{\"Lat\": 46.6960615, \"Lng\": 9.6027351}, {\"Lat\": 46.3351913, \"Lng\": 8.7525902}]","Start Year":1987,"Start Month":7.0,"Start Day":6.0,"End Year":1987,"End Month":7.0,"End Day":6.0,"Total Affected":null,"Total Deaths":1.0},{"Year":1987,"Type":"Flood","Subtype":"Riverine flood","Country":"Chile","Location":"Santiago, central Chile & outlying regions","Latitude":null,"Longitude":null,"Country Latitude":-31.7613365,"Country Longitude":-71.3187697,"Location Latitude":null,"Location Longitude":null,"Smart Coords":"[{\"Lat\": -33.4377756, \"Lng\": -70.6504502}]","Start Year":1987,"Start Month":7.0,"Start Day":17.0,"End Year":1987,"End Month":7.0,"End Day":17.0,"Total Affected":116364.0,"Total Deaths":73.0},{"Year":1987,"Type":"Flood","Subtype":"Riverine flood","Country":"Chile","Location":null,"Latitude":null,"Longitude":null,"Country Latitude":-31.7613365,"Country Longitude":-71.3187697,"Location Latitude":null,"Location Longitude":null,"Smart Coords":null,"Start Year":1987,"Start Month":8.0,"Start Day":12.0,"End Year":1987,"End Month":8.0,"End Day":12.0,"Total Affected":81000.0,"Total Deaths":54.0},{"Year":1987,"Type":"Landslide","Subtype":"Avalanche","Country":"Chile","Location":"Near Los Maitenes","Latitude":null,"Longitude":null,"Country Latitude":-31.7613365,"Country Longitude":-71.3187697,"Location Latitude":null,"Location Longitude":null,"Smart Coords":null,"Start Year":1987,"Start Month":11.0,"Start Day":29.0,"End Year":1987,"End Month":11.0,"End Day":29.0,"Total Affected":30.0,"Total Deaths":32.0},{"Year":1987,"Type":"Storm","Subtype":"Convective storm","Country":"China","Location":"Anhui province","Latitude":null,"Longitude":null,"Country Latitude":35.000074,"Country Longitude":104.999927,"Location Latitude":32.0,"Location Longitude":117.0,"Smart Coords":"[{\"Lat\": 32.0, \"Lng\": 117.0}]","Start Year":1987,"Start Month":3.0,"Start Day":6.0,"End Year":1987,"End Month":3.0,"End Day":6.0,"Total Affected":400800.0,"Total Deaths":2.0},{"Year":1987,"Type":"Storm","Subtype":"Convective storm","Country":"China","Location":"Heilongjiang province","Latitude":null,"Longitude":null,"Country Latitude":35.000074,"Country Longitude":104.999927,"Location Latitude":48.0000047,"Location Longitude":127.999992,"Smart Coords":"[{\"Lat\": 48.0000047, \"Lng\": 127.999992}]","Start Year":1987,"Start Month":7.0,"Start Day":31.0,"End Year":1987,"End Month":7.0,"End Day":31.0,"Total Affected":9442.0,"Total Deaths":29.0},{"Year":1987,"Type":"Earthquake","Subtype":"Ground movement","Country":"China","Location":"Wushi area (XINGJIANG WEIWUER ZIZHIQU PROVINCE)","Latitude":"41.529","Longitude":"79.318","Country Latitude":35.000074,"Country Longitude":104.999927,"Location Latitude":null,"Location Longitude":null,"Smart Coords":null,"Start Year":1987,"Start Month":1.0,"Start Day":24.0,"End Year":1987,"End Month":1.0,"End Day":24.0,"Total Affected":2085.0,"Total Deaths":null},{"Year":1987,"Type":"Earthquake","Subtype":"Ground movement","Country":"China","Location":"Ganzhou-Xunwu area","Latitude":"24.924","Longitude":"115.608","Country Latitude":35.000074,"Country Longitude":104.999927,"Location Latitude":null,"Location Longitude":null,"Smart Coords":null,"Start Year":1987,"Start Month":8.0,"Start Day":2.0,"End Year":1987,"End Month":8.0,"End Day":2.0,"Total Affected":185084.0,"Total Deaths":null},{"Year":1987,"Type":"Flood","Subtype":"Riverine flood","Country":"China","Location":"Guangdong province","Latitude":null,"Longitude":null,"Country Latitude":35.000074,"Country Longitude":104.999927,"Location Latitude":23.1357694,"Location Longitude":113.1982688,"Smart Coords":"[{\"Lat\": 23.1357694, \"Lng\": 113.1982688}]","Start Year":1987,"Start Month":5.0,"Start Day":21.0,"End Year":1987,"End Month":5.0,"End Day":21.0,"Total Affected":350400.0,"Total Deaths":92.0},{"Year":1987,"Type":"Flood","Subtype":"Riverine flood","Country":"China","Location":"Anhui","Latitude":null,"Longitude":null,"Country Latitude":35.000074,"Country Longitude":104.999927,"Location Latitude":32.0,"Location Longitude":117.0,"Smart Coords":"[{\"Lat\": 32.0, \"Lng\": 117.0}]","Start Year":1987,"Start Month":7.0,"Start Day":5.0,"End Year":1987,"End Month":7.0,"End Day":5.0,"Total Affected":null,"Total Deaths":56.0},{"Year":1987,"Type":"Flood","Subtype":"Riverine flood","Country":"China","Location":"Jihan (Shandong province)","Latitude":null,"Longitude":null,"Country Latitude":35.000074,"Country Longitude":104.999927,"Location Latitude":null,"Location Longitude":null,"Smart Coords":"[{\"Lat\": 30.8245932, \"Lng\": 103.9357977}]","Start Year":1987,"Start Month":8.0,"Start Day":26.0,"End Year":1987,"End Month":8.0,"End Day":26.0,"Total Affected":null,"Total Deaths":51.0},{"Year":1987,"Type":"Landslide","Subtype":"Landslide","Country":"China","Location":"Sichuan province","Latitude":null,"Longitude":null,"Country Latitude":35.000074,"Country Longitude":104.999927,"Location Latitude":30.5000001,"Location Longitude":102.4999999,"Smart Coords":"[{\"Lat\": 30.5000001, \"Lng\": 102.4999999}]","Start Year":1987,"Start Month":9.0,"Start Day":1.0,"End Year":1987,"End Month":9.0,"End Day":1.0,"Total Affected":119.0,"Total Deaths":65.0},{"Year":1987,"Type":"Storm","Subtype":"Tropical cyclone","Country":"China","Location":"Guangdong province","Latitude":null,"Longitude":null,"Country Latitude":35.000074,"Country Longitude":104.999927,"Location Latitude":23.1357694,"Location Longitude":113.1982688,"Smart Coords":"[{\"Lat\": 23.1357694, \"Lng\": 113.1982688}]","Start Year":1987,"Start Month":6.0,"Start Day":19.0,"End Year":1987,"End Month":6.0,"End Day":19.0,"Total Affected":900086.0,"Total Deaths":132.0},{"Year":1987,"Type":"Storm","Subtype":"Tropical cyclone","Country":"China","Location":"Fujian, Zhejian provinces","Latitude":null,"Longitude":null,"Country Latitude":35.000074,"Country Longitude":104.999927,"Location Latitude":null,"Location Longitude":null,"Smart Coords":"[{\"Lat\": 26.5450001, \"Lng\": 117.842778}]","Start Year":1987,"Start Month":9.0,"Start Day":11.0,"End Year":1987,"End Month":9.0,"End Day":11.0,"Total Affected":25400.0,"Total Deaths":102.0},{"Year":1987,"Type":"Storm","Subtype":"Tropical cyclone","Country":"China","Location":"Sichuan, Hubei","Latitude":null,"Longitude":null,"Country Latitude":35.000074,"Country Longitude":104.999927,"Location Latitude":30.4675182,"Location Longitude":114.38047,"Smart Coords":"[{\"Lat\": 30.5000001, \"Lng\": 102.4999999}, {\"Lat\": 31.15305035, \"Lng\": 112.88064226239663}]","Start Year":1987,"Start Month":6.0,"Start Day":9.0,"End Year":1987,"End Month":6.0,"End Day":9.0,"Total Affected":null,"Total Deaths":40.0},{"Year":1987,"Type":"Wildfire","Subtype":"Forest fire","Country":"China","Location":"Mohe county (Heilongjiang province)","Latitude":null,"Longitude":null,"Country Latitude":35.000074,"Country Longitude":104.999927,"Location Latitude":52.9759171,"Location Longitude":122.7933319,"Smart Coords":"[{\"Lat\": 52.9759171, \"Lng\": 122.7933319}]","Start Year":1987,"Start Month":5.0,"Start Day":null,"End Year":1987,"End Month":5.0,"End Day":null,"Total Affected":56313.0,"Total Deaths":191.0},{"Year":1987,"Type":"Epidemic","Subtype":"Viral disease","Country":"China","Location":"Shandong province","Latitude":null,"Longitude":null,"Country Latitude":35.000074,"Country Longitude":104.999927,"Location Latitude":36.0000001,"Location Longitude":118.9999999,"Smart Coords":"[{\"Lat\": 32.4650916, \"Lng\": 105.8723688}]","Start Year":1987,"Start Month":4.0,"Start Day":null,"End Year":1987,"End Month":4.0,"End Day":null,"Total Affected":1000.0,"Total Deaths":null},{"Year":1987,"Type":"Flood","Subtype":null,"Country":"China","Location":"Guangdong province","Latitude":null,"Longitude":null,"Country Latitude":35.000074,"Country Longitude":104.999927,"Location Latitude":23.1357694,"Location Longitude":113.1982688,"Smart Coords":"[{\"Lat\": 23.1357694, \"Lng\": 113.1982688}]","Start Year":1987,"Start Month":7.0,"Start Day":28.0,"End Year":1987,"End Month":7.0,"End Day":28.0,"Total Affected":590129.0,"Total Deaths":20.0},{"Year":1987,"Type":"Storm","Subtype":null,"Country":"China","Location":"Dandong, Dalian (Liaonging province)","Latitude":null,"Longitude":null,"Country Latitude":35.000074,"Country Longitude":104.999927,"Location Latitude":null,"Location Longitude":null,"Smart Coords":"[{\"Lat\": 38.906653, \"Lng\": 114.7969001}, {\"Lat\": 38.9181714, \"Lng\": 121.6282945}]","Start Year":1987,"Start Month":8.0,"Start Day":15.0,"End Year":1987,"End Month":8.0,"End Day":15.0,"Total Affected":50860.0,"Total Deaths":101.0},{"Year":1987,"Type":"Insect infestation","Subtype":"Grasshopper","Country":"Cameroon","Location":null,"Latitude":null,"Longitude":null,"Country Latitude":4.6125522,"Country Longitude":13.1535811,"Location Latitude":null,"Location Longitude":null,"Smart Coords":null,"Start Year":1987,"Start Month":1.0,"Start Day":null,"End Year":1987,"End Month":1.0,"End Day":null,"Total Affected":null,"Total Deaths":null},{"Year":1987,"Type":"Storm","Subtype":"Tropical cyclone","Country":"Cook Islands (the)","Location":"Rarotonga, Aitutaki, Mangaia","Latitude":null,"Longitude":null,"Country Latitude":-19.99697155,"Country Longitude":-157.7858714062,"Location Latitude":null,"Location Longitude":null,"Smart Coords":"[{\"Lat\": -21.2368312, \"Lng\": -159.77747437744517}, {\"Lat\": -18.88837815, \"Lng\": -159.7831878170802}, {\"Lat\": -21.92499155, \"Lng\": -157.92128408070093}]","Start Year":1987,"Start Month":1.0,"Start Day":2.0,"End Year":1987,"End Month":1.0,"End Day":2.0,"Total Affected":2000.0,"Total Deaths":5.0},{"Year":1987,"Type":"Flood","Subtype":"Riverine flood","Country":"Colombia","Location":"Ibague, PastalesTolima department","Latitude":null,"Longitude":null,"Country Latitude":4.099917,"Country Longitude":-72.9088133,"Location Latitude":null,"Location Longitude":null,"Smart Coords":"[{\"Lat\": 4.43917, \"Lng\": -75.2113267}]","Start Year":1987,"Start Month":7.0,"Start Day":4.0,"End Year":1987,"End Month":7.0,"End Day":4.0,"Total Affected":850.0,"Total Deaths":21.0},{"Year":1987,"Type":"Landslide","Subtype":"Landslide","Country":"Colombia","Location":"Villatina (Medellin)","Latitude":null,"Longitude":null,"Country Latitude":4.099917,"Country Longitude":-72.9088133,"Location Latitude":6.2360397,"Location Longitude":-75.5395461,"Smart Coords":null,"Start Year":1987,"Start Month":9.0,"Start Day":27.0,"End Year":1987,"End Month":9.0,"End Day":27.0,"Total Affected":6436.0,"Total Deaths":640.0},{"Year":1987,"Type":"Landslide","Subtype":"Landslide","Country":"Colombia","Location":null,"Latitude":null,"Longitude":null,"Country Latitude":4.099917,"Country Longitude":-72.9088133,"Location Latitude":null,"Location Longitude":null,"Smart Coords":null,"Start Year":1987,"Start Month":3.0,"Start Day":16.0,"End Year":1987,"End Month":3.0,"End Day":16.0,"Total Affected":null,"Total Deaths":13.0},{"Year":1987,"Type":"Storm","Subtype":"Tropical cyclone","Country":"Comoros","Location":"Anjouan, Grande Comore, Moheli","Latitude":null,"Longitude":null,"Country Latitude":-12.2045176,"Country Longitude":44.2832964,"Location Latitude":null,"Location Longitude":null,"Smart Coords":"[{\"Lat\": -12.22656805, \"Lng\": 44.41070486098224}, {\"Lat\": -11.6864437, \"Lng\": 43.2597436}, {\"Lat\": -12.32045735, \"Lng\": 43.72043132672973}]","Start Year":1987,"Start Month":1.0,"Start Day":3.0,"End Year":1987,"End Month":1.0,"End Day":3.0,"Total Affected":50000.0,"Total Deaths":24.0},{"Year":1987,"Type":"Storm","Subtype":null,"Country":"Czechoslovakia","Location":null,"Latitude":null,"Longitude":null,"Country Latitude":49.323182,"Country Longitude":17.621027,"Location Latitude":null,"Location Longitude":null,"Smart Coords":null,"Start Year":1987,"Start Month":7.0,"Start Day":8.0,"End Year":1987,"End Month":7.0,"End Day":8.0,"Total Affected":null,"Total Deaths":null},{"Year":1987,"Type":"Wildfire","Subtype":"Forest fire","Country":"Cuba","Location":"Moa, Holguin","Latitude":null,"Longitude":null,"Country Latitude":23.0131338,"Country Longitude":-80.8328748,"Location Latitude":20.6559593,"Location Longitude":-74.9430494,"Smart Coords":"[{\"Lat\": 20.6559593, \"Lng\": -74.9430494}, {\"Lat\": 20.91155765, \"Lng\": -75.78919775863332}]","Start Year":1987,"Start Month":8.0,"Start Day":null,"End Year":1987,"End Month":8.0,"End Day":null,"Total Affected":null,"Total Deaths":null},{"Year":1987,"Type":"Storm","Subtype":"Tropical cyclone","Country":"Dominican Republic","Location":"Barahona-Bari, Montecristi areas","Latitude":null,"Longitude":null,"Country Latitude":19.0974031,"Country Longitude":-70.3028026,"Location Latitude":null,"Location Longitude":null,"Smart Coords":"[{\"Lat\": 19.6770915, \"Lng\": -71.6800304}]","Start Year":1987,"Start Month":9.0,"Start Day":22.0,"End Year":1987,"End Month":9.0,"End Day":22.0,"Total Affected":null,"Total Deaths":3.0},{"Year":1987,"Type":"Earthquake","Subtype":"Ground movement","Country":"Algeria","Location":"Wilaya de Chle, Wilaya de Tissemsilt, Daira de Bordj Bou Naama, Larbaa","Latitude":"35.964","Longitude":"1.374","Country Latitude":28.0000272,"Country Longitude":2.9999825,"Location Latitude":null,"Location Longitude":null,"Smart Coords":null,"Start Year":1987,"Start Month":1.0,"Start Day":26.0,"End Year":1987,"End Month":1.0,"End Day":26.0,"Total Affected":3152.0,"Total Deaths":1.0},{"Year":1987,"Type":"Insect infestation","Subtype":"Locust","Country":"Algeria","Location":"Tindouf, Adrar","Latitude":null,"Longitude":null,"Country Latitude":28.0000272,"Country Longitude":2.9999825,"Location Latitude":null,"Location Longitude":null,"Smart Coords":"[{\"Lat\": 27.54390695, \"Lng\": -6.239925131375032}, {\"Lat\": 26.4888155, \"Lng\": -1.3582442169365363}]","Start Year":1987,"Start Month":10.0,"Start Day":null,"End Year":1987,"End Month":10.0,"End Day":null,"Total Affected":null,"Total Deaths":null},{"Year":1987,"Type":"Landslide","Subtype":"Mudslide","Country":"Ecuador","Location":"Cochancay","Latitude":null,"Longitude":null,"Country Latitude":-1.3397668,"Country Longitude":-79.3666965,"Location Latitude":-2.4687445,"Location Longitude":-79.2997029,"Smart Coords":null,"Start Year":1987,"Start Month":4.0,"Start Day":3.0,"End Year":1987,"End Month":4.0,"End Day":3.0,"Total Affected":6000.0,"Total Deaths":100.0},{"Year":1987,"Type":"Flood","Subtype":null,"Country":"Ecuador","Location":"Chone","Latitude":null,"Longitude":null,"Country Latitude":-1.3397668,"Country Longitude":-79.3666965,"Location Latitude":-0.38280985,"Location Longitude":-80.0721599286,"Smart Coords":"[{\"Lat\": -0.38280985, \"Lng\": -80.07215992860299}]","Start Year":1987,"Start Month":2.0,"Start Day":null,"End Year":1987,"End Month":2.0,"End Day":null,"Total Affected":10000.0,"Total Deaths":null},{"Year":1987,"Type":"Storm","Subtype":null,"Country":"Egypt","Location":"Sinai","Latitude":null,"Longitude":null,"Country Latitude":26.2540493,"Country Longitude":29.2675469,"Location Latitude":29.52316965,"Location Longitude":33.8054725765,"Smart Coords":null,"Start Year":1987,"Start Month":10.0,"Start Day":17.0,"End Year":1987,"End Month":10.0,"End Day":17.0,"Total Affected":11.0,"Total Deaths":30.0},{"Year":1987,"Type":"Storm","Subtype":"Convective storm","Country":"Spain","Location":"Navarra","Latitude":null,"Longitude":null,"Country Latitude":39.3260685,"Country Longitude":-4.8379791,"Location Latitude":42.61254875,"Location Longitude":-1.8307876734,"Smart Coords":null,"Start Year":1987,"Start Month":8.0,"Start Day":24.0,"End Year":1987,"End Month":8.0,"End Day":24.0,"Total Affected":null,"Total Deaths":null},{"Year":1987,"Type":"Flood","Subtype":"Riverine flood","Country":"Spain","Location":"Valencia, Murcia","Latitude":null,"Longitude":null,"Country Latitude":39.3260685,"Country Longitude":-4.8379791,"Location Latitude":38.0682822,"Location Longitude":-0.9951907,"Smart Coords":"[{\"Lat\": 39.4697065, \"Lng\": -0.3763353}, {\"Lat\": 37.9923795, \"Lng\": -1.1305431}]","Start Year":1987,"Start Month":11.0,"Start Day":4.0,"End Year":1987,"End Month":11.0,"End Day":4.0,"Total Affected":2000.0,"Total Deaths":5.0},{"Year":1987,"Type":"Insect infestation","Subtype":"Locust","Country":"Ethiopia","Location":null,"Latitude":null,"Longitude":null,"Country Latitude":10.2116702,"Country Longitude":38.6521203,"Location Latitude":null,"Location Longitude":null,"Smart Coords":null,"Start Year":1987,"Start Month":null,"Start Day":null,"End Year":1987,"End Month":null,"End Day":null,"Total Affected":null,"Total Deaths":null},{"Year":1987,"Type":"Drought","Subtype":"Drought","Country":"Ethiopia","Location":"Ogaden, Eritrea, Tigray, Wello, Shewa, Gama, Gofa, Sidamo, Gondar, Bale","Latitude":null,"Longitude":null,"Country Latitude":10.2116702,"Country Longitude":38.6521203,"Location Latitude":null,"Location Longitude":null,"Smart Coords":"[{\"Lat\": 9.5990628, \"Lng\": 41.8643367}, {\"Lat\": 9.0432756, \"Lng\": 38.7800444}, {\"Lat\": 13.881273, \"Lng\": 39.127495}, {\"Lat\": 8.9934694, \"Lng\": 38.774558}, {\"Lat\": 9.0, \"Lng\": 39.0}, {\"Lat\": 9.33333, \"Lng\": 42.7}, {\"Lat\": 6.61667, \"Lng\": 37.15}, {\"Lat\": 7.85, \"Lng\": 36.08333}, {\"Lat\": 12.610368, \"Lng\": 37.466766}, {\"Lat\": 6.751632799999999, \"Lng\": 40.84588289653723}]","Start Year":1987,"Start Month":6.0,"Start Day":null,"End Year":1987,"End Month":null,"End Day":null,"Total Affected":7000000.0,"Total Deaths":367.0},{"Year":1987,"Type":"Storm","Subtype":null,"Country":"Fiji","Location":null,"Latitude":null,"Longitude":null,"Country Latitude":-18.1239696,"Country Longitude":179.0122737,"Location Latitude":null,"Location Longitude":null,"Smart Coords":null,"Start Year":1987,"Start Month":1.0,"Start Day":null,"End Year":1987,"End Month":1.0,"End Day":null,"Total Affected":3369.0,"Total Deaths":1.0},{"Year":1987,"Type":"Storm","Subtype":null,"Country":"France","Location":"Bretagne, Normandie","Latitude":null,"Longitude":null,"Country Latitude":46.603354,"Country Longitude":1.8883335,"Location Latitude":49.2278858,"Location Longitude":-1.4628035,"Smart Coords":"[{\"Lat\": 48.2640845, \"Lng\": -2.9202408}, {\"Lat\": 48.8379433, \"Lng\": -1.5372302}, {\"Lat\": 48.8839808, \"Lng\": 2.3398337}]","Start Year":1987,"Start Month":10.0,"Start Day":16.0,"End Year":1987,"End Month":10.0,"End Day":16.0,"Total Affected":null,"Total Deaths":4.0},{"Year":1987,"Type":"Flood","Subtype":null,"Country":"France","Location":"Grand-Bornand","Latitude":null,"Longitude":null,"Country Latitude":46.603354,"Country Longitude":1.8883335,"Location Latitude":45.9418675,"Location Longitude":6.4271457,"Smart Coords":null,"Start Year":1987,"Start Month":7.0,"Start Day":14.0,"End Year":1987,"End Month":7.0,"End Day":14.0,"Total Affected":null,"Total Deaths":23.0},{"Year":1987,"Type":"Storm","Subtype":"Tropical cyclone","Country":"Micronesia, Federated States of","Location":null,"Latitude":null,"Longitude":null,"Country Latitude":8.6062347,"Country Longitude":151.8327443316,"Location Latitude":null,"Location Longitude":null,"Smart Coords":null,"Start Year":1987,"Start Month":11.0,"Start Day":21.0,"End Year":1987,"End Month":11.0,"End Day":21.0,"Total Affected":203.0,"Total Deaths":5.0},{"Year":1987,"Type":"Storm","Subtype":null,"Country":"United Kingdom","Location":"South","Latitude":null,"Longitude":null,"Country Latitude":54.7023545,"Country Longitude":-3.2765753,"Location Latitude":55.8616773,"Location Longitude":-4.0208982,"Smart Coords":null,"Start Year":1987,"Start Month":10.0,"Start Day":15.0,"End Year":1987,"End Month":10.0,"End Day":15.0,"Total Affected":null,"Total Deaths":20.0},{"Year":1987,"Type":"Epidemic","Subtype":null,"Country":"Guinea","Location":"Salambande","Latitude":null,"Longitude":null,"Country Latitude":10.7226226,"Country Longitude":-10.7083587,"Location Latitude":11.8910927,"Location Longitude":-11.8893806,"Smart Coords":null,"Start Year":1987,"Start Month":2.0,"Start Day":null,"End Year":1987,"End Month":2.0,"End Day":null,"Total Affected":30.0,"Total Deaths":18.0},{"Year":1987,"Type":"Insect infestation","Subtype":"Grasshopper","Country":"Gambia","Location":null,"Latitude":null,"Longitude":null,"Country Latitude":13.470062,"Country Longitude":-15.4900464,"Location Latitude":null,"Location Longitude":null,"Smart Coords":null,"Start Year":1987,"Start Month":null,"Start Day":null,"End Year":1987,"End Month":null,"End Day":null,"Total Affected":null,"Total Deaths":null},{"Year":1987,"Type":"Storm","Subtype":"Tropical cyclone","Country":"Guinea-Bissau","Location":"Tombali","Latitude":null,"Longitude":null,"Country Latitude":11.815215,"Country Longitude":-15.2351044,"Location Latitude":11.2981082,"Location Longitude":-15.1170104471,"Smart Coords":"[{\"Lat\": 11.2981082, \"Lng\": -15.117010447104745}]","Start Year":1987,"Start Month":7.0,"Start Day":1.0,"End Year":1987,"End Month":7.0,"End Day":1.0,"Total Affected":3703.0,"Total Deaths":1.0},{"Year":1987,"Type":"Epidemic","Subtype":"Bacterial disease","Country":"Guinea-Bissau","Location":"Bissau, Mansoa, Safim, Orango","Latitude":null,"Longitude":null,"Country Latitude":11.815215,"Country Longitude":-15.2351044,"Location Latitude":null,"Location Longitude":null,"Smart Coords":"[{\"Lat\": 11.861324, \"Lng\": -15.583055}, {\"Lat\": 12.06661, \"Lng\": -15.316344}, {\"Lat\": 11.931923, \"Lng\": -15.615397}, {\"Lat\": 11.113828600000002, \"Lng\": -16.13785365260979}]","Start Year":1987,"Start Month":9.0,"Start Day":25.0,"End Year":1987,"End Month":9.0,"End Day":25.0,"Total Affected":6000.0,"Total Deaths":68.0},{"Year":1987,"Type":"Insect infestation","Subtype":"Grasshopper","Country":"Guinea-Bissau","Location":null,"Latitude":null,"Longitude":null,"Country Latitude":11.815215,"Country Longitude":-15.2351044,"Location Latitude":null,"Location Longitude":null,"Smart Coords":null,"Start Year":1987,"Start Month":null,"Start Day":null,"End Year":1987,"End Month":null,"End Day":null,"Total Affected":null,"Total Deaths":null},{"Year":1987,"Type":"Extreme temperature","Subtype":"Heat wave","Country":"Greece","Location":null,"Latitude":null,"Longitude":null,"Country Latitude":38.9953683,"Country Longitude":21.9877132,"Location Latitude":null,"Location Longitude":null,"Smart Coords":null,"Start Year":1987,"Start Month":7.0,"Start Day":20.0,"End Year":1987,"End Month":7.0,"End Day":31.0,"Total Affected":null,"Total Deaths":1000.0},{"Year":1987,"Type":"Wildfire","Subtype":"Forest fire","Country":"Greece","Location":"Rhodes","Latitude":null,"Longitude":null,"Country Latitude":38.9953683,"Country Longitude":21.9877132,"Location Latitude":36.17262995,"Location Longitude":27.9194181456,"Smart Coords":"[{\"Lat\": 36.17262995, \"Lng\": 27.919418145633188}]","Start Year":1987,"Start Month":8.0,"Start Day":9.0,"End Year":1987,"End Month":8.0,"End Day":9.0,"Total Affected":null,"Total Deaths":null},{"Year":1987,"Type":"Storm","Subtype":null,"Country":"Greece","Location":"Athenes","Latitude":null,"Longitude":null,"Country Latitude":38.9953683,"Country Longitude":21.9877132,"Location Latitude":37.9839412,"Location Longitude":23.7283052,"Smart Coords":null,"Start Year":1987,"Start Month":3.0,"Start Day":null,"End Year":1987,"End Month":3.0,"End Day":null,"Total Affected":null,"Total Deaths":48.0},{"Year":1987,"Type":"Volcanic activity","Subtype":"Ash fall","Country":"Guatemala","Location":null,"Latitude":null,"Longitude":null,"Country Latitude":15.5855545,"Country Longitude":-90.345759,"Location Latitude":null,"Location Longitude":null,"Smart Coords":null,"Start Year":1987,"Start Month":1.0,"Start Day":21.0,"End Year":1987,"End Month":1.0,"End Day":25.0,"Total Affected":3035.0,"Total Deaths":null},{"Year":1987,"Type":"Wildfire","Subtype":"Forest fire","Country":"Guatemala","Location":"Peten","Latitude":null,"Longitude":null,"Country Latitude":15.5855545,"Country Longitude":-90.345759,"Location Latitude":16.9,"Location Longitude":-89.9,"Smart Coords":"[{\"Lat\": 16.9, \"Lng\": -89.9}]","Start Year":1987,"Start Month":5.0,"Start Day":null,"End Year":1987,"End Month":5.0,"End Day":null,"Total Affected":null,"Total Deaths":null},{"Year":1987,"Type":"Drought","Subtype":"Drought","Country":"Guatemala","Location":"Chiquimula area","Latitude":null,"Longitude":null,"Country Latitude":15.5855545,"Country Longitude":-90.345759,"Location Latitude":14.79661585,"Location Longitude":-89.5463104043,"Smart Coords":"[{\"Lat\": 14.6856751, \"Lng\": -89.39686132923444}]","Start Year":1987,"Start Month":null,"Start Day":null,"End Year":1988,"End Month":null,"End Day":null,"Total Affected":73000.0,"Total Deaths":null},{"Year":1987,"Type":"Flood","Subtype":null,"Country":"Guatemala","Location":"Huehuetenango","Latitude":null,"Longitude":null,"Country Latitude":15.5855545,"Country Longitude":-90.345759,"Location Latitude":15.6634185,"Location Longitude":-91.5839796,"Smart Coords":"[{\"Lat\": 15.6634185, \"Lng\": -91.5839796}]","Start Year":1987,"Start Month":9.0,"Start Day":30.0,"End Year":1987,"End Month":9.0,"End Day":30.0,"Total Affected":6515.0,"Total Deaths":84.0},{"Year":1987,"Type":"Storm","Subtype":"Tropical cyclone","Country":"Guam","Location":"North, Central, South","Latitude":null,"Longitude":null,"Country Latitude":13.4501257,"Country Longitude":144.7575510297,"Location Latitude":null,"Location Longitude":null,"Smart Coords":null,"Start Year":1987,"Start Month":10.0,"Start Day":null,"End Year":1987,"End Month":10.0,"End Day":null,"Total Affected":502.0,"Total Deaths":null},{"Year":1987,"Type":"Extreme temperature","Subtype":"Cold wave","Country":"Hong Kong","Location":null,"Latitude":null,"Longitude":null,"Country Latitude":22.352957,"Country Longitude":113.962891,"Location Latitude":null,"Location Longitude":null,"Smart Coords":null,"Start Year":1987,"Start Month":11.0,"Start Day":28.0,"End Year":1987,"End Month":11.0,"End Day":28.0,"Total Affected":7.0,"Total Deaths":10.0},{"Year":1987,"Type":"Wildfire","Subtype":"Land fire (Brush, Bush, Pasture)","Country":"Hong Kong","Location":"Tai Mo Shan Country Park","Latitude":null,"Longitude":null,"Country Latitude":22.352957,"Country Longitude":113.962891,"Location Latitude":null,"Location Longitude":null,"Smart Coords":null,"Start Year":1987,"Start Month":12.0,"Start Day":20.0,"End Year":1987,"End Month":12.0,"End Day":20.0,"Total Affected":null,"Total Deaths":null},{"Year":1987,"Type":"Flood","Subtype":null,"Country":"Hong Kong","Location":"Hong Kong, New Territories","Latitude":null,"Longitude":null,"Country Latitude":22.352957,"Country Longitude":113.962891,"Location Latitude":null,"Location Longitude":null,"Smart Coords":null,"Start Year":1987,"Start Month":4.0,"Start Day":5.0,"End Year":1987,"End Month":4.0,"End Day":5.0,"Total Affected":null,"Total Deaths":null},{"Year":1987,"Type":"Flood","Subtype":null,"Country":"Hong Kong","Location":"Hong Kong, Kwai Chung","Latitude":null,"Longitude":null,"Country Latitude":22.352957,"Country Longitude":113.962891,"Location Latitude":null,"Location Longitude":null,"Smart Coords":null,"Start Year":1987,"Start Month":7.0,"Start Day":22.0,"End Year":1987,"End Month":7.0,"End Day":22.0,"Total Affected":1000.0,"Total Deaths":null},{"Year":1987,"Type":"Earthquake","Subtype":"Ground movement","Country":"Indonesia","Location":"South Pantar Isl.(Timor)","Latitude":"-8.247","Longitude":"124.155","Country Latitude":-2.4833826,"Country Longitude":117.8902853,"Location Latitude":null,"Location Longitude":null,"Smart Coords":null,"Start Year":1987,"Start Month":11.0,"Start Day":26.0,"End Year":1987,"End Month":11.0,"End Day":26.0,"Total Affected":17100.0,"Total Deaths":125.0},{"Year":1987,"Type":"Drought","Subtype":"Drought","Country":"Malawi","Location":"South","Latitude":null,"Longitude":null,"Country Latitude":-13.2687204,"Country Longitude":33.9301963,"Location Latitude":null,"Location Longitude":null,"Smart Coords":null,"Start Year":1987,"Start Month":null,"Start Day":null,"End Year":1988,"End Month":null,"End Day":null,"Total Affected":1429267.0,"Total Deaths":null},{"Year":1987,"Type":"Flood","Subtype":null,"Country":"Nepal","Location":"Sinhulpalhowk, Nuwakot, Dolakha, Gorkha districts, eastern Terai, Jhapa, Morang, Sunsaro, Saptari, Udayapur","Latitude":null,"Longitude":null,"Country Latitude":28.1083929,"Country Longitude":84.0917139,"Location Latitude":null,"Location Longitude":null,"Smart Coords":"[{\"Lat\": 27.92579905, \"Lng\": 85.24867200914201}, {\"Lat\": 27.82376995, \"Lng\": 86.22146650694384}, {\"Lat\": 28.2708368, \"Lng\": 84.84075830956277}, {\"Lat\": 26.5837354, \"Lng\": 87.88570103314731}, {\"Lat\": 26.610518650000003, \"Lng\": 87.47285110888922}, {\"Lat\": 26.6071617, \"Lng\": 86.74937975095827}, {\"Lat\": 26.93282355, \"Lng\": 86.51969532821222}]","Start Year":1987,"Start Month":8.0,"Start Day":null,"End Year":1987,"End Month":8.0,"End Day":null,"Total Affected":351000.0,"Total Deaths":188.0},{"Year":1987,"Type":"Earthquake","Subtype":"Ground movement","Country":"Papua New Guinea","Location":"Umboi Isl., Finschafen area of Huon peninsula","Latitude":"-6.088","Longitude":"147.689","Country Latitude":-5.6816069,"Country Longitude":144.2489081,"Location Latitude":null,"Location Longitude":null,"Smart Coords":null,"Start Year":1987,"Start Month":2.0,"Start Day":9.0,"End Year":1987,"End Month":2.0,"End Day":9.0,"Total Affected":4000.0,"Total Deaths":1.0},{"Year":1987,"Type":"Drought","Subtype":"Drought","Country":"Indonesia","Location":"Java, Bali, Nusa Tenggara Timor, S. Sumtra, E. Kalimatan","Latitude":null,"Longitude":null,"Country Latitude":-2.4833826,"Country Longitude":117.8902853,"Location Latitude":null,"Location Longitude":null,"Smart Coords":"[{\"Lat\": -7.327969400000001, \"Lng\": 109.6139109880134}, {\"Lat\": -8.3304977, \"Lng\": 115.0906401}, {\"Lat\": -9.3460171, \"Lng\": 124.63707741045216}]","Start Year":1987,"Start Month":null,"Start Day":null,"End Year":1987,"End Month":null,"End Day":null,"Total Affected":null,"Total Deaths":null},{"Year":1987,"Type":"Flood","Subtype":null,"Country":"Haiti","Location":"Port-au-Prince","Latitude":null,"Longitude":null,"Country Latitude":19.1399952,"Country Longitude":-72.3570972,"Location Latitude":18.547327,"Location Longitude":-72.3395928,"Smart Coords":"[{\"Lat\": 18.547327, \"Lng\": -72.3395928}]","Start Year":1987,"Start Month":7.0,"Start Day":10.0,"End Year":1987,"End Month":7.0,"End Day":10.0,"Total Affected":5150.0,"Total Deaths":33.0},{"Year":1987,"Type":"Flood","Subtype":null,"Country":"Haiti","Location":"Southern","Latitude":null,"Longitude":null,"Country Latitude":19.1399952,"Country Longitude":-72.3570972,"Location Latitude":null,"Location Longitude":null,"Smart Coords":null,"Start Year":1987,"Start Month":12.0,"Start Day":null,"End Year":1987,"End Month":12.0,"End Day":null,"Total Affected":3000.0,"Total Deaths":null},{"Year":1987,"Type":"Flood","Subtype":null,"Country":"Haiti","Location":"Port-De-Paix","Latitude":null,"Longitude":null,"Country Latitude":19.1399952,"Country Longitude":-72.3570972,"Location Latitude":19.9389855,"Location Longitude":-72.8308129,"Smart Coords":null,"Start Year":1987,"Start Month":4.0,"Start Day":27.0,"End Year":1987,"End Month":4.0,"End Day":27.0,"Total Affected":655.0,"Total Deaths":null},{"Year":1987,"Type":"Flood","Subtype":null,"Country":"Haiti","Location":"Delmas, Caradeux, Port-au-Prince","Latitude":null,"Longitude":null,"Country Latitude":19.1399952,"Country Longitude":-72.3570972,"Location Latitude":18.5396549,"Location Longitude":-72.2972743,"Smart Coords":"[{\"Lat\": 18.5518464, \"Lng\": -72.2920071}, {\"Lat\": 18.547327, \"Lng\": -72.3395928}]","Start Year":1987,"Start Month":5.0,"Start Day":8.0,"End Year":1987,"End Month":5.0,"End Day":8.0,"Total Affected":105.0,"Total Deaths":null},{"Year":1987,"Type":"Earthquake","Subtype":"Ground movement","Country":"Indonesia","Location":"Tarutung (North Sumatra)","Latitude":"2.244","Longitude":"98.866","Country Latitude":-2.4833826,"Country Longitude":117.8902853,"Location Latitude":2.0230378,"Location Longitude":98.9649283,"Smart Coords":null,"Start Year":1987,"Start Month":4.0,"Start Day":26.0,"End Year":1987,"End Month":4.0,"End Day":26.0,"Total Affected":15001.0,"Total Deaths":2.0},{"Year":1987,"Type":"Mass movement (dry)","Subtype":"Landslide","Country":"Indonesia","Location":"Padang Panjang (West Sumatra)","Latitude":null,"Longitude":null,"Country Latitude":-2.4833826,"Country Longitude":117.8902853,"Location Latitude":-0.4654636,"Location Longitude":100.3932441,"Smart Coords":null,"Start Year":1987,"Start Month":5.0,"Start Day":4.0,"End Year":1987,"End Month":5.0,"End Day":4.0,"Total Affected":701.0,"Total Deaths":131.0},{"Year":1987,"Type":"Volcanic activity","Subtype":"Ash fall","Country":"Indonesia","Location":"Flores Isl.","Latitude":null,"Longitude":null,"Country Latitude":-2.4833826,"Country Longitude":117.8902853,"Location Latitude":null,"Location Longitude":null,"Smart Coords":"[{\"Lat\": -8.50998605, \"Lng\": 120.5981501476458}]","Start Year":1987,"Start Month":12.0,"Start Day":28.0,"End Year":1987,"End Month":12.0,"End Day":28.0,"Total Affected":13000.0,"Total Deaths":null},{"Year":1987,"Type":"Flood","Subtype":"Riverine flood","Country":"Indonesia","Location":"Esatern Java","Latitude":null,"Longitude":null,"Country Latitude":-2.4833826,"Country Longitude":117.8902853,"Location Latitude":null,"Location Longitude":null,"Smart Coords":null,"Start Year":1987,"Start Month":2.0,"Start Day":23.0,"End Year":1987,"End Month":2.0,"End Day":23.0,"Total Affected":26000.0,"Total Deaths":3.0},{"Year":1987,"Type":"Flood","Subtype":null,"Country":"Indonesia","Location":"Bengkulu (South Sumatra)","Latitude":null,"Longitude":null,"Country Latitude":-2.4833826,"Country Longitude":117.8902853,"Location Latitude":-3.8094452,"Location Longitude":102.7453852,"Smart Coords":"[{\"Lat\": -3.5186763, \"Lng\": 102.5359834}]","Start Year":1987,"Start Month":5.0,"Start Day":null,"End Year":1987,"End Month":5.0,"End Day":null,"Total Affected":null,"Total Deaths":37.0},{"Year":1987,"Type":"Flood","Subtype":null,"Country":"Indonesia","Location":"West Sumatra","Latitude":null,"Longitude":null,"Country Latitude":-2.4833826,"Country Longitude":117.8902853,"Location Latitude":-0.5827529,"Location Longitude":100.6133379,"Smart Coords":"[{\"Lat\": -0.5827529, \"Lng\": 100.6133379}]","Start Year":1987,"Start Month":12.0,"Start Day":14.0,"End Year":1987,"End Month":12.0,"End Day":14.0,"Total Affected":884.0,"Total Deaths":38.0},{"Year":1987,"Type":"Flood","Subtype":null,"Country":"Indonesia","Location":"Esp. Polmas, Pinrang (Sulawesi)","Latitude":null,"Longitude":null,"Country Latitude":-2.4833826,"Country Longitude":117.8902853,"Location Latitude":null,"Location Longitude":null,"Smart Coords":"[{\"Lat\": -3.7932568, \"Lng\": 119.6528692}]","Start Year":1987,"Start Month":12.0,"Start Day":25.0,"End Year":1987,"End Month":12.0,"End Day":25.0,"Total Affected":null,"Total Deaths":119.0},{"Year":1987,"Type":"Flood","Subtype":null,"Country":"Indonesia","Location":"Aceh province (North Sumatra)","Latitude":null,"Longitude":null,"Country Latitude":-2.4833826,"Country Longitude":117.8902853,"Location Latitude":null,"Location Longitude":null,"Smart Coords":"[{\"Lat\": 4.3685491, \"Lng\": 97.0253024}]","Start Year":1987,"Start Month":11.0,"Start Day":null,"End Year":1987,"End Month":11.0,"End Day":null,"Total Affected":2000.0,"Total Deaths":4.0},{"Year":1987,"Type":"Flood","Subtype":"Riverine flood","Country":"India","Location":"Assam, Bihar, West Bengal","Latitude":null,"Longitude":null,"Country Latitude":22.3511148,"Country Longitude":78.6677428,"Location Latitude":null,"Location Longitude":null,"Smart Coords":"[{\"Lat\": 26.4073841, \"Lng\": 93.2551303}, {\"Lat\": 25.6440845, \"Lng\": 85.906508}, {\"Lat\": 22.9964948, \"Lng\": 87.6855882}]","Start Year":1987,"Start Month":8.0,"Start Day":null,"End Year":1987,"End Month":8.0,"End Day":null,"Total Affected":18000000.0,"Total Deaths":1200.0},{"Year":1987,"Type":"Storm","Subtype":"Tropical cyclone","Country":"India","Location":"Andhra Pradesh, Tami Nadu","Latitude":null,"Longitude":null,"Country Latitude":22.3511148,"Country Longitude":78.6677428,"Location Latitude":null,"Location Longitude":null,"Smart Coords":"[{\"Lat\": 15.9240905, \"Lng\": 80.1863809}]","Start Year":1987,"Start Month":11.0,"Start Day":2.0,"End Year":1987,"End Month":11.0,"End Day":2.0,"Total Affected":50000.0,"Total Deaths":38.0},{"Year":1987,"Type":"Storm","Subtype":"Tropical cyclone","Country":"India","Location":"Guntur, Prakasam district (Andhra Pradesh)","Latitude":null,"Longitude":null,"Country Latitude":22.3511148,"Country Longitude":78.6677428,"Location Latitude":null,"Location Longitude":null,"Smart Coords":"[{\"Lat\": 16.2915189, \"Lng\": 80.4541588}, {\"Lat\": 15.6589741, \"Lng\": 79.47164372680194}]","Start Year":1987,"Start Month":11.0,"Start Day":14.0,"End Year":1987,"End Month":11.0,"End Day":14.0,"Total Affected":30000.0,"Total Deaths":25.0},{"Year":1987,"Type":"Extreme temperature","Subtype":"Heat wave","Country":"India","Location":"Rajasthan","Latitude":null,"Longitude":null,"Country Latitude":22.3511148,"Country Longitude":78.6677428,"Location Latitude":26.8105777,"Location Longitude":73.7684549,"Smart Coords":"[{\"Lat\": 26.8105777, \"Lng\": 73.7684549}]","Start Year":1987,"Start Month":6.0,"Start Day":null,"End Year":1987,"End Month":6.0,"End Day":null,"Total Affected":null,"Total Deaths":100.0},{"Year":1987,"Type":"Epidemic","Subtype":"Viral disease","Country":"India","Location":"Kashmir","Latitude":null,"Longitude":null,"Country Latitude":22.3511148,"Country Longitude":78.6677428,"Location Latitude":26.2644203,"Location Longitude":71.6027498,"Smart Coords":"[{\"Lat\": 26.2644203, \"Lng\": 71.6027498}]","Start Year":1987,"Start Month":1.0,"Start Day":19.0,"End Year":1987,"End Month":1.0,"End Day":19.0,"Total Affected":null,"Total Deaths":90.0},{"Year":1987,"Type":"Drought","Subtype":"Drought","Country":"India","Location":"Gujarat, Rajasthan, Orissa, Madhya Pradesh, Andhra Pradesh, Maharashtra","Latitude":null,"Longitude":null,"Country Latitude":22.3511148,"Country Longitude":78.6677428,"Location Latitude":null,"Location Longitude":null,"Smart Coords":"[{\"Lat\": 22.3850051, \"Lng\": 71.745261}, {\"Lat\": 26.8105777, \"Lng\": 73.7684549}, {\"Lat\": 20.5431241, \"Lng\": 84.6897321}, {\"Lat\": 23.8143419, \"Lng\": 77.5340719}, {\"Lat\": 15.9240905, \"Lng\": 80.1863809}, {\"Lat\": 18.9068356, \"Lng\": 75.6741579}]","Start Year":1987,"Start Month":5.0,"Start Day":null,"End Year":1987,"End Month":8.0,"End Day":null,"Total Affected":300000000.0,"Total Deaths":300.0},{"Year":1987,"Type":"Storm","Subtype":null,"Country":"India","Location":"Bihar, Uttar Pradesh","Latitude":null,"Longitude":null,"Country Latitude":22.3511148,"Country Longitude":78.6677428,"Location Latitude":27.2231459,"Location Longitude":78.0186903,"Smart Coords":"[{\"Lat\": 25.6440845, \"Lng\": 85.906508}, {\"Lat\": 27.1303344, \"Lng\": 80.859666}]","Start Year":1987,"Start Month":5.0,"Start Day":null,"End Year":1987,"End Month":5.0,"End Day":null,"Total Affected":null,"Total Deaths":63.0},{"Year":1987,"Type":"Storm","Subtype":null,"Country":"India","Location":"Bihar","Latitude":null,"Longitude":null,"Country Latitude":22.3511148,"Country Longitude":78.6677428,"Location Latitude":25.6440845,"Location Longitude":85.906508,"Smart Coords":"[{\"Lat\": 25.6440845, \"Lng\": 85.906508}]","Start Year":1987,"Start Month":10.0,"Start Day":18.0,"End Year":1987,"End Month":10.0,"End Day":18.0,"Total Affected":null,"Total Deaths":40.0},{"Year":1987,"Type":"Flood","Subtype":null,"Country":"India","Location":"Cachemire","Latitude":null,"Longitude":null,"Country Latitude":22.3511148,"Country Longitude":78.6677428,"Location Latitude":33.6649297,"Location Longitude":75.1629584,"Smart Coords":"[{\"Lat\": 33.6649297, \"Lng\": 75.1629584}]","Start Year":1987,"Start Month":5.0,"Start Day":null,"End Year":1987,"End Month":5.0,"End Day":null,"Total Affected":null,"Total Deaths":25.0},{"Year":1987,"Type":"Flood","Subtype":null,"Country":"India","Location":"Andhra Pradesh","Latitude":null,"Longitude":null,"Country Latitude":22.3511148,"Country Longitude":78.6677428,"Location Latitude":15.9240905,"Location Longitude":80.1863809,"Smart Coords":"[{\"Lat\": 15.9240905, \"Lng\": 80.1863809}]","Start Year":1987,"Start Month":7.0,"Start Day":9.0,"End Year":1987,"End Month":7.0,"End Day":9.0,"Total Affected":null,"Total Deaths":30.0},{"Year":1987,"Type":"Flood","Subtype":null,"Country":"India","Location":"Uttar Pradesh","Latitude":null,"Longitude":null,"Country Latitude":22.3511148,"Country Longitude":78.6677428,"Location Latitude":27.1303344,"Location Longitude":80.859666,"Smart Coords":"[{\"Lat\": 27.1303344, \"Lng\": 80.859666}]","Start Year":1987,"Start Month":9.0,"Start Day":18.0,"End Year":1987,"End Month":9.0,"End Day":18.0,"Total Affected":300000.0,"Total Deaths":59.0},{"Year":1987,"Type":"Flood","Subtype":null,"Country":"Ireland","Location":"North","Latitude":null,"Longitude":null,"Country Latitude":52.865196,"Country Longitude":-7.9794599,"Location Latitude":53.2786743,"Location Longitude":-6.6900420517,"Smart Coords":null,"Start Year":1987,"Start Month":10.0,"Start Day":null,"End Year":1987,"End Month":10.0,"End Day":null,"Total Affected":null,"Total Deaths":null},{"Year":1987,"Type":"Earthquake","Subtype":"Ground movement","Country":"Iran, Islamic Republic of","Location":"NAHAVAND-HAMADEN-TUYSARKAN (Southwest Teheran)","Latitude":"34.076","Longitude":"48.266","Country Latitude":32.6475314,"Country Longitude":54.5643516,"Location Latitude":null,"Location Longitude":null,"Smart Coords":null,"Start Year":1987,"Start Month":5.0,"Start Day":29.0,"End Year":1987,"End Month":5.0,"End Day":29.0,"Total Affected":50.0,"Total Deaths":2.0},{"Year":1987,"Type":"Flood","Subtype":"Riverine flood","Country":"Iran, Islamic Republic of","Location":"Teheran, East, Southwest of Iran","Latitude":null,"Longitude":null,"Country Latitude":32.6475314,"Country Longitude":54.5643516,"Location Latitude":null,"Location Longitude":null,"Smart Coords":"[{\"Lat\": 35.6892523, \"Lng\": 51.3896004}]","Start Year":1987,"Start Month":7.0,"Start Day":24.0,"End Year":1987,"End Month":7.0,"End Day":24.0,"Total Affected":null,"Total Deaths":147.0},{"Year":1987,"Type":"Flood","Subtype":null,"Country":"Iran, Islamic Republic of","Location":null,"Latitude":null,"Longitude":null,"Country Latitude":32.6475314,"Country Longitude":54.5643516,"Location Latitude":null,"Location Longitude":null,"Smart Coords":null,"Start Year":1987,"Start Month":9.0,"Start Day":null,"End Year":1987,"End Month":9.0,"End Day":null,"Total Affected":null,"Total Deaths":544.0},{"Year":1987,"Type":"Flood","Subtype":null,"Country":"Iran, Islamic Republic of","Location":null,"Latitude":null,"Longitude":null,"Country Latitude":32.6475314,"Country Longitude":54.5643516,"Location Latitude":null,"Location Longitude":null,"Smart Coords":null,"Start Year":1987,"Start Month":3.0,"Start Day":7.0,"End Year":1987,"End Month":3.0,"End Day":7.0,"Total Affected":null,"Total Deaths":30.0},{"Year":1987,"Type":"Flood","Subtype":null,"Country":"Iran, Islamic Republic of","Location":null,"Latitude":null,"Longitude":null,"Country Latitude":32.6475314,"Country Longitude":54.5643516,"Location Latitude":null,"Location Longitude":null,"Smart Coords":null,"Start Year":1987,"Start Month":6.0,"Start Day":null,"End Year":1987,"End Month":6.0,"End Day":null,"Total Affected":null,"Total Deaths":53.0},{"Year":1987,"Type":"Flood","Subtype":null,"Country":"Iran, Islamic Republic of","Location":null,"Latitude":null,"Longitude":null,"Country Latitude":32.6475314,"Country Longitude":54.5643516,"Location Latitude":null,"Location Longitude":null,"Smart Coords":null,"Start Year":1987,"Start Month":8.0,"Start Day":7.0,"End Year":1987,"End Month":8.0,"End Day":7.0,"Total Affected":null,"Total Deaths":50.0},{"Year":1987,"Type":"Flood","Subtype":null,"Country":"Iran, Islamic Republic of","Location":"Bachtaran, Liam, Hamadan","Latitude":null,"Longitude":null,"Country Latitude":32.6475314,"Country Longitude":54.5643516,"Location Latitude":null,"Location Longitude":null,"Smart Coords":"[{\"Lat\": 34.973321, \"Lng\": 48.6555779}]","Start Year":1987,"Start Month":10.0,"Start Day":27.0,"End Year":1987,"End Month":10.0,"End Day":27.0,"Total Affected":null,"Total Deaths":41.0},{"Year":1987,"Type":"Landslide","Subtype":null,"Country":"Italy","Location":"Valtellina, Sant'Antonio, Morignone","Latitude":null,"Longitude":null,"Country Latitude":42.6384261,"Country Longitude":12.674297,"Location Latitude":null,"Location Longitude":null,"Smart Coords":"[{\"Lat\": 46.32336235, \"Lng\": 10.258413671017705}, {\"Lat\": 43.7112918, \"Lng\": 10.3977464}, {\"Lat\": 46.3985366, \"Lng\": 10.3541811}]","Start Year":1987,"Start Month":7.0,"Start Day":28.0,"End Year":1987,"End Month":7.0,"End Day":28.0,"Total Affected":3189.0,"Total Deaths":44.0},{"Year":1987,"Type":"Flood","Subtype":null,"Country":"Italy","Location":"Firenze district (Toscana province), Roma district (Lazio province)","Latitude":null,"Longitude":null,"Country Latitude":42.6384261,"Country Longitude":12.674297,"Location Latitude":null,"Location Longitude":null,"Smart Coords":"[{\"Lat\": 43.7698712, \"Lng\": 11.2555757}, {\"Lat\": 41.8933203, \"Lng\": 12.4829321}]","Start Year":1987,"Start Month":9.0,"Start Day":null,"End Year":1987,"End Month":9.0,"End Day":null,"Total Affected":null,"Total Deaths":null},{"Year":1987,"Type":"Storm","Subtype":null,"Country":"Italy","Location":null,"Latitude":null,"Longitude":null,"Country Latitude":42.6384261,"Country Longitude":12.674297,"Location Latitude":null,"Location Longitude":null,"Smart Coords":null,"Start Year":1987,"Start Month":3.0,"Start Day":null,"End Year":1987,"End Month":3.0,"End Day":null,"Total Affected":null,"Total Deaths":null},{"Year":1987,"Type":"Storm","Subtype":null,"Country":"Italy","Location":"Sondrio, Bergame, Come","Latitude":null,"Longitude":null,"Country Latitude":42.6384261,"Country Longitude":12.674297,"Location Latitude":null,"Location Longitude":null,"Smart Coords":"[{\"Lat\": 46.32336235, \"Lng\": 10.258413671017705}, {\"Lat\": 45.7566557, \"Lng\": 9.754219200862249}, {\"Lat\": 45.939475900000005, \"Lng\": 9.149410145408948}]","Start Year":1987,"Start Month":7.0,"Start Day":9.0,"End Year":1987,"End Month":7.0,"End Day":9.0,"Total Affected":null,"Total Deaths":24.0},{"Year":1987,"Type":"Storm","Subtype":null,"Country":"Italy","Location":"North region, Alpes region","Latitude":null,"Longitude":null,"Country Latitude":42.6384261,"Country Longitude":12.674297,"Location Latitude":null,"Location Longitude":null,"Smart Coords":"[{\"Lat\": 45.9081401, \"Lng\": 9.141582381412086}]","Start Year":1987,"Start Month":8.0,"Start Day":24.0,"End Year":1987,"End Month":8.0,"End Day":26.0,"Total Affected":null,"Total Deaths":9.0},{"Year":1987,"Type":"Landslide","Subtype":null,"Country":"Italy","Location":"Tartano","Latitude":null,"Longitude":null,"Country Latitude":42.6384261,"Country Longitude":12.674297,"Location Latitude":46.1032281,"Location Longitude":9.686932813,"Smart Coords":null,"Start Year":1987,"Start Month":7.0,"Start Day":17.0,"End Year":1987,"End Month":7.0,"End Day":17.0,"Total Affected":3000.0,"Total Deaths":13.0},{"Year":1987,"Type":"Flood","Subtype":"Riverine flood","Country":"Jamaica","Location":null,"Latitude":null,"Longitude":null,"Country Latitude":18.1850507,"Country Longitude":-77.3947693,"Location Latitude":null,"Location Longitude":null,"Smart Coords":null,"Start Year":1987,"Start Month":11.0,"Start Day":null,"End Year":1987,"End Month":11.0,"End Day":null,"Total Affected":26000.0,"Total Deaths":9.0},{"Year":1987,"Type":"Flood","Subtype":null,"Country":"Jordan","Location":"Zarqa","Latitude":null,"Longitude":null,"Country Latitude":31.1667049,"Country Longitude":36.941628,"Location Latitude":32.0668425,"Location Longitude":36.0885771,"Smart Coords":"[{\"Lat\": 32.0668425, \"Lng\": 36.0885771}]","Start Year":1987,"Start Month":10.0,"Start Day":16.0,"End Year":1987,"End Month":10.0,"End Day":16.0,"Total Affected":29.0,"Total Deaths":9.0},{"Year":1987,"Type":"Earthquake","Subtype":"Ground movement","Country":"Japan","Location":"Chiba prefecture (Near Tokyo)","Latitude":"35.38","Longitude":"140.214","Country Latitude":36.5748441,"Country Longitude":139.2394179,"Location Latitude":null,"Location Longitude":null,"Smart Coords":null,"Start Year":1987,"Start Month":12.0,"Start Day":17.0,"End Year":1987,"End Month":12.0,"End Day":17.0,"Total Affected":22652.0,"Total Deaths":2.0},{"Year":1987,"Type":"Storm","Subtype":"Tropical cyclone","Country":"Japan","Location":"Shikoku, Honshu","Latitude":null,"Longitude":null,"Country Latitude":36.5748441,"Country Longitude":139.2394179,"Location Latitude":null,"Location Longitude":null,"Smart Coords":"[{\"Lat\": 33.560875, \"Lng\": 133.37188573946167}, {\"Lat\": 37.490012, \"Lng\": 139.8356621412412}]","Start Year":1987,"Start Month":10.0,"Start Day":16.0,"End Year":1987,"End Month":10.0,"End Day":16.0,"Total Affected":65010.0,"Total Deaths":8.0},{"Year":1987,"Type":"Drought","Subtype":"Drought","Country":"Cambodia","Location":null,"Latitude":null,"Longitude":null,"Country Latitude":12.5433216,"Country Longitude":104.8144914,"Location Latitude":null,"Location Longitude":null,"Smart Coords":null,"Start Year":1987,"Start Month":null,"Start Day":null,"End Year":1987,"End Month":null,"End Day":null,"Total Affected":null,"Total Deaths":null},{"Year":1987,"Type":"Flood","Subtype":null,"Country":"Saint Kitts and Nevis","Location":null,"Latitude":null,"Longitude":null,"Country Latitude":17.250512,"Country Longitude":-62.6725973,"Location Latitude":null,"Location Longitude":null,"Smart Coords":null,"Start Year":1987,"Start Month":5.0,"Start Day":null,"End Year":1987,"End Month":5.0,"End Day":null,"Total Affected":null,"Total Deaths":null},{"Year":1987,"Type":"Flood","Subtype":"Riverine flood","Country":"Korea, Republic of","Location":null,"Latitude":null,"Longitude":null,"Country Latitude":36.638392,"Country Longitude":127.6961188,"Location Latitude":null,"Location Longitude":null,"Smart Coords":null,"Start Year":1987,"Start Month":8.0,"Start Day":16.0,"End Year":1987,"End Month":8.0,"End Day":16.0,"Total Affected":154000.0,"Total Deaths":50.0},{"Year":1987,"Type":"Storm","Subtype":"Tropical cyclone","Country":"Korea, Republic of","Location":"Southeast (1) + Seoul + Chungchong-nam, Kwangwon, Kyonggi provinces (Central) (2)","Latitude":null,"Longitude":null,"Country Latitude":36.638392,"Country Longitude":127.6961188,"Location Latitude":null,"Location Longitude":null,"Smart Coords":"[{\"Lat\": 37.2752, \"Lng\": 127.0095}]","Start Year":1987,"Start Month":7.0,"Start Day":16.0,"End Year":1987,"End Month":7.0,"End Day":16.0,"Total Affected":56000.0,"Total Deaths":483.0},{"Year":1987,"Type":"Storm","Subtype":"Tropical cyclone","Country":"Korea, Republic of","Location":"Seoul, Inchon","Latitude":null,"Longitude":null,"Country Latitude":36.638392,"Country Longitude":127.6961188,"Location Latitude":37.44032425,"Location Longitude":126.7354004616,"Smart Coords":"[{\"Lat\": 37.5666791, \"Lng\": 126.9782914}, {\"Lat\": 37.456, \"Lng\": 126.7052}]","Start Year":1987,"Start Month":7.0,"Start Day":26.0,"End Year":1987,"End Month":7.0,"End Day":26.0,"Total Affected":null,"Total Deaths":136.0},{"Year":1987,"Type":"Epidemic","Subtype":"Viral disease","Country":"Lao People's Democratic Republic","Location":"Vientiane + surrounding provinces","Latitude":null,"Longitude":null,"Country Latitude":20.0171109,"Country Longitude":103.378253,"Location Latitude":null,"Location Longitude":null,"Smart Coords":null,"Start Year":1987,"Start Month":3.0,"Start Day":null,"End Year":1987,"End Month":3.0,"End Day":null,"Total Affected":2000.0,"Total Deaths":63.0},{"Year":1987,"Type":"Drought","Subtype":"Drought","Country":"Lao People's Democratic Republic","Location":"Northern provinces","Latitude":null,"Longitude":null,"Country Latitude":20.0171109,"Country Longitude":103.378253,"Location Latitude":null,"Location Longitude":null,"Smart Coords":null,"Start Year":1987,"Start Month":null,"Start Day":null,"End Year":1987,"End Month":null,"End Day":null,"Total Affected":null,"Total Deaths":null},{"Year":1987,"Type":"Flood","Subtype":null,"Country":"Lebanon","Location":"Northern Bekaa Region","Latitude":null,"Longitude":null,"Country Latitude":33.8750629,"Country Longitude":35.843409,"Location Latitude":null,"Location Longitude":null,"Smart Coords":null,"Start Year":1987,"Start Month":6.0,"Start Day":14.0,"End Year":1987,"End Month":6.0,"End Day":14.0,"Total Affected":1500.0,"Total Deaths":null},{"Year":1987,"Type":"Storm","Subtype":"Tropical cyclone","Country":"Saint Lucia","Location":null,"Latitude":null,"Longitude":null,"Country Latitude":13.8250489,"Country Longitude":-60.975036,"Location Latitude":null,"Location Longitude":null,"Smart Coords":null,"Start Year":1987,"Start Month":9.0,"Start Day":null,"End Year":1987,"End Month":9.0,"End Day":null,"Total Affected":null,"Total Deaths":null},{"Year":1987,"Type":"Epidemic","Subtype":"Viral disease","Country":"Sri Lanka","Location":null,"Latitude":null,"Longitude":null,"Country Latitude":7.87739585,"Country Longitude":80.6624785236,"Location Latitude":null,"Location Longitude":null,"Smart Coords":null,"Start Year":1987,"Start Month":11.0,"Start Day":null,"End Year":1987,"End Month":11.0,"End Day":null,"Total Affected":null,"Total Deaths":53.0},{"Year":1987,"Type":"Drought","Subtype":"Drought","Country":"Sri Lanka","Location":"North, Northeast","Latitude":null,"Longitude":null,"Country Latitude":7.87739585,"Country Longitude":80.6624785236,"Location Latitude":null,"Location Longitude":null,"Smart Coords":null,"Start Year":1987,"Start Month":null,"Start Day":null,"End Year":1987,"End Month":null,"End Day":null,"Total Affected":2200000.0,"Total Deaths":null},{"Year":1987,"Type":"Flood","Subtype":null,"Country":"Lesotho","Location":"Mokhotlong & other remote mountain areas","Latitude":null,"Longitude":null,"Country Latitude":-29.6039267,"Country Longitude":28.3350193,"Location Latitude":null,"Location Longitude":null,"Smart Coords":null,"Start Year":1987,"Start Month":10.0,"Start Day":null,"End Year":1987,"End Month":10.0,"End Day":null,"Total Affected":100000.0,"Total Deaths":18.0},{"Year":1987,"Type":"Insect infestation","Subtype":"Locust","Country":"Morocco","Location":"Southeastern","Latitude":null,"Longitude":null,"Country Latitude":31.1728205,"Country Longitude":-7.3362482,"Location Latitude":null,"Location Longitude":null,"Smart Coords":null,"Start Year":1987,"Start Month":10.0,"Start Day":null,"End Year":1987,"End Month":10.0,"End Day":null,"Total Affected":null,"Total Deaths":null},{"Year":1987,"Type":"Flood","Subtype":null,"Country":"Maldives","Location":null,"Latitude":null,"Longitude":null,"Country Latitude":3.7203503,"Country Longitude":73.2244152,"Location Latitude":null,"Location Longitude":null,"Smart Coords":null,"Start Year":1987,"Start Month":4.0,"Start Day":11.0,"End Year":1987,"End Month":4.0,"End Day":11.0,"Total Affected":300.0,"Total Deaths":null},{"Year":1987,"Type":"Earthquake","Subtype":"Ground movement","Country":"Mexico","Location":"Mexicali","Latitude":"33.015","Longitude":"-115.852","Country Latitude":23.6585116,"Country Longitude":-102.0077097,"Location Latitude":32.6405247,"Location Longitude":-115.474899,"Smart Coords":"[{\"Lat\": 32.6405247, \"Lng\": -115.474899}]","Start Year":1987,"Start Month":11.0,"Start Day":24.0,"End Year":1987,"End Month":11.0,"End Day":24.0,"Total Affected":3050.0,"Total Deaths":2.0},{"Year":1987,"Type":"Flood","Subtype":"Riverine flood","Country":"Mexico","Location":"Mexico city","Latitude":null,"Longitude":null,"Country Latitude":23.6585116,"Country Longitude":-102.0077097,"Location Latitude":19.4326296,"Location Longitude":-99.1331785,"Smart Coords":"[{\"Lat\": 23.6585116, \"Lng\": -102.0077097}]","Start Year":1987,"Start Month":6.0,"Start Day":13.0,"End Year":1987,"End Month":6.0,"End Day":13.0,"Total Affected":212.0,"Total Deaths":5.0},{"Year":1987,"Type":"Flood","Subtype":"Riverine flood","Country":"Mexico","Location":"Mexico city","Latitude":null,"Longitude":null,"Country Latitude":23.6585116,"Country Longitude":-102.0077097,"Location Latitude":19.4326296,"Location Longitude":-99.1331785,"Smart Coords":"[{\"Lat\": 23.6585116, \"Lng\": -102.0077097}]","Start Year":1987,"Start Month":9.0,"Start Day":29.0,"End Year":1987,"End Month":9.0,"End Day":29.0,"Total Affected":null,"Total Deaths":11.0},{"Year":1987,"Type":"Epidemic","Subtype":"Bacterial disease","Country":"Mali","Location":"Western","Latitude":null,"Longitude":null,"Country Latitude":16.3700359,"Country Longitude":-2.2900239,"Location Latitude":null,"Location Longitude":null,"Smart Coords":null,"Start Year":1987,"Start Month":10.0,"Start Day":null,"End Year":1987,"End Month":10.0,"End Day":null,"Total Affected":null,"Total Deaths":57.0},{"Year":1987,"Type":"Epidemic","Subtype":"Viral disease","Country":"Mali","Location":"Bamako & rural areas","Latitude":null,"Longitude":null,"Country Latitude":16.3700359,"Country Longitude":-2.2900239,"Location Latitude":null,"Location Longitude":null,"Smart Coords":"[{\"Lat\": 12.6406267, \"Lng\": -7.996733}]","Start Year":1987,"Start Month":9.0,"Start Day":null,"End Year":1987,"End Month":9.0,"End Day":null,"Total Affected":305.0,"Total Deaths":145.0},{"Year":1987,"Type":"Insect infestation","Subtype":"Grasshopper","Country":"Mali","Location":null,"Latitude":null,"Longitude":null,"Country Latitude":16.3700359,"Country Longitude":-2.2900239,"Location Latitude":null,"Location Longitude":null,"Smart Coords":null,"Start Year":1987,"Start Month":null,"Start Day":null,"End Year":1987,"End Month":null,"End Day":null,"Total Affected":null,"Total Deaths":null},{"Year":1987,"Type":"Drought","Subtype":"Drought","Country":"Mozambique","Location":"Inhambane province","Latitude":null,"Longitude":null,"Country Latitude":-19.302233,"Country Longitude":34.9144977,"Location Latitude":-22.779116,"Location Longitude":34.5661741,"Smart Coords":"[{\"Lat\": -22.779116, \"Lng\": 34.5661741}]","Start Year":1987,"Start Month":9.0,"Start Day":null,"End Year":1987,"End Month":null,"End Day":null,"Total Affected":8000.0,"Total Deaths":50.0},{"Year":1987,"Type":"Epidemic","Subtype":"Viral disease","Country":"Mauritania","Location":"Seven Regions Threatened","Latitude":null,"Longitude":null,"Country Latitude":20.2540382,"Country Longitude":-9.2399263,"Location Latitude":null,"Location Longitude":null,"Smart Coords":null,"Start Year":1987,"Start Month":10.0,"Start Day":null,"End Year":1987,"End Month":10.0,"End Day":null,"Total Affected":178.0,"Total Deaths":35.0},{"Year":1987,"Type":"Insect infestation","Subtype":"Locust","Country":"Mauritania","Location":"Southwest, North, East, South","Latitude":null,"Longitude":null,"Country Latitude":20.2540382,"Country Longitude":-9.2399263,"Location Latitude":null,"Location Longitude":null,"Smart Coords":null,"Start Year":1987,"Start Month":11.0,"Start Day":null,"End Year":1987,"End Month":11.0,"End Day":null,"Total Affected":null,"Total Deaths":null},{"Year":1987,"Type":"Flood","Subtype":null,"Country":"Malaysia","Location":"East coast states","Latitude":null,"Longitude":null,"Country Latitude":4.5693754,"Country Longitude":102.2656823,"Location Latitude":null,"Location Longitude":null,"Smart Coords":"[{\"Lat\": 5.3409086, \"Lng\": 103.0106421}]","Start Year":1987,"Start Month":12.0,"Start Day":null,"End Year":1987,"End Month":12.0,"End Day":null,"Total Affected":2576.0,"Total Deaths":3.0},{"Year":1987,"Type":"Insect infestation","Subtype":"Grasshopper","Country":"Niger","Location":null,"Latitude":null,"Longitude":null,"Country Latitude":17.7356214,"Country Longitude":9.3238432,"Location Latitude":null,"Location Longitude":null,"Smart Coords":null,"Start Year":1987,"Start Month":1.0,"Start Day":null,"End Year":1987,"End Month":1.0,"End Day":null,"Total Affected":null,"Total Deaths":null},{"Year":1987,"Type":"Epidemic","Subtype":"Bacterial disease","Country":"Nigeria","Location":null,"Latitude":null,"Longitude":null,"Country Latitude":9.6000359,"Country Longitude":7.9999721,"Location Latitude":null,"Location Longitude":null,"Smart Coords":null,"Start Year":1987,"Start Month":9.0,"Start Day":null,"End Year":1987,"End Month":9.0,"End Day":null,"Total Affected":null,"Total Deaths":38.0},{"Year":1987,"Type":"Epidemic","Subtype":"Viral disease","Country":"Nigeria","Location":"Bauchi state","Latitude":null,"Longitude":null,"Country Latitude":9.6000359,"Country Longitude":7.9999721,"Location Latitude":10.6228284,"Location Longitude":10.0287754,"Smart Coords":"[{\"Lat\": 10.6228284, \"Lng\": 10.0287754}]","Start Year":1987,"Start Month":5.0,"Start Day":null,"End Year":1987,"End Month":5.0,"End Day":null,"Total Affected":null,"Total Deaths":89.0},{"Year":1987,"Type":"Epidemic","Subtype":"Viral disease","Country":"Nigeria","Location":"Cross River state","Latitude":null,"Longitude":null,"Country Latitude":9.6000359,"Country Longitude":7.9999721,"Location Latitude":5.8671966,"Location Longitude":8.5204774,"Smart Coords":"[{\"Lat\": 5.8671966, \"Lng\": 8.5204774}]","Start Year":1987,"Start Month":10.0,"Start Day":null,"End Year":1987,"End Month":10.0,"End Day":null,"Total Affected":120.0,"Total Deaths":100.0},{"Year":1987,"Type":"Epidemic","Subtype":"Viral disease","Country":"Nigeria","Location":null,"Latitude":null,"Longitude":null,"Country Latitude":9.6000359,"Country Longitude":7.9999721,"Location Latitude":null,"Location Longitude":null,"Smart Coords":null,"Start Year":1987,"Start Month":1.0,"Start Day":null,"End Year":1987,"End Month":1.0,"End Day":null,"Total Affected":null,"Total Deaths":89.0},{"Year":1987,"Type":"Epidemic","Subtype":"Viral disease","Country":"Nigeria","Location":"Oyo, Ondo, Ogun, Kwara, Bendel states","Latitude":null,"Longitude":null,"Country Latitude":9.6000359,"Country Longitude":7.9999721,"Location Latitude":null,"Location Longitude":null,"Smart Coords":"[{\"Lat\": 8.2151249, \"Lng\": 3.5642897}, {\"Lat\": 7.0209686, \"Lng\": 5.0567477}, {\"Lat\": 6.9788582, \"Lng\": 3.4389293}, {\"Lat\": 8.8367891, \"Lng\": 4.6688487}, {\"Lat\": 6.4336571, \"Lng\": 3.4325372}]","Start Year":1987,"Start Month":4.0,"Start Day":null,"End Year":1987,"End Month":4.0,"End Day":null,"Total Affected":null,"Total Deaths":214.0},{"Year":1987,"Type":"Storm","Subtype":"Convective storm","Country":"Nepal","Location":null,"Latitude":null,"Longitude":null,"Country Latitude":28.1083929,"Country Longitude":84.0917139,"Location Latitude":null,"Location Longitude":null,"Smart Coords":null,"Start Year":1987,"Start Month":null,"Start Day":null,"End Year":1987,"End Month":null,"End Day":null,"Total Affected":null,"Total Deaths":null},{"Year":1987,"Type":"Extreme temperature","Subtype":"Heat wave","Country":"Nepal","Location":"Nepalguni","Latitude":null,"Longitude":null,"Country Latitude":28.1083929,"Country Longitude":84.0917139,"Location Latitude":null,"Location Longitude":null,"Smart Coords":null,"Start Year":1987,"Start Month":4.0,"Start Day":null,"End Year":1987,"End Month":4.0,"End Day":null,"Total Affected":10.0,"Total Deaths":null},{"Year":1987,"Type":"Earthquake","Subtype":"Ground movement","Country":"New Zealand","Location":"Edgecumbe (Bay of Plenty)","Latitude":"-37.965","Longitude":"176.765","Country Latitude":-41.5000831,"Country Longitude":172.8344077,"Location Latitude":-37.9772022,"Location Longitude":176.8280177,"Smart Coords":null,"Start Year":1987,"Start Month":3.0,"Start Day":2.0,"End Year":1987,"End Month":3.0,"End Day":2.0,"Total Affected":7025.0,"Total Deaths":1.0},{"Year":1987,"Type":"Wildfire","Subtype":"Land fire (Brush, Bush, Pasture)","Country":"New Zealand","Location":"Thames Valley","Latitude":null,"Longitude":null,"Country Latitude":-41.5000831,"Country Longitude":172.8344077,"Location Latitude":-37.12838575,"Location Longitude":175.6179691423,"Smart Coords":"[{\"Lat\": -37.12838575, \"Lng\": 175.6179691422891}]","Start Year":1987,"Start Month":3.0,"Start Day":19.0,"End Year":1987,"End Month":3.0,"End Day":19.0,"Total Affected":130.0,"Total Deaths":null},{"Year":1987,"Type":"Flood","Subtype":null,"Country":"New Zealand","Location":"Invercargill, Bluff Borough","Latitude":null,"Longitude":null,"Country Latitude":-41.5000831,"Country Longitude":172.8344077,"Location Latitude":null,"Location Longitude":null,"Smart Coords":"[{\"Lat\": -46.4118465, \"Lng\": 168.3470632}, {\"Lat\": -46.59882, \"Lng\": 168.3433685}]","Start Year":1987,"Start Month":3.0,"Start Day":10.0,"End Year":1987,"End Month":3.0,"End Day":10.0,"Total Affected":700.0,"Total Deaths":null},{"Year":1987,"Type":"Flood","Subtype":"Riverine flood","Country":"Peru","Location":"Villarica, Oxapampa (Pasco state)","Latitude":null,"Longitude":null,"Country Latitude":-6.8699697,"Country Longitude":-75.0458515,"Location Latitude":null,"Location Longitude":null,"Smart Coords":"[{\"Lat\": -12.8384738, \"Lng\": -73.6273757}, {\"Lat\": -10.333333, \"Lng\": -75.083333}]","Start Year":1987,"Start Month":2.0,"Start Day":null,"End Year":1987,"End Month":2.0,"End Day":null,"Total Affected":3019.0,"Total Deaths":73.0},{"Year":1987,"Type":"Landslide","Subtype":"Mudslide","Country":"Peru","Location":"Chuschi (Ayacucho State)","Latitude":null,"Longitude":null,"Country Latitude":-6.8699697,"Country Longitude":-75.0458515,"Location Latitude":null,"Location Longitude":null,"Smart Coords":"[{\"Lat\": -13.5850271, \"Lng\": -74.3520026}]","Start Year":1987,"Start Month":1.0,"Start Day":9.0,"End Year":1987,"End Month":1.0,"End Day":9.0,"Total Affected":385.0,"Total Deaths":25.0},{"Year":1987,"Type":"Landslide","Subtype":"Mudslide","Country":"Peru","Location":"San Juan Ubirique (Junin area)","Latitude":null,"Longitude":null,"Country Latitude":-6.8699697,"Country Longitude":-75.0458515,"Location Latitude":null,"Location Longitude":null,"Smart Coords":null,"Start Year":1987,"Start Month":12.0,"Start Day":4.0,"End Year":1987,"End Month":12.0,"End Day":4.0,"Total Affected":null,"Total Deaths":70.0},{"Year":1987,"Type":"Flood","Subtype":null,"Country":"Peru","Location":"Chosica (Lima)","Latitude":null,"Longitude":null,"Country Latitude":-6.8699697,"Country Longitude":-75.0458515,"Location Latitude":-11.9367735,"Location Longitude":-76.6969111,"Smart Coords":"[{\"Lat\": -11.9367735, \"Lng\": -76.6969111}]","Start Year":1987,"Start Month":3.0,"Start Day":9.0,"End Year":1987,"End Month":3.0,"End Day":9.0,"Total Affected":25500.0,"Total Deaths":100.0},{"Year":1987,"Type":"Storm","Subtype":"Tropical cyclone","Country":"Philippines","Location":"Batangas, Laguna, Bicol, Mindoro, Cavite, Luzon","Latitude":null,"Longitude":null,"Country Latitude":12.7503486,"Country Longitude":122.7312101,"Location Latitude":null,"Location Longitude":null,"Smart Coords":"[{\"Lat\": 13.9146826, \"Lng\": 121.0867566}, {\"Lat\": 14.1696476, \"Lng\": 121.3336526}, {\"Lat\": 13.100588, \"Lng\": 123.52313310936306}, {\"Lat\": 14.2554073, \"Lng\": 120.8671503}, {\"Lat\": 15.5627393, \"Lng\": 120.7465440792776}]","Start Year":1987,"Start Month":8.0,"Start Day":8.0,"End Year":1987,"End Month":8.0,"End Day":8.0,"Total Affected":1269825.0,"Total Deaths":85.0},{"Year":1987,"Type":"Storm","Subtype":"Tropical cyclone","Country":"Philippines","Location":"Cagayan, Ilocos Norte, Kalin-Aapayo province","Latitude":null,"Longitude":null,"Country Latitude":12.7503486,"Country Longitude":122.7312101,"Location Latitude":null,"Location Longitude":null,"Smart Coords":"[{\"Lat\": 18.0, \"Lng\": 121.833333}, {\"Lat\": 18.166667, \"Lng\": 120.75}]","Start Year":1987,"Start Month":10.0,"Start Day":21.0,"End Year":1987,"End Month":10.0,"End Day":21.0,"Total Affected":78979.0,"Total Deaths":100.0},{"Year":1987,"Type":"Storm","Subtype":"Tropical cyclone","Country":"Philippines","Location":"Region IV, Marinduque, Quezon, Laguna, Batangas, Region V, Sorgoson, Albay, Battan, Cavite, Masbaten Camarines Sur, Leyte, Northern Samar","Latitude":null,"Longitude":null,"Country Latitude":12.7503486,"Country Longitude":122.7312101,"Location Latitude":null,"Location Longitude":null,"Smart Coords":"[{\"Lat\": 15.2045034, \"Lng\": 120.7082433}, {\"Lat\": 13.416667, \"Lng\": 121.95}, {\"Lat\": 13.9, \"Lng\": 122.0}, {\"Lat\": 14.1696476, \"Lng\": 121.3336526}, {\"Lat\": 13.9146826, \"Lng\": 121.0867566}, {\"Lat\": 10.6659191, \"Lng\": 122.9480899}, {\"Lat\": 13.216667, \"Lng\": 123.55}, {\"Lat\": 14.2554073, \"Lng\": 120.8671503}, {\"Lat\": 10.95, \"Lng\": 124.85}, {\"Lat\": 12.42, \"Lng\": 124.81}]","Start Year":1987,"Start Month":11.0,"Start Day":23.0,"End Year":1987,"End Month":11.0,"End Day":23.0,"Total Affected":1819112.0,"Total Deaths":882.0},{"Year":1987,"Type":"Storm","Subtype":"Tropical cyclone","Country":"Philippines","Location":null,"Latitude":null,"Longitude":null,"Country Latitude":12.7503486,"Country Longitude":122.7312101,"Location Latitude":null,"Location Longitude":null,"Smart Coords":null,"Start Year":1987,"Start Month":8.0,"Start Day":13.0,"End Year":1987,"End Month":8.0,"End Day":13.0,"Total Affected":13336.0,"Total Deaths":5.0},{"Year":1987,"Type":"Storm","Subtype":"Tropical cyclone","Country":"Philippines","Location":null,"Latitude":null,"Longitude":null,"Country Latitude":12.7503486,"Country Longitude":122.7312101,"Location Latitude":null,"Location Longitude":null,"Smart Coords":null,"Start Year":1987,"Start Month":12.0,"Start Day":14.0,"End Year":1987,"End Month":12.0,"End Day":14.0,"Total Affected":56380.0,"Total Deaths":22.0},{"Year":1987,"Type":"Drought","Subtype":"Drought","Country":"Philippines","Location":null,"Latitude":null,"Longitude":null,"Country Latitude":12.7503486,"Country Longitude":122.7312101,"Location Latitude":null,"Location Longitude":null,"Smart Coords":null,"Start Year":1987,"Start Month":null,"Start Day":null,"End Year":1987,"End Month":null,"End Day":null,"Total Affected":1002100.0,"Total Deaths":null},{"Year":1987,"Type":"Flood","Subtype":"Riverine flood","Country":"Poland","Location":null,"Latitude":null,"Longitude":null,"Country Latitude":52.215933,"Country Longitude":19.134422,"Location Latitude":null,"Location Longitude":null,"Smart Coords":null,"Start Year":1987,"Start Month":5.0,"Start Day":null,"End Year":1987,"End Month":5.0,"End Day":null,"Total Affected":null,"Total Deaths":null},{"Year":1987,"Type":"Flood","Subtype":null,"Country":"Korea, Democratic People's Republic of","Location":null,"Latitude":null,"Longitude":null,"Country Latitude":40.3736611,"Country Longitude":127.0870417,"Location Latitude":null,"Location Longitude":null,"Smart Coords":null,"Start Year":1987,"Start Month":null,"Start Day":null,"End Year":1987,"End Month":null,"End Day":null,"Total Affected":20071.0,"Total Deaths":231.0},{"Year":1987,"Type":"Flood","Subtype":null,"Country":"Korea, Democratic People's Republic of","Location":null,"Latitude":null,"Longitude":null,"Country Latitude":40.3736611,"Country Longitude":127.0870417,"Location Latitude":null,"Location Longitude":null,"Smart Coords":null,"Start Year":1987,"Start Month":null,"Start Day":null,"End Year":1987,"End Month":null,"End Day":null,"Total Affected":null,"Total Deaths":84.0},{"Year":1987,"Type":"Landslide","Subtype":"Landslide","Country":"French Polynesia","Location":"Huahine (Tahiti)","Latitude":null,"Longitude":null,"Country Latitude":-17.0243749,"Country Longitude":-144.6434898,"Location Latitude":null,"Location Longitude":null,"Smart Coords":null,"Start Year":1987,"Start Month":4.0,"Start Day":17.0,"End Year":1987,"End Month":4.0,"End Day":17.0,"Total Affected":null,"Total Deaths":10.0},{"Year":1987,"Type":"Storm","Subtype":"Tropical cyclone","Country":"R\u00e9union","Location":"Saint Denis","Latitude":null,"Longitude":null,"Country Latitude":-21.13073795,"Country Longitude":55.536480113,"Location Latitude":null,"Location Longitude":null,"Smart Coords":null,"Start Year":1987,"Start Month":2.0,"Start Day":13.0,"End Year":1987,"End Month":2.0,"End Day":13.0,"Total Affected":4000.0,"Total Deaths":10.0},{"Year":1987,"Type":"Drought","Subtype":"Drought","Country":"Sudan","Location":"Kordofan, Darfur","Latitude":null,"Longitude":null,"Country Latitude":14.5844444,"Country Longitude":29.4917691,"Location Latitude":null,"Location Longitude":null,"Smart Coords":"[{\"Lat\": 10.53018, \"Lng\": 29.932924}, {\"Lat\": 11.0, \"Lng\": 25.0}]","Start Year":1987,"Start Month":10.0,"Start Day":null,"End Year":1987,"End Month":null,"End Day":null,"Total Affected":3450000.0,"Total Deaths":null},{"Year":1987,"Type":"Insect infestation","Subtype":null,"Country":"Sudan","Location":"Central Northern Kordofan, Northern Darfur provinces","Latitude":null,"Longitude":null,"Country Latitude":14.5844444,"Country Longitude":29.4917691,"Location Latitude":null,"Location Longitude":null,"Smart Coords":null,"Start Year":1987,"Start Month":null,"Start Day":null,"End Year":1987,"End Month":null,"End Day":null,"Total Affected":null,"Total Deaths":null},{"Year":1987,"Type":"Epidemic","Subtype":null,"Country":"Sudan","Location":"Blue Nile province","Latitude":null,"Longitude":null,"Country Latitude":14.5844444,"Country Longitude":29.4917691,"Location Latitude":null,"Location Longitude":null,"Smart Coords":"[{\"Lat\": 15.6082322, \"Lng\": 32.5083496}]","Start Year":1987,"Start Month":8.0,"Start Day":null,"End Year":1987,"End Month":8.0,"End Day":null,"Total Affected":null,"Total Deaths":60.0},{"Year":1987,"Type":"Insect infestation","Subtype":"Grasshopper","Country":"Senegal","Location":null,"Latitude":null,"Longitude":null,"Country Latitude":14.4750607,"Country Longitude":-14.4529612,"Location Latitude":null,"Location Longitude":null,"Smart Coords":null,"Start Year":1987,"Start Month":1.0,"Start Day":null,"End Year":1987,"End Month":1.0,"End Day":null,"Total Affected":null,"Total Deaths":null},{"Year":1987,"Type":"Drought","Subtype":"Drought","Country":"Somalia","Location":"Togdheer, Sol, Sannag, Bari, Nugall, Mudug, Galguduud, Hiraan, Bakool, Shabeellaha, Gedo","Latitude":null,"Longitude":null,"Country Latitude":8.3676771,"Country Longitude":49.083416,"Location Latitude":null,"Location Longitude":null,"Smart Coords":"[{\"Lat\": 9.3014858, \"Lng\": 45.4849998}, {\"Lat\": 8.9604812, \"Lng\": 47.5857827}, {\"Lat\": 10.0, \"Lng\": 50.0}, {\"Lat\": 6.6507279, \"Lng\": 48.3009945}, {\"Lat\": 5.0, \"Lng\": 47.0}, {\"Lat\": 4.3514387, \"Lng\": 43.7186102}, {\"Lat\": 1.8427539, \"Lng\": 44.5937239}, {\"Lat\": 3.0, \"Lng\": 42.0}]","Start Year":1987,"Start Month":4.0,"Start Day":null,"End Year":1987,"End Month":null,"End Day":null,"Total Affected":500000.0,"Total Deaths":600.0},{"Year":1987,"Type":"Flood","Subtype":null,"Country":"Somalia","Location":"Mogadishu, Central, Northwest Somalia","Latitude":null,"Longitude":null,"Country Latitude":8.3676771,"Country Longitude":49.083416,"Location Latitude":null,"Location Longitude":null,"Smart Coords":"[{\"Lat\": 2.0349312, \"Lng\": 45.3419183}]","Start Year":1987,"Start Month":5.0,"Start Day":null,"End Year":1987,"End Month":5.0,"End Day":null,"Total Affected":30000.0,"Total Deaths":null},{"Year":1987,"Type":"Mass movement (dry)","Subtype":"Landslide","Country":"Soviet Union","Location":"Argazan (Tajikistan)","Latitude":null,"Longitude":null,"Country Latitude":52.872309,"Country Longitude":78.615662,"Location Latitude":null,"Location Longitude":null,"Smart Coords":null,"Start Year":1987,"Start Month":3.0,"Start Day":16.0,"End Year":1987,"End Month":3.0,"End Day":16.0,"Total Affected":506.0,"Total Deaths":52.0},{"Year":1987,"Type":"Landslide","Subtype":"Avalanche","Country":"Soviet Union","Location":"Schamuschi (Georgia)","Latitude":null,"Longitude":null,"Country Latitude":52.872309,"Country Longitude":78.615662,"Location Latitude":null,"Location Longitude":null,"Smart Coords":null,"Start Year":1987,"Start Month":1.0,"Start Day":9.0,"End Year":1987,"End Month":1.0,"End Day":9.0,"Total Affected":null,"Total Deaths":26.0},{"Year":1987,"Type":"Wildfire","Subtype":"Forest fire","Country":"Soviet Union","Location":"Eastern Siberia (Russia)","Latitude":null,"Longitude":null,"Country Latitude":52.872309,"Country Longitude":78.615662,"Location Latitude":null,"Location Longitude":null,"Smart Coords":"[{\"Lat\": -30.4263889, \"Lng\": 28.745}]","Start Year":1987,"Start Month":5.0,"Start Day":null,"End Year":1987,"End Month":5.0,"End Day":null,"Total Affected":null,"Total Deaths":null},{"Year":1987,"Type":"Flood","Subtype":null,"Country":"Soviet Union","Location":"Tbilisi (Georgia)","Latitude":null,"Longitude":null,"Country Latitude":52.872309,"Country Longitude":78.615662,"Location Latitude":null,"Location Longitude":null,"Smart Coords":"[{\"Lat\": 41.6934591, \"Lng\": 44.8014495}]","Start Year":1987,"Start Month":2.0,"Start Day":14.0,"End Year":1987,"End Month":3.0,"End Day":24.0,"Total Affected":36000.0,"Total Deaths":110.0},{"Year":1987,"Type":"Insect infestation","Subtype":"Grasshopper","Country":"Chad","Location":null,"Latitude":null,"Longitude":null,"Country Latitude":15.6134137,"Country Longitude":19.0156172,"Location Latitude":null,"Location Longitude":null,"Smart Coords":null,"Start Year":1987,"Start Month":2.0,"Start Day":null,"End Year":1987,"End Month":2.0,"End Day":null,"Total Affected":null,"Total Deaths":null},{"Year":1987,"Type":"Insect infestation","Subtype":null,"Country":"Chad","Location":"All regions","Latitude":null,"Longitude":null,"Country Latitude":15.6134137,"Country Longitude":19.0156172,"Location Latitude":null,"Location Longitude":null,"Smart Coords":null,"Start Year":1987,"Start Month":6.0,"Start Day":null,"End Year":1987,"End Month":6.0,"End Day":null,"Total Affected":null,"Total Deaths":null},{"Year":1987,"Type":"Flood","Subtype":null,"Country":"Thailand","Location":"South","Latitude":null,"Longitude":null,"Country Latitude":14.8971921,"Country Longitude":100.83273,"Location Latitude":null,"Location Longitude":null,"Smart Coords":null,"Start Year":1987,"Start Month":11.0,"Start Day":30.0,"End Year":1987,"End Month":11.0,"End Day":30.0,"Total Affected":null,"Total Deaths":24.0},{"Year":1987,"Type":"Storm","Subtype":null,"Country":"Tokelau","Location":"Fakaofo, Nukumono, Atafu Atolls","Latitude":null,"Longitude":null,"Country Latitude":-9.1676396,"Country Longitude":-171.819687,"Location Latitude":null,"Location Longitude":null,"Smart Coords":null,"Start Year":1987,"Start Month":2.0,"Start Day":27.0,"End Year":1987,"End Month":2.0,"End Day":27.0,"Total Affected":1730.0,"Total Deaths":null},{"Year":1987,"Type":"Extreme temperature","Subtype":"Cold wave","Country":"Turkey","Location":"Istanbul","Latitude":null,"Longitude":null,"Country Latitude":38.9597594,"Country Longitude":34.9249653,"Location Latitude":41.0091982,"Location Longitude":28.9662187,"Smart Coords":"[{\"Lat\": 41.0091982, \"Lng\": 28.9662187}]","Start Year":1987,"Start Month":3.0,"Start Day":null,"End Year":1987,"End Month":3.0,"End Day":null,"Total Affected":null,"Total Deaths":30.0},{"Year":1987,"Type":"Epidemic","Subtype":"Bacterial disease","Country":"Turkey","Location":"Southern","Latitude":null,"Longitude":null,"Country Latitude":38.9597594,"Country Longitude":34.9249653,"Location Latitude":null,"Location Longitude":null,"Smart Coords":null,"Start Year":1987,"Start Month":8.0,"Start Day":null,"End Year":1987,"End Month":8.0,"End Day":null,"Total Affected":150.0,"Total Deaths":11.0},{"Year":1987,"Type":"Storm","Subtype":"Tropical cyclone","Country":"Tuvalu","Location":"Funafuti and other islands","Latitude":null,"Longitude":null,"Country Latitude":-8.6405212,"Country Longitude":179.1582918182,"Location Latitude":null,"Location Longitude":null,"Smart Coords":"[{\"Lat\": -8.5199633, \"Lng\": 179.1982548}]","Start Year":1987,"Start Month":2.0,"Start Day":22.0,"End Year":1987,"End Month":2.0,"End Day":22.0,"Total Affected":null,"Total Deaths":null},{"Year":1987,"Type":"Storm","Subtype":"Tropical cyclone","Country":"Taiwan","Location":"Countrywide","Latitude":null,"Longitude":null,"Country Latitude":23.9739374,"Country Longitude":120.9820179,"Location Latitude":null,"Location Longitude":null,"Smart Coords":null,"Start Year":1987,"Start Month":10.0,"Start Day":24.0,"End Year":1987,"End Month":10.0,"End Day":24.0,"Total Affected":2200.0,"Total Deaths":61.0},{"Year":1987,"Type":"Epidemic","Subtype":"Bacterial disease","Country":"Tanzania, United Republic of","Location":"Kigoma (Near Lake Tanganyika)","Latitude":null,"Longitude":null,"Country Latitude":-6.5247123,"Country Longitude":35.7878438,"Location Latitude":null,"Location Longitude":null,"Smart Coords":"[{\"Lat\": -4.5126571, \"Lng\": 30.0050533}]","Start Year":1987,"Start Month":11.0,"Start Day":null,"End Year":1987,"End Month":11.0,"End Day":null,"Total Affected":500.0,"Total Deaths":90.0},{"Year":1987,"Type":"Drought","Subtype":"Drought","Country":"Uganda","Location":"Karamoja, Northwestern","Latitude":null,"Longitude":null,"Country Latitude":1.5333554,"Country Longitude":32.2166578,"Location Latitude":null,"Location Longitude":null,"Smart Coords":"[{\"Lat\": 2.67118, \"Lng\": 34.602799}]","Start Year":1987,"Start Month":12.0,"Start Day":null,"End Year":1988,"End Month":null,"End Day":null,"Total Affected":600000.0,"Total Deaths":null},{"Year":1987,"Type":"Storm","Subtype":"Convective storm","Country":"United States","Location":"Saragosa (Texas)","Latitude":null,"Longitude":null,"Country Latitude":39.7837304,"Country Longitude":-100.445882,"Location Latitude":31.024034,"Location Longitude":-103.6615683,"Smart Coords":null,"Start Year":1987,"Start Month":5.0,"Start Day":22.0,"End Year":1987,"End Month":5.0,"End Day":22.0,"Total Affected":3200.0,"Total Deaths":29.0},{"Year":1987,"Type":"Storm","Subtype":"Convective storm","Country":"United States","Location":"Texas, Oklahoma, Louisiane, Mississippi","Latitude":null,"Longitude":null,"Country Latitude":39.7837304,"Country Longitude":-100.445882,"Location Latitude":null,"Location Longitude":null,"Smart Coords":"[{\"Lat\": 31.2638905, \"Lng\": -98.5456116}, {\"Lat\": 34.9550817, \"Lng\": -97.2684063}, {\"Lat\": 30.8703881, \"Lng\": -92.007126}, {\"Lat\": 32.9715285, \"Lng\": -89.7348497}]","Start Year":1987,"Start Month":2.0,"Start Day":27.0,"End Year":1987,"End Month":2.0,"End Day":27.0,"Total Affected":null,"Total Deaths":7.0},{"Year":1987,"Type":"Storm","Subtype":"Convective storm","Country":"United States","Location":"Nouveau Mexique, Texas, Louisiane, Arkansas, Tennessee, Kentucky, Illinois, Indiana, Ohio","Latitude":null,"Longitude":null,"Country Latitude":39.7837304,"Country Longitude":-100.445882,"Location Latitude":null,"Location Longitude":null,"Smart Coords":"[{\"Lat\": 34.5708167, \"Lng\": -105.993007}, {\"Lat\": 31.2638905, \"Lng\": -98.5456116}, {\"Lat\": 30.8703881, \"Lng\": -92.007126}, {\"Lat\": 35.2048883, \"Lng\": -92.4479108}, {\"Lat\": 35.7730076, \"Lng\": -86.2820081}, {\"Lat\": 37.5726028, \"Lng\": -85.1551411}, {\"Lat\": 40.0796606, \"Lng\": -89.4337288}, {\"Lat\": 40.3270127, \"Lng\": -86.1746933}, {\"Lat\": 40.2253569, \"Lng\": -82.6881395}]","Start Year":1987,"Start Month":12.0,"Start Day":13.0,"End Year":1987,"End Month":12.0,"End Day":13.0,"Total Affected":null,"Total Deaths":61.0},{"Year":1987,"Type":"Storm","Subtype":"Convective storm","Country":"United States","Location":"Massachusetts, Caroline Du Nord, Caroline Du Sud, Virginie, Oregon","Latitude":null,"Longitude":null,"Country Latitude":39.7837304,"Country Longitude":-100.445882,"Location Latitude":null,"Location Longitude":null,"Smart Coords":"[{\"Lat\": 42.3788774, \"Lng\": -72.032366}, {\"Lat\": 35.6729639, \"Lng\": -79.0392919}, {\"Lat\": 33.6874388, \"Lng\": -80.4363743}, {\"Lat\": 37.1232245, \"Lng\": -78.4927721}, {\"Lat\": 43.9792797, \"Lng\": -120.737257}]","Start Year":1987,"Start Month":1.0,"Start Day":4.0,"End Year":1987,"End Month":1.0,"End Day":4.0,"Total Affected":null,"Total Deaths":19.0},{"Year":1987,"Type":"Storm","Subtype":"Convective storm","Country":"United States","Location":"Indiana, New Jersey, New York, Oklahoma, Vermont","Latitude":null,"Longitude":null,"Country Latitude":39.7837304,"Country Longitude":-100.445882,"Location Latitude":null,"Location Longitude":null,"Smart Coords":"[{\"Lat\": 40.3270127, \"Lng\": -86.1746933}, {\"Lat\": 40.0757384, \"Lng\": -74.4041622}, {\"Lat\": 40.7127281, \"Lng\": -74.0060152}, {\"Lat\": 34.9550817, \"Lng\": -97.2684063}, {\"Lat\": 44.5990718, \"Lng\": -72.5002608}]","Start Year":1987,"Start Month":1.0,"Start Day":20.0,"End Year":1987,"End Month":1.0,"End Day":20.0,"Total Affected":null,"Total Deaths":35.0},