[{"Year":1989,"Type":"Flood","Subtype":"Riverine flood","Country":"Brazil","Location":"Bahia, Minas Gerais, Goias, Tocantins provinces","Latitude":null,"Longitude":null,"Country Latitude":-10.3333333,"Country Longitude":-53.2,"Location Latitude":null,"Location Longitude":null,"Smart Coords":"[{\"Lat\": -12.285251, \"Lng\": -41.9294776}, {\"Lat\": -18.5264844, \"Lng\": -44.1588654}, {\"Lat\": -15.9323662, \"Lng\": -50.1392928}, {\"Lat\": -10.8855129, \"Lng\": -48.3716912}]","Start Year":1989,"Start Month":12.0,"Start Day":28.0,"End Year":1989,"End Month":12.0,"End Day":28.0,"Total Affected":200000.0,"Total Deaths":35.0},{"Year":1989,"Type":"Earthquake","Subtype":"Ground movement","Country":"Algeria","Location":"Chenoua, Blida, Tipasa, Boumerdes, Wilaya, El-Nador","Latitude":"36.788","Longitude":"2.448","Country Latitude":28.0000272,"Country Longitude":2.9999825,"Location Latitude":null,"Location Longitude":null,"Smart Coords":"[{\"Lat\": 36.4705658, \"Lng\": 2.8274937}, {\"Lat\": 36.7358032, \"Lng\": 3.616304570058525}]","Start Year":1989,"Start Month":10.0,"Start Day":29.0,"End Year":1989,"End Month":10.0,"End Day":29.0,"Total Affected":12184.0,"Total Deaths":22.0},{"Year":1989,"Type":"Storm","Subtype":"Tropical cyclone","Country":"China","Location":"Hainan Island","Latitude":null,"Longitude":null,"Country Latitude":35.000074,"Country Longitude":104.999927,"Location Latitude":19.1602864,"Location Longitude":109.6288914376,"Smart Coords":"[{\"Lat\": 19.2000001, \"Lng\": 109.5999999}]","Start Year":1989,"Start Month":10.0,"Start Day":5.0,"End Year":1989,"End Month":10.0,"End Day":5.0,"Total Affected":700.0,"Total Deaths":31.0},{"Year":1989,"Type":"Storm","Subtype":null,"Country":"Brazil","Location":"Ivinhema and Southwestern","Latitude":null,"Longitude":null,"Country Latitude":-10.3333333,"Country Longitude":-53.2,"Location Latitude":null,"Location Longitude":null,"Smart Coords":"[{\"Lat\": -22.302254, \"Lng\": -53.8276006}]","Start Year":1989,"Start Month":7.0,"Start Day":29.0,"End Year":1989,"End Month":7.0,"End Day":29.0,"Total Affected":45000.0,"Total Deaths":36.0},{"Year":1989,"Type":"Storm","Subtype":"Tropical cyclone","Country":"China","Location":"Guangdong","Latitude":null,"Longitude":null,"Country Latitude":35.000074,"Country Longitude":104.999927,"Location Latitude":23.1357694,"Location Longitude":113.1982688,"Smart Coords":"[{\"Lat\": 23.1357694, \"Lng\": 113.1982688}]","Start Year":1989,"Start Month":5.0,"Start Day":26.0,"End Year":1989,"End Month":5.0,"End Day":26.0,"Total Affected":1000048.0,"Total Deaths":84.0},{"Year":1989,"Type":"Drought","Subtype":"Drought","Country":"Ethiopia","Location":"Northern Ethiopia, Eritrea, Tigray, Wollo, Gondar, Harerge","Latitude":null,"Longitude":null,"Country Latitude":10.2116702,"Country Longitude":38.6521203,"Location Latitude":null,"Location Longitude":null,"Smart Coords":"[{\"Lat\": 9.0432756, \"Lng\": 38.7800444}, {\"Lat\": 13.881273, \"Lng\": 39.127495}, {\"Lat\": 10.93428335, \"Lng\": 39.20211824445023}, {\"Lat\": 12.610368, \"Lng\": 37.466766}, {\"Lat\": 9.5, \"Lng\": 41.5}]","Start Year":1989,"Start Month":10.0,"Start Day":null,"End Year":1994,"End Month":null,"End Day":null,"Total Affected":6500000.0,"Total Deaths":null},{"Year":1989,"Type":"Epidemic","Subtype":"Bacterial disease","Country":"Angola","Location":"Luanda, Benguela","Latitude":null,"Longitude":null,"Country Latitude":-11.8775768,"Country Longitude":17.5691241,"Location Latitude":-8.8120807,"Location Longitude":13.2532494,"Smart Coords":"[{\"Lat\": -8.993558, \"Lng\": 13.253163449649923}, {\"Lat\": -12.9104657, \"Lng\": 14.0356608}]","Start Year":1989,"Start Month":1.0,"Start Day":null,"End Year":1989,"End Month":1.0,"End Day":null,"Total Affected":15525.0,"Total Deaths":766.0},{"Year":1989,"Type":"Drought","Subtype":"Drought","Country":"Angola","Location":"Huila, Namibe, Kwanza Sul, Benguela","Latitude":null,"Longitude":null,"Country Latitude":-11.8775768,"Country Longitude":17.5691241,"Location Latitude":null,"Location Longitude":null,"Smart Coords":"[{\"Lat\": -14.6957808, \"Lng\": 15.0976293}, {\"Lat\": -15.2669341, \"Lng\": 12.7064561}, {\"Lat\": -10.7707527, \"Lng\": 15.0975712}, {\"Lat\": -12.9104657, \"Lng\": 14.0356608}]","Start Year":1989,"Start Month":1.0,"Start Day":null,"End Year":1992,"End Month":null,"End Day":null,"Total Affected":1900000.0,"Total Deaths":null},{"Year":1989,"Type":"Flood","Subtype":null,"Country":"Angola","Location":"Kwanza province","Latitude":null,"Longitude":null,"Country Latitude":-11.8775768,"Country Longitude":17.5691241,"Location Latitude":-9.2266572,"Location Longitude":13.7184369,"Smart Coords":null,"Start Year":1989,"Start Month":4.0,"Start Day":null,"End Year":1989,"End Month":4.0,"End Day":null,"Total Affected":100000.0,"Total Deaths":null},{"Year":1989,"Type":"Drought","Subtype":"Drought","Country":"Albania","Location":null,"Latitude":null,"Longitude":null,"Country Latitude":41.000028,"Country Longitude":19.9999619,"Location Latitude":null,"Location Longitude":null,"Smart Coords":null,"Start Year":1989,"Start Month":null,"Start Day":null,"End Year":1991,"End Month":null,"End Day":null,"Total Affected":3200000.0,"Total Deaths":null},{"Year":1989,"Type":"Storm","Subtype":"Tropical cyclone","Country":"Netherlands Antilles","Location":null,"Latitude":null,"Longitude":null,"Country Latitude":12.1845,"Country Longitude":-68.6607922625,"Location Latitude":null,"Location Longitude":null,"Smart Coords":null,"Start Year":1989,"Start Month":9.0,"Start Day":17.0,"End Year":1989,"End Month":9.0,"End Day":17.0,"Total Affected":null,"Total Deaths":11.0},{"Year":1989,"Type":"Storm","Subtype":"Tropical cyclone","Country":"American Samoa","Location":null,"Latitude":null,"Longitude":null,"Country Latitude":-14.297124,"Country Longitude":-170.7131481,"Location Latitude":null,"Location Longitude":null,"Smart Coords":null,"Start Year":1989,"Start Month":1.0,"Start Day":10.0,"End Year":1989,"End Month":1.0,"End Day":10.0,"Total Affected":null,"Total Deaths":null},{"Year":1989,"Type":"Storm","Subtype":"Tropical cyclone","Country":"Antigua and Barbuda","Location":null,"Latitude":null,"Longitude":null,"Country Latitude":17.2234721,"Country Longitude":-61.9554608,"Location Latitude":null,"Location Longitude":null,"Smart Coords":null,"Start Year":1989,"Start Month":9.0,"Start Day":17.0,"End Year":1989,"End Month":9.0,"End Day":17.0,"Total Affected":8030.0,"Total Deaths":2.0},{"Year":1989,"Type":"Earthquake","Subtype":"Ground movement","Country":"Australia","Location":"Newcastle","Latitude":"-32.967","Longitude":"151.619","Country Latitude":-24.7761086,"Country Longitude":134.755,"Location Latitude":-32.9192953,"Location Longitude":151.7795348,"Smart Coords":"[{\"Lat\": -32.9192953, \"Lng\": 151.7795348}]","Start Year":1989,"Start Month":12.0,"Start Day":28.0,"End Year":1989,"End Month":12.0,"End Day":28.0,"Total Affected":2115.0,"Total Deaths":12.0},{"Year":1989,"Type":"Storm","Subtype":"Tropical cyclone","Country":"Australia","Location":"South New Gales, Queensland","Latitude":null,"Longitude":null,"Country Latitude":-24.7761086,"Country Longitude":134.755,"Location Latitude":-30.2921006,"Location Longitude":153.1241678546,"Smart Coords":null,"Start Year":1989,"Start Month":4.0,"Start Day":null,"End Year":1989,"End Month":4.0,"End Day":null,"Total Affected":null,"Total Deaths":2.0},{"Year":1989,"Type":"Storm","Subtype":"Tropical cyclone","Country":"Australia","Location":null,"Latitude":null,"Longitude":null,"Country Latitude":-24.7761086,"Country Longitude":134.755,"Location Latitude":null,"Location Longitude":null,"Smart Coords":null,"Start Year":1989,"Start Month":4.0,"Start Day":null,"End Year":1989,"End Month":4.0,"End Day":null,"Total Affected":null,"Total Deaths":2.0},{"Year":1989,"Type":"Flood","Subtype":null,"Country":"Australia","Location":"South Queensland, North New South Wales","Latitude":null,"Longitude":null,"Country Latitude":-24.7761086,"Country Longitude":134.755,"Location Latitude":null,"Location Longitude":null,"Smart Coords":"[{\"Lat\": -35.3501715, \"Lng\": 149.23450141314837}]","Start Year":1989,"Start Month":4.0,"Start Day":null,"End Year":1989,"End Month":4.0,"End Day":null,"Total Affected":null,"Total Deaths":9.0},{"Year":1989,"Type":"Flood","Subtype":null,"Country":"Burundi","Location":"Bujumbura","Latitude":null,"Longitude":null,"Country Latitude":-3.426449,"Country Longitude":29.9324519,"Location Latitude":-3.3638125,"Location Longitude":29.3675028,"Smart Coords":"[{\"Lat\": -3.3638125, \"Lng\": 29.3675028}]","Start Year":1989,"Start Month":2.0,"Start Day":2.0,"End Year":1989,"End Month":2.0,"End Day":2.0,"Total Affected":3600.0,"Total Deaths":12.0},{"Year":1989,"Type":"Epidemic","Subtype":"Bacterial disease","Country":"Benin","Location":"Atacora, Borgou","Latitude":null,"Longitude":null,"Country Latitude":9.5293472,"Country Longitude":2.2584408,"Location Latitude":null,"Location Longitude":null,"Smart Coords":"[{\"Lat\": 10.7160515, \"Lng\": 1.5331527}, {\"Lat\": 9.7097453, \"Lng\": 2.7422648}]","Start Year":1989,"Start Month":2.0,"Start Day":null,"End Year":1989,"End Month":2.0,"End Day":null,"Total Affected":2411.0,"Total Deaths":228.0},{"Year":1989,"Type":"Storm","Subtype":"Convective storm","Country":"Bangladesh","Location":"Manikganj, Dhaka, Tangail districts","Latitude":null,"Longitude":null,"Country Latitude":24.4769288,"Country Longitude":90.2934413,"Location Latitude":null,"Location Longitude":null,"Smart Coords":"[{\"Lat\": 23.83298355, \"Lng\": 89.9666878246911}, {\"Lat\": 23.7644025, \"Lng\": 90.389015}, {\"Lat\": 24.2507461, \"Lng\": 89.9151479}]","Start Year":1989,"Start Month":4.0,"Start Day":26.0,"End Year":1989,"End Month":4.0,"End Day":26.0,"Total Affected":102000.0,"Total Deaths":800.0},{"Year":1989,"Type":"Earthquake","Subtype":"Ground movement","Country":"Bangladesh","Location":"Banaripara area","Latitude":"21.861","Longitude":"89.763","Country Latitude":24.4769288,"Country Longitude":90.2934413,"Location Latitude":null,"Location Longitude":null,"Smart Coords":null,"Start Year":1989,"Start Month":6.0,"Start Day":12.0,"End Year":1989,"End Month":6.0,"End Day":12.0,"Total Affected":100.0,"Total Deaths":1.0},{"Year":1989,"Type":"Flood","Subtype":"Riverine flood","Country":"Bangladesh","Location":"Sylhet,Bandarban, Cox's Bazar, Chittagong district,","Latitude":null,"Longitude":null,"Country Latitude":24.4769288,"Country Longitude":90.2934413,"Location Latitude":null,"Location Longitude":null,"Smart Coords":"[{\"Lat\": 24.7358854, \"Lng\": 91.6852476}, {\"Lat\": 22.2233543, \"Lng\": 90.20010906403613}, {\"Lat\": 23.8175664, \"Lng\": 90.3799121}, {\"Lat\": 21.1766471, \"Lng\": 92.00350503412564}, {\"Lat\": 22.3336887, \"Lng\": 91.8342162}]","Start Year":1989,"Start Month":8.0,"Start Day":14.0,"End Year":1989,"End Month":8.0,"End Day":14.0,"Total Affected":200000.0,"Total Deaths":180.0},{"Year":1989,"Type":"Storm","Subtype":"Tropical cyclone","Country":"Bangladesh","Location":"Manikganj, Tangail","Latitude":null,"Longitude":null,"Country Latitude":24.4769288,"Country Longitude":90.2934413,"Location Latitude":23.8381472,"Location Longitude":90.2508867,"Smart Coords":"[{\"Lat\": 23.83298355, \"Lng\": 89.9666878246911}, {\"Lat\": 24.2507461, \"Lng\": 89.9151479}]","Start Year":1989,"Start Month":5.0,"Start Day":26.0,"End Year":1989,"End Month":5.0,"End Day":26.0,"Total Affected":2000.0,"Total Deaths":15.0},{"Year":1989,"Type":"Extreme temperature","Subtype":"Cold wave","Country":"Bangladesh","Location":"North","Latitude":null,"Longitude":null,"Country Latitude":24.4769288,"Country Longitude":90.2934413,"Location Latitude":23.7498876,"Location Longitude":90.4326331,"Smart Coords":null,"Start Year":1989,"Start Month":12.0,"Start Day":null,"End Year":1989,"End Month":12.0,"End Day":null,"Total Affected":null,"Total Deaths":100.0},{"Year":1989,"Type":"Extreme temperature","Subtype":"Cold wave","Country":"Bangladesh","Location":null,"Latitude":null,"Longitude":null,"Country Latitude":24.4769288,"Country Longitude":90.2934413,"Location Latitude":null,"Location Longitude":null,"Smart Coords":null,"Start Year":1989,"Start Month":1.0,"Start Day":null,"End Year":1989,"End Month":1.0,"End Day":null,"Total Affected":null,"Total Deaths":70.0},{"Year":1989,"Type":"Drought","Subtype":"Drought","Country":"Bangladesh","Location":"Northwest","Latitude":null,"Longitude":null,"Country Latitude":24.4769288,"Country Longitude":90.2934413,"Location Latitude":null,"Location Longitude":null,"Smart Coords":null,"Start Year":1989,"Start Month":4.0,"Start Day":null,"End Year":1989,"End Month":null,"End Day":null,"Total Affected":5000000.0,"Total Deaths":null},{"Year":1989,"Type":"Epidemic","Subtype":null,"Country":"Bangladesh","Location":null,"Latitude":null,"Longitude":null,"Country Latitude":24.4769288,"Country Longitude":90.2934413,"Location Latitude":null,"Location Longitude":null,"Smart Coords":null,"Start Year":1989,"Start Month":8.0,"Start Day":11.0,"End Year":1989,"End Month":8.0,"End Day":11.0,"Total Affected":null,"Total Deaths":20.0},{"Year":1989,"Type":"Storm","Subtype":"Tropical cyclone","Country":"Bermuda","Location":null,"Latitude":null,"Longitude":null,"Country Latitude":32.30382,"Country Longitude":-64.7561647,"Location Latitude":null,"Location Longitude":null,"Smart Coords":null,"Start Year":1989,"Start Month":8.0,"Start Day":8.0,"End Year":1989,"End Month":8.0,"End Day":8.0,"Total Affected":null,"Total Deaths":null},{"Year":1989,"Type":"Epidemic","Subtype":"Viral disease","Country":"Bolivia, Plurinational State of","Location":"Cochabamba","Latitude":null,"Longitude":null,"Country Latitude":-17.0568696,"Country Longitude":-64.9912286,"Location Latitude":-17.4012458,"Location Longitude":-66.1675680885,"Smart Coords":"[{\"Lat\": -17.401245799999998, \"Lng\": -66.16756808852}]","Start Year":1989,"Start Month":1.0,"Start Day":1.0,"End Year":1989,"End Month":1.0,"End Day":1.0,"Total Affected":97.0,"Total Deaths":67.0},{"Year":1989,"Type":"Flood","Subtype":"Riverine flood","Country":"Brazil","Location":"Ceara, Pernabuco, Alagoas, Sergipe","Latitude":null,"Longitude":null,"Country Latitude":-10.3333333,"Country Longitude":-53.2,"Location Latitude":null,"Location Longitude":null,"Smart Coords":"[{\"Lat\": -5.3264703, \"Lng\": -39.7156073}, {\"Lat\": -22.7507926, \"Lng\": -46.1342745}, {\"Lat\": -9.6611661, \"Lng\": -36.6502426}, {\"Lat\": -10.6743911, \"Lng\": -37.3773519}]","Start Year":1989,"Start Month":7.0,"Start Day":19.0,"End Year":1989,"End Month":7.0,"End Day":19.0,"Total Affected":528000.0,"Total Deaths":35.0},{"Year":1989,"Type":"Landslide","Subtype":"Landslide","Country":"Brazil","Location":"Roraima","Latitude":null,"Longitude":null,"Country Latitude":-10.3333333,"Country Longitude":-53.2,"Location Latitude":2.135138,"Location Longitude":-61.3631922,"Smart Coords":"[{\"Lat\": 2.135138, \"Lng\": -61.3631922}]","Start Year":1989,"Start Month":4.0,"Start Day":27.0,"End Year":1989,"End Month":4.0,"End Day":27.0,"Total Affected":null,"Total Deaths":30.0},{"Year":1989,"Type":"Landslide","Subtype":"Landslide","Country":"Brazil","Location":"Santa Luzia","Latitude":null,"Longitude":null,"Country Latitude":-10.3333333,"Country Longitude":-53.2,"Location Latitude":-19.7702097,"Location Longitude":-43.8505291,"Smart Coords":null,"Start Year":1989,"Start Month":6.0,"Start Day":24.0,"End Year":1989,"End Month":6.0,"End Day":24.0,"Total Affected":null,"Total Deaths":31.0},{"Year":1989,"Type":"Landslide","Subtype":"Mudslide","Country":"Brazil","Location":"Salvador, Santo Amaro Da Purificado (Central Bahia)","Latitude":null,"Longitude":null,"Country Latitude":-10.3333333,"Country Longitude":-53.2,"Location Latitude":null,"Location Longitude":null,"Smart Coords":"[{\"Lat\": -12.9822499, \"Lng\": -38.4812772}]","Start Year":1989,"Start Month":5.0,"Start Day":20.0,"End Year":1989,"End Month":5.0,"End Day":20.0,"Total Affected":78000.0,"Total Deaths":69.0},{"Year":1989,"Type":"Flood","Subtype":null,"Country":"Brazil","Location":"Maranhao, Piavi, Ceara, Rio Grande do Norte, Paraiba, Pernambuco, Alagoas, Sergipe, Para","Latitude":null,"Longitude":null,"Country Latitude":-10.3333333,"Country Longitude":-53.2,"Location Latitude":null,"Location Longitude":null,"Smart Coords":"[{\"Lat\": -5.2085503, \"Lng\": -45.3930262}, {\"Lat\": -7.6992782, \"Lng\": -42.5043787}, {\"Lat\": -5.3264703, \"Lng\": -39.7156073}, {\"Lat\": -7.1219366, \"Lng\": -36.7246845}, {\"Lat\": -8.4116316, \"Lng\": -37.5919699}, {\"Lat\": -9.6611661, \"Lng\": -36.6502426}, {\"Lat\": -10.6743911, \"Lng\": -37.3773519}, {\"Lat\": -4.7493933, \"Lng\": -52.8973006}]","Start Year":1989,"Start Month":4.0,"Start Day":21.0,"End Year":1989,"End Month":4.0,"End Day":21.0,"Total Affected":305944.0,"Total Deaths":44.0},{"Year":1989,"Type":"Flood","Subtype":null,"Country":"Brazil","Location":"Paraiba state","Latitude":null,"Longitude":null,"Country Latitude":-10.3333333,"Country Longitude":-53.2,"Location Latitude":-6.4572942,"Location Longitude":-35.6788252704,"Smart Coords":"[{\"Lat\": -7.1219366, \"Lng\": -36.7246845}]","Start Year":1989,"Start Month":4.0,"Start Day":12.0,"End Year":1989,"End Month":4.0,"End Day":12.0,"Total Affected":null,"Total Deaths":23.0},{"Year":1989,"Type":"Storm","Subtype":"Tropical cyclone","Country":"Canada","Location":"Nova Scotia (New Brunswick)","Latitude":null,"Longitude":null,"Country Latitude":61.0666922,"Country Longitude":-107.991707,"Location Latitude":45.7197014,"Location Longitude":-67.1980941,"Smart Coords":"[{\"Lat\": 45.1960403, \"Lng\": -63.1653789}]","Start Year":1989,"Start Month":9.0,"Start Day":22.0,"End Year":1989,"End Month":9.0,"End Day":23.0,"Total Affected":null,"Total Deaths":null},{"Year":1989,"Type":"Wildfire","Subtype":"Forest fire","Country":"Canada","Location":"Entire country, especillay Labrador","Latitude":null,"Longitude":null,"Country Latitude":61.0666922,"Country Longitude":-107.991707,"Location Latitude":null,"Location Longitude":null,"Smart Coords":null,"Start Year":1989,"Start Month":1.0,"Start Day":null,"End Year":1989,"End Month":8.0,"End Day":null,"Total Affected":25000.0,"Total Deaths":1.0},{"Year":1989,"Type":"Flood","Subtype":null,"Country":"Chile","Location":"Curanilahue","Latitude":null,"Longitude":null,"Country Latitude":-31.7613365,"Country Longitude":-71.3187697,"Location Latitude":-37.4758037,"Location Longitude":-73.3457069,"Smart Coords":null,"Start Year":1989,"Start Month":7.0,"Start Day":29.0,"End Year":1989,"End Month":7.0,"End Day":29.0,"Total Affected":null,"Total Deaths":21.0},{"Year":1989,"Type":"Storm","Subtype":"Convective storm","Country":"China","Location":"Chondqing, Leshan, Luzhou, Neijiang, Zigong cities (Fushun, Longchang, Yongchuan, Jinyan, Gulin counties - Sichuan province)","Latitude":null,"Longitude":null,"Country Latitude":35.000074,"Country Longitude":104.999927,"Location Latitude":null,"Location Longitude":null,"Smart Coords":"[{\"Lat\": 29.5851296, \"Lng\": 103.747791}, {\"Lat\": 28.8744722, \"Lng\": 105.4385063}, {\"Lat\": 29.6602202, \"Lng\": 104.9192806}, {\"Lat\": 29.3419256, \"Lng\": 104.7761224}]","Start Year":1989,"Start Month":4.0,"Start Day":20.0,"End Year":1989,"End Month":4.0,"End Day":20.0,"Total Affected":30007500.0,"Total Deaths":157.0},{"Year":1989,"Type":"Storm","Subtype":"Convective storm","Country":"China","Location":"Guizhou","Latitude":null,"Longitude":null,"Country Latitude":35.000074,"Country Longitude":104.999927,"Location Latitude":27.0,"Location Longitude":107.0,"Smart Coords":"[{\"Lat\": 27.0, \"Lng\": 107.0}]","Start Year":1989,"Start Month":8.0,"Start Day":null,"End Year":1989,"End Month":8.0,"End Day":null,"Total Affected":null,"Total Deaths":26.0},{"Year":1989,"Type":"Storm","Subtype":"Convective storm","Country":"China","Location":"Western China","Latitude":null,"Longitude":null,"Country Latitude":35.000074,"Country Longitude":104.999927,"Location Latitude":30.65061165,"Location Longitude":104.0808355687,"Smart Coords":null,"Start Year":1989,"Start Month":6.0,"Start Day":null,"End Year":1989,"End Month":6.0,"End Day":null,"Total Affected":null,"Total Deaths":67.0},{"Year":1989,"Type":"Earthquake","Subtype":"Ground movement","Country":"China","Location":"Batang county Litang, Baiju, Derong, Xiangcheng, Daocheng counties (Sichuan province)","Latitude":"29.987","Longitude":"99.195","Country Latitude":35.000074,"Country Longitude":104.999927,"Location Latitude":null,"Location Longitude":null,"Smart Coords":null,"Start Year":1989,"Start Month":4.0,"Start Day":15.0,"End Year":1989,"End Month":4.0,"End Day":15.0,"Total Affected":40107.0,"Total Deaths":8.0},{"Year":1989,"Type":"Earthquake","Subtype":"Ground movement","Country":"China","Location":"Between Datong (Shanxi) and Yangyuan (Hebei)","Latitude":"39.893","Longitude":"113.884","Country Latitude":35.000074,"Country Longitude":104.999927,"Location Latitude":null,"Location Longitude":null,"Smart Coords":null,"Start Year":1989,"Start Month":10.0,"Start Day":18.0,"End Year":1989,"End Month":10.0,"End Day":18.0,"Total Affected":105140.0,"Total Deaths":29.0},{"Year":1989,"Type":"Earthquake","Subtype":"Ground movement","Country":"China","Location":"Gengma, Lancang, Menglian (Yunnan province)","Latitude":"23.553","Longitude":"99.526","Country Latitude":35.000074,"Country Longitude":104.999927,"Location Latitude":null,"Location Longitude":null,"Smart Coords":null,"Start Year":1989,"Start Month":5.0,"Start Day":7.0,"End Year":1989,"End Month":5.0,"End Day":7.0,"Total Affected":26591.0,"Total Deaths":1.0},{"Year":1989,"Type":"Earthquake","Subtype":"Ground movement","Country":"China","Location":"Jiangbei county (Chong Qing, Sichuan Province)","Latitude":"29.882","Longitude":"106.804","Country Latitude":35.000074,"Country Longitude":104.999927,"Location Latitude":null,"Location Longitude":null,"Smart Coords":null,"Start Year":1989,"Start Month":11.0,"Start Day":20.0,"End Year":1989,"End Month":11.0,"End Day":20.0,"Total Affected":52800.0,"Total Deaths":4.0},{"Year":1989,"Type":"Earthquake","Subtype":"Ground movement","Country":"China","Location":"Xiaojin county (Sichuan province)","Latitude":"31.583","Longitude":"102.433","Country Latitude":35.000074,"Country Longitude":104.999927,"Location Latitude":31.0020996,"Location Longitude":102.3620141,"Smart Coords":null,"Start Year":1989,"Start Month":9.0,"Start Day":22.0,"End Year":1989,"End Month":9.0,"End Day":22.0,"Total Affected":21404.0,"Total Deaths":null},{"Year":1989,"Type":"Landslide","Subtype":"Landslide","Country":"China","Location":"Wenzhou (Zhejiang province)","Latitude":null,"Longitude":null,"Country Latitude":35.000074,"Country Longitude":104.999927,"Location Latitude":28.1205206,"Location Longitude":120.9577728398,"Smart Coords":"[{\"Lat\": 27.9963899, \"Lng\": 120.695345}]","Start Year":1989,"Start Month":10.0,"Start Day":6.0,"End Year":1989,"End Month":10.0,"End Day":6.0,"Total Affected":5370.0,"Total Deaths":4.0},{"Year":1989,"Type":"Storm","Subtype":"Tropical cyclone","Country":"China","Location":"Zhejiang, Jiangsu provinces","Latitude":null,"Longitude":null,"Country Latitude":35.000074,"Country Longitude":104.999927,"Location Latitude":null,"Location Longitude":null,"Smart Coords":"[{\"Lat\": 29.0000001, \"Lng\": 119.9999999}, {\"Lat\": 33.0000001, \"Lng\": 119.9999999}]","Start Year":1989,"Start Month":9.0,"Start Day":19.0,"End Year":1989,"End Month":9.0,"End Day":19.0,"Total Affected":7002696.0,"Total Deaths":550.0},{"Year":1989,"Type":"Storm","Subtype":"Tropical cyclone","Country":"China","Location":"Fujian, Zhejiang, Jilin, Hebei provinces","Latitude":null,"Longitude":null,"Country Latitude":35.000074,"Country Longitude":104.999927,"Location Latitude":null,"Location Longitude":null,"Smart Coords":"[{\"Lat\": 26.5450001, \"Lng\": 117.842778}, {\"Lat\": 29.0000001, \"Lng\": 119.9999999}, {\"Lat\": 43.7289674, \"Lng\": 126.1997366}, {\"Lat\": 39.0000001, \"Lng\": 116.0}]","Start Year":1989,"Start Month":7.0,"Start Day":21.0,"End Year":1989,"End Month":7.0,"End Day":21.0,"Total Affected":null,"Total Deaths":200.0},{"Year":1989,"Type":"Flood","Subtype":null,"Country":"China","Location":"Anhui, Hebei, Hubei, Jiangsu, Jiangxi, Jilin, Sichuan, Zhejiang provinces","Latitude":null,"Longitude":null,"Country Latitude":35.000074,"Country Longitude":104.999927,"Location Latitude":null,"Location Longitude":null,"Smart Coords":"[{\"Lat\": 32.0, \"Lng\": 117.0}, {\"Lat\": 39.0000001, \"Lng\": 116.0}, {\"Lat\": 31.15305035, \"Lng\": 112.88064226239663}, {\"Lat\": 33.0000001, \"Lng\": 119.9999999}, {\"Lat\": 28.0, \"Lng\": 116.0}, {\"Lat\": 43.7289674, \"Lng\": 126.1997366}, {\"Lat\": 30.5000001, \"Lng\": 102.4999999}, {\"Lat\": 29.0000001, \"Lng\": 119.9999999}]","Start Year":1989,"Start Month":7.0,"Start Day":14.0,"End Year":1989,"End Month":7.0,"End Day":14.0,"Total Affected":100010000.0,"Total Deaths":2000.0},{"Year":1989,"Type":"Flood","Subtype":null,"Country":"C\u00f4te d'Ivoire","Location":"Dagboville","Latitude":null,"Longitude":null,"Country Latitude":7.9897371,"Country Longitude":-5.5679458,"Location Latitude":null,"Location Longitude":null,"Smart Coords":null,"Start Year":1989,"Start Month":11.0,"Start Day":null,"End Year":1989,"End Month":11.0,"End Day":null,"Total Affected":7000.0,"Total Deaths":null},{"Year":1989,"Type":"Epidemic","Subtype":"Bacterial disease","Country":"Cameroon","Location":null,"Latitude":null,"Longitude":null,"Country Latitude":4.6125522,"Country Longitude":13.1535811,"Location Latitude":null,"Location Longitude":null,"Smart Coords":null,"Start Year":1989,"Start Month":1.0,"Start Day":null,"End Year":1989,"End Month":1.0,"End Day":null,"Total Affected":550.0,"Total Deaths":100.0},{"Year":1989,"Type":"Flood","Subtype":null,"Country":"Colombia","Location":"Putumayo, Mocoa","Latitude":null,"Longitude":null,"Country Latitude":4.099917,"Country Longitude":-72.9088133,"Location Latitude":1.1466295,"Location Longitude":-76.6482327,"Smart Coords":"[{\"Lat\": 0.5000086, \"Lng\": -76.0000086}]","Start Year":1989,"Start Month":7.0,"Start Day":31.0,"End Year":1989,"End Month":7.0,"End Day":31.0,"Total Affected":null,"Total Deaths":16.0},{"Year":1989,"Type":"Storm","Subtype":"Tropical cyclone","Country":"Comoros","Location":"Anjouan","Latitude":null,"Longitude":null,"Country Latitude":-12.2045176,"Country Longitude":44.2832964,"Location Latitude":-12.22656805,"Location Longitude":44.410704861,"Smart Coords":"[{\"Lat\": -12.22656805, \"Lng\": 44.41070486098224}]","Start Year":1989,"Start Month":1.0,"Start Day":24.0,"End Year":1989,"End Month":1.0,"End Day":24.0,"Total Affected":null,"Total Deaths":null},{"Year":1989,"Type":"Epidemic","Subtype":"Bacterial disease","Country":"Comoros","Location":"Anjouan","Latitude":null,"Longitude":null,"Country Latitude":-12.2045176,"Country Longitude":44.2832964,"Location Latitude":-12.22656805,"Location Longitude":44.410704861,"Smart Coords":"[{\"Lat\": -12.22656805, \"Lng\": 44.41070486098224}]","Start Year":1989,"Start Month":2.0,"Start Day":null,"End Year":1989,"End Month":2.0,"End Day":null,"Total Affected":450.0,"Total Deaths":3.0},{"Year":1989,"Type":"Flood","Subtype":"Riverine flood","Country":"Djibouti","Location":"Djibouti city","Latitude":null,"Longitude":null,"Country Latitude":11.8145966,"Country Longitude":42.8453061,"Location Latitude":11.5566501,"Location Longitude":43.1133955683,"Smart Coords":"[{\"Lat\": 11.8145966, \"Lng\": 42.8453061}]","Start Year":1989,"Start Month":4.0,"Start Day":9.0,"End Year":1989,"End Month":4.0,"End Day":9.0,"Total Affected":150300.0,"Total Deaths":10.0},{"Year":1989,"Type":"Storm","Subtype":"Tropical cyclone","Country":"Dominica","Location":null,"Latitude":null,"Longitude":null,"Country Latitude":15.4113138,"Country Longitude":-61.3653618,"Location Latitude":null,"Location Longitude":null,"Smart Coords":null,"Start Year":1989,"Start Month":9.0,"Start Day":17.0,"End Year":1989,"End Month":9.0,"End Day":17.0,"Total Affected":710.0,"Total Deaths":null},{"Year":1989,"Type":"Storm","Subtype":"Tropical cyclone","Country":"Dominican Republic","Location":null,"Latitude":null,"Longitude":null,"Country Latitude":19.0974031,"Country Longitude":-70.3028026,"Location Latitude":null,"Location Longitude":null,"Smart Coords":null,"Start Year":1989,"Start Month":9.0,"Start Day":17.0,"End Year":1989,"End Month":9.0,"End Day":17.0,"Total Affected":null,"Total Deaths":null},{"Year":1989,"Type":"Flood","Subtype":"Riverine flood","Country":"Ecuador","Location":null,"Latitude":null,"Longitude":null,"Country Latitude":-1.3397668,"Country Longitude":-79.3666965,"Location Latitude":null,"Location Longitude":null,"Smart Coords":null,"Start Year":1989,"Start Month":6.0,"Start Day":null,"End Year":1989,"End Month":6.0,"End Day":null,"Total Affected":30000.0,"Total Deaths":35.0},{"Year":1989,"Type":"Storm","Subtype":null,"Country":"Spain","Location":null,"Latitude":null,"Longitude":null,"Country Latitude":39.3260685,"Country Longitude":-4.8379791,"Location Latitude":null,"Location Longitude":null,"Smart Coords":null,"Start Year":1989,"Start Month":2.0,"Start Day":26.0,"End Year":1989,"End Month":2.0,"End Day":26.0,"Total Affected":null,"Total Deaths":19.0},{"Year":1989,"Type":"Storm","Subtype":null,"Country":"Spain","Location":null,"Latitude":null,"Longitude":null,"Country Latitude":39.3260685,"Country Longitude":-4.8379791,"Location Latitude":null,"Location Longitude":null,"Smart Coords":null,"Start Year":1989,"Start Month":9.0,"Start Day":4.0,"End Year":1989,"End Month":9.0,"End Day":4.0,"Total Affected":null,"Total Deaths":14.0},{"Year":1989,"Type":"Flood","Subtype":null,"Country":"Spain","Location":null,"Latitude":null,"Longitude":null,"Country Latitude":39.3260685,"Country Longitude":-4.8379791,"Location Latitude":null,"Location Longitude":null,"Smart Coords":null,"Start Year":1989,"Start Month":11.0,"Start Day":null,"End Year":1989,"End Month":11.0,"End Day":null,"Total Affected":null,"Total Deaths":12.0},{"Year":1989,"Type":"Flood","Subtype":null,"Country":"Fiji","Location":null,"Latitude":null,"Longitude":null,"Country Latitude":-18.1239696,"Country Longitude":179.0122737,"Location Latitude":null,"Location Longitude":null,"Smart Coords":null,"Start Year":1989,"Start Month":null,"Start Day":null,"End Year":1989,"End Month":null,"End Day":null,"Total Affected":null,"Total Deaths":10.0},{"Year":1989,"Type":"Drought","Subtype":"Drought","Country":"Rwanda","Location":"South, West of Kigali","Latitude":null,"Longitude":null,"Country Latitude":-1.9646631,"Country Longitude":30.0644358,"Location Latitude":null,"Location Longitude":null,"Smart Coords":null,"Start Year":1989,"Start Month":12.0,"Start Day":null,"End Year":1989,"End Month":null,"End Day":null,"Total Affected":60000.0,"Total Deaths":237.0},{"Year":1989,"Type":"Earthquake","Subtype":"Ground movement","Country":"Indonesia","Location":"Irian Jaya, Jayawijaya districts","Latitude":"-4.511","Longitude":"139.022","Country Latitude":-2.4833826,"Country Longitude":117.8902853,"Location Latitude":null,"Location Longitude":null,"Smart Coords":null,"Start Year":1989,"Start Month":8.0,"Start Day":1.0,"End Year":1989,"End Month":8.0,"End Day":1.0,"Total Affected":17196.0,"Total Deaths":120.0},{"Year":1989,"Type":"Flood","Subtype":"Riverine flood","Country":"India","Location":"Maharashtra, Andhra Pradesh, Gujarat","Latitude":null,"Longitude":null,"Country Latitude":22.3511148,"Country Longitude":78.6677428,"Location Latitude":null,"Location Longitude":null,"Smart Coords":"[{\"Lat\": 18.9068356, \"Lng\": 75.6741579}, {\"Lat\": 15.9240905, \"Lng\": 80.1863809}, {\"Lat\": 22.3850051, \"Lng\": 71.745261}]","Start Year":1989,"Start Month":7.0,"Start Day":28.0,"End Year":1989,"End Month":7.0,"End Day":28.0,"Total Affected":null,"Total Deaths":1591.0},{"Year":1989,"Type":"Earthquake","Subtype":"Ground movement","Country":"Iran, Islamic Republic of","Location":"Deh Borzog-e Sisakht area","Latitude":"30.960 N","Longitude":"51.421 E","Country Latitude":32.6475314,"Country Longitude":54.5643516,"Location Latitude":null,"Location Longitude":null,"Smart Coords":null,"Start Year":1989,"Start Month":10.0,"Start Day":1.0,"End Year":1989,"End Month":10.0,"End Day":1.0,"Total Affected":1500.0,"Total Deaths":null},{"Year":1989,"Type":"Earthquake","Subtype":"Ground movement","Country":"Soviet Union","Location":"Sharora, Okulibolo, Okulipoyen, Gissar villages (Tajikistan)","Latitude":"38.465","Longitude":"68.694","Country Latitude":52.872309,"Country Longitude":78.615662,"Location Latitude":null,"Location Longitude":null,"Smart Coords":null,"Start Year":1989,"Start Month":1.0,"Start Day":23.0,"End Year":1989,"End Month":1.0,"End Day":23.0,"Total Affected":12051.0,"Total Deaths":274.0},{"Year":1989,"Type":"Drought","Subtype":"Drought","Country":"France","Location":"Corse","Latitude":null,"Longitude":null,"Country Latitude":46.603354,"Country Longitude":1.8883335,"Location Latitude":42.18808965,"Location Longitude":9.0684137714,"Smart Coords":"[{\"Lat\": 42.18808965, \"Lng\": 9.068413771427696}]","Start Year":1989,"Start Month":7.0,"Start Day":null,"End Year":1989,"End Month":8.0,"End Day":null,"Total Affected":null,"Total Deaths":null},{"Year":1989,"Type":"Storm","Subtype":null,"Country":"France","Location":null,"Latitude":null,"Longitude":null,"Country Latitude":46.603354,"Country Longitude":1.8883335,"Location Latitude":null,"Location Longitude":null,"Smart Coords":null,"Start Year":1989,"Start Month":2.0,"Start Day":26.0,"End Year":1989,"End Month":2.0,"End Day":26.0,"Total Affected":null,"Total Deaths":9.0},{"Year":1989,"Type":"Storm","Subtype":null,"Country":"United Kingdom","Location":null,"Latitude":null,"Longitude":null,"Country Latitude":54.7023545,"Country Longitude":-3.2765753,"Location Latitude":null,"Location Longitude":null,"Smart Coords":null,"Start Year":1989,"Start Month":2.0,"Start Day":26.0,"End Year":1989,"End Month":2.0,"End Day":26.0,"Total Affected":null,"Total Deaths":13.0},{"Year":1989,"Type":"Flood","Subtype":"Riverine flood","Country":"Ghana","Location":"Tamale","Latitude":null,"Longitude":null,"Country Latitude":8.0300284,"Country Longitude":-1.0800271,"Location Latitude":9.4051992,"Location Longitude":-0.8423986,"Smart Coords":"[{\"Lat\": 9.4051992, \"Lng\": -0.8423986}]","Start Year":1989,"Start Month":8.0,"Start Day":25.0,"End Year":1989,"End Month":8.0,"End Day":25.0,"Total Affected":2800.0,"Total Deaths":7.0},{"Year":1989,"Type":"Epidemic","Subtype":"Bacterial disease","Country":"Ghana","Location":"North","Latitude":null,"Longitude":null,"Country Latitude":8.0300284,"Country Longitude":-1.0800271,"Location Latitude":null,"Location Longitude":null,"Smart Coords":null,"Start Year":1989,"Start Month":1.0,"Start Day":null,"End Year":1989,"End Month":1.0,"End Day":null,"Total Affected":19.0,"Total Deaths":null},{"Year":1989,"Type":"Storm","Subtype":"Tropical cyclone","Country":"Guadeloupe","Location":null,"Latitude":null,"Longitude":null,"Country Latitude":16.2528827,"Country Longitude":-61.5686855,"Location Latitude":null,"Location Longitude":null,"Smart Coords":null,"Start Year":1989,"Start Month":9.0,"Start Day":17.0,"End Year":1989,"End Month":9.0,"End Day":17.0,"Total Affected":11084.0,"Total Deaths":5.0},{"Year":1989,"Type":"Flood","Subtype":null,"Country":"Guatemala","Location":null,"Latitude":null,"Longitude":null,"Country Latitude":15.5855545,"Country Longitude":-90.345759,"Location Latitude":null,"Location Longitude":null,"Smart Coords":null,"Start Year":1989,"Start Month":null,"Start Day":null,"End Year":1989,"End Month":null,"End Day":null,"Total Affected":null,"Total Deaths":10.0},{"Year":1989,"Type":"Flood","Subtype":null,"Country":"Guyana","Location":null,"Latitude":null,"Longitude":null,"Country Latitude":4.8417097,"Country Longitude":-58.6416891,"Location Latitude":null,"Location Longitude":null,"Smart Coords":null,"Start Year":1989,"Start Month":1.0,"Start Day":null,"End Year":1989,"End Month":1.0,"End Day":null,"Total Affected":null,"Total Deaths":null},{"Year":1989,"Type":"Flood","Subtype":"Riverine flood","Country":"Hong Kong","Location":null,"Latitude":null,"Longitude":null,"Country Latitude":22.352957,"Country Longitude":113.962891,"Location Latitude":null,"Location Longitude":null,"Smart Coords":null,"Start Year":1989,"Start Month":5.0,"Start Day":null,"End Year":1989,"End Month":5.0,"End Day":null,"Total Affected":1857.0,"Total Deaths":3.0},{"Year":1989,"Type":"Storm","Subtype":"Tropical cyclone","Country":"Hong Kong","Location":"Tsz Wan Shan, Yuen Long, Au Tau, Nam Bin Wai, Ha Tsuen","Latitude":null,"Longitude":null,"Country Latitude":22.352957,"Country Longitude":113.962891,"Location Latitude":null,"Location Longitude":null,"Smart Coords":null,"Start Year":1989,"Start Month":5.0,"Start Day":16.0,"End Year":1989,"End Month":5.0,"End Day":16.0,"Total Affected":1287.0,"Total Deaths":7.0},{"Year":1989,"Type":"Storm","Subtype":"Tropical cyclone","Country":"Hong Kong","Location":"Tai O, Lok Ma Chau, Shap Pat Heung","Latitude":null,"Longitude":null,"Country Latitude":22.352957,"Country Longitude":113.962891,"Location Latitude":null,"Location Longitude":null,"Smart Coords":null,"Start Year":1989,"Start Month":7.0,"Start Day":11.0,"End Year":1989,"End Month":7.0,"End Day":11.0,"Total Affected":368.0,"Total Deaths":2.0},{"Year":1989,"Type":"Wildfire","Subtype":"Land fire (Brush, Bush, Pasture)","Country":"Hong Kong","Location":"Hong Kong","Latitude":null,"Longitude":null,"Country Latitude":22.352957,"Country Longitude":113.962891,"Location Latitude":null,"Location Longitude":null,"Smart Coords":null,"Start Year":1989,"Start Month":11.0,"Start Day":29.0,"End Year":1989,"End Month":11.0,"End Day":29.0,"Total Affected":null,"Total Deaths":null},{"Year":1989,"Type":"Mass movement (dry)","Subtype":"Avalanche","Country":"Honduras","Location":null,"Latitude":null,"Longitude":null,"Country Latitude":15.2572432,"Country Longitude":-86.0755145,"Location Latitude":null,"Location Longitude":null,"Smart Coords":null,"Start Year":1989,"Start Month":null,"Start Day":null,"End Year":1989,"End Month":null,"End Day":null,"Total Affected":null,"Total Deaths":10.0},{"Year":1989,"Type":"Landslide","Subtype":"Landslide","Country":"Haiti","Location":"Port-Au-Prince","Latitude":null,"Longitude":null,"Country Latitude":19.1399952,"Country Longitude":-72.3570972,"Location Latitude":18.547327,"Location Longitude":-72.3395928,"Smart Coords":"[{\"Lat\": 18.547327, \"Lng\": -72.3395928}]","Start Year":1989,"Start Month":10.0,"Start Day":16.0,"End Year":1989,"End Month":10.0,"End Day":16.0,"Total Affected":1060.0,"Total Deaths":null},{"Year":1989,"Type":"Flood","Subtype":null,"Country":"Haiti","Location":"La Gonave Isl.","Latitude":null,"Longitude":null,"Country Latitude":19.1399952,"Country Longitude":-72.3570972,"Location Latitude":null,"Location Longitude":null,"Smart Coords":"[{\"Lat\": 18.83179785, \"Lng\": -73.01695623530665}]","Start Year":1989,"Start Month":2.0,"Start Day":23.0,"End Year":1989,"End Month":2.0,"End Day":23.0,"Total Affected":24725.0,"Total Deaths":null},{"Year":1989,"Type":"Flood","Subtype":null,"Country":"Haiti","Location":"Cazales","Latitude":null,"Longitude":null,"Country Latitude":19.1399952,"Country Longitude":-72.3570972,"Location Latitude":null,"Location Longitude":null,"Smart Coords":null,"Start Year":1989,"Start Month":8.0,"Start Day":30.0,"End Year":1989,"End Month":8.0,"End Day":30.0,"Total Affected":205.0,"Total Deaths":null},{"Year":1989,"Type":"Earthquake","Subtype":"Ground movement","Country":"Indonesia","Location":"Morotai, Tanawangu (Molucca passage)","Latitude":"1.031","Longitude":"126.189","Country Latitude":-2.4833826,"Country Longitude":117.8902853,"Location Latitude":null,"Location Longitude":null,"Smart Coords":null,"Start Year":1989,"Start Month":3.0,"Start Day":8.0,"End Year":1989,"End Month":3.0,"End Day":8.0,"Total Affected":5500.0,"Total Deaths":null},{"Year":1989,"Type":"Earthquake","Subtype":"Ground movement","Country":"Indonesia","Location":"Alor (Timor)","Latitude":"-8.081","Longitude":"125.129","Country Latitude":-2.4833826,"Country Longitude":117.8902853,"Location Latitude":-9.8579486,"Location Longitude":124.2831615,"Smart Coords":"[{\"Lat\": -8.291144849999998, \"Lng\": 124.7777164000955}]","Start Year":1989,"Start Month":7.0,"Start Day":14.0,"End Year":1989,"End Month":7.0,"End Day":14.0,"Total Affected":197.0,"Total Deaths":null},{"Year":1989,"Type":"Volcanic activity","Subtype":"Ash fall","Country":"Indonesia","Location":"Noongan","Latitude":null,"Longitude":null,"Country Latitude":-2.4833826,"Country Longitude":117.8902853,"Location Latitude":1.1292756,"Location Longitude":124.7822026,"Smart Coords":null,"Start Year":1989,"Start Month":4.0,"Start Day":23.0,"End Year":1989,"End Month":4.0,"End Day":23.0,"Total Affected":3000.0,"Total Deaths":null},{"Year":1989,"Type":"Landslide","Subtype":"Landslide","Country":"Indonesia","Location":"Solok, Sawahlunto Sijunjung (Riau province, West Sumatra)","Latitude":null,"Longitude":null,"Country Latitude":-2.4833826,"Country Longitude":117.8902853,"Location Latitude":null,"Location Longitude":null,"Smart Coords":"[{\"Lat\": -0.93223105, \"Lng\": 100.80384988763592}]","Start Year":1989,"Start Month":1.0,"Start Day":16.0,"End Year":1989,"End Month":1.0,"End Day":16.0,"Total Affected":11601.0,"Total Deaths":6.0},{"Year":1989,"Type":"Flood","Subtype":null,"Country":"Indonesia","Location":"Madiun Regency (East Java)","Latitude":null,"Longitude":null,"Country Latitude":-2.4833826,"Country Longitude":117.8902853,"Location Latitude":null,"Location Longitude":null,"Smart Coords":"[{\"Lat\": -7.61188765, \"Lng\": 111.67319262808836}]","Start Year":1989,"Start Month":6.0,"Start Day":3.0,"End Year":1989,"End Month":6.0,"End Day":3.0,"Total Affected":29000.0,"Total Deaths":null},{"Year":1989,"Type":"Flood","Subtype":null,"Country":"Indonesia","Location":"Ambon (Malucu Isl.)","Latitude":null,"Longitude":null,"Country Latitude":-2.4833826,"Country Longitude":117.8902853,"Location Latitude":null,"Location Longitude":null,"Smart Coords":"[{\"Lat\": -3.6959434, \"Lng\": 128.178785}]","Start Year":1989,"Start Month":6.0,"Start Day":20.0,"End Year":1989,"End Month":6.0,"End Day":20.0,"Total Affected":32500.0,"Total Deaths":18.0},{"Year":1989,"Type":"Mass movement (dry)","Subtype":"Landslide","Country":"India","Location":"North India","Latitude":null,"Longitude":null,"Country Latitude":22.3511148,"Country Longitude":78.6677428,"Location Latitude":9.260591,"Location Longitude":76.7638196,"Smart Coords":null,"Start Year":1989,"Start Month":8.0,"Start Day":5.0,"End Year":1989,"End Month":8.0,"End Day":5.0,"Total Affected":null,"Total Deaths":45.0},{"Year":1989,"Type":"Flood","Subtype":"Riverine flood","Country":"India","Location":"Assam, Arunachal Pradesh, Manipur, Mizorem","Latitude":null,"Longitude":null,"Country Latitude":22.3511148,"Country Longitude":78.6677428,"Location Latitude":null,"Location Longitude":null,"Smart Coords":"[{\"Lat\": 26.4073841, \"Lng\": 93.2551303}, {\"Lat\": 28.0937702, \"Lng\": 94.5921326}, {\"Lat\": 24.7208818, \"Lng\": 93.9229386}]","Start Year":1989,"Start Month":8.0,"Start Day":null,"End Year":1989,"End Month":8.0,"End Day":null,"Total Affected":2000.0,"Total Deaths":18.0},{"Year":1989,"Type":"Landslide","Subtype":"Landslide","Country":"India","Location":null,"Latitude":null,"Longitude":null,"Country Latitude":22.3511148,"Country Longitude":78.6677428,"Location Latitude":null,"Location Longitude":null,"Smart Coords":null,"Start Year":1989,"Start Month":6.0,"Start Day":7.0,"End Year":1989,"End Month":6.0,"End Day":7.0,"Total Affected":null,"Total Deaths":41.0},{"Year":1989,"Type":"Storm","Subtype":"Tropical cyclone","Country":"India","Location":"Coastal Orissa, West Bengal","Latitude":null,"Longitude":null,"Country Latitude":22.3511148,"Country Longitude":78.6677428,"Location Latitude":null,"Location Longitude":null,"Smart Coords":"[{\"Lat\": 22.9964948, \"Lng\": 87.6855882}]","Start Year":1989,"Start Month":5.0,"Start Day":26.0,"End Year":1989,"End Month":5.0,"End Day":26.0,"Total Affected":3700000.0,"Total Deaths":43.0},{"Year":1989,"Type":"Storm","Subtype":"Tropical cyclone","Country":"India","Location":"Southern India","Latitude":null,"Longitude":null,"Country Latitude":22.3511148,"Country Longitude":78.6677428,"Location Latitude":10.8866997,"Location Longitude":78.7173717,"Smart Coords":null,"Start Year":1989,"Start Month":11.0,"Start Day":9.0,"End Year":1989,"End Month":11.0,"End Day":9.0,"Total Affected":null,"Total Deaths":50.0},{"Year":1989,"Type":"Extreme temperature","Subtype":"Cold wave","Country":"India","Location":"Bihar","Latitude":null,"Longitude":null,"Country Latitude":22.3511148,"Country Longitude":78.6677428,"Location Latitude":25.6440845,"Location Longitude":85.906508,"Smart Coords":"[{\"Lat\": 25.6440845, \"Lng\": 85.906508}]","Start Year":1989,"Start Month":12.0,"Start Day":null,"End Year":1989,"End Month":12.0,"End Day":null,"Total Affected":null,"Total Deaths":109.0},{"Year":1989,"Type":"Extreme temperature","Subtype":"Cold wave","Country":"India","Location":null,"Latitude":null,"Longitude":null,"Country Latitude":22.3511148,"Country Longitude":78.6677428,"Location Latitude":null,"Location Longitude":null,"Smart Coords":null,"Start Year":1989,"Start Month":1.0,"Start Day":null,"End Year":1989,"End Month":1.0,"End Day":null,"Total Affected":null,"Total Deaths":18.0},{"Year":1989,"Type":"Epidemic","Subtype":"Viral disease","Country":"India","Location":null,"Latitude":null,"Longitude":null,"Country Latitude":22.3511148,"Country Longitude":78.6677428,"Location Latitude":null,"Location Longitude":null,"Smart Coords":null,"Start Year":1989,"Start Month":null,"Start Day":null,"End Year":1989,"End Month":null,"End Day":null,"Total Affected":null,"Total Deaths":200.0},{"Year":1989,"Type":"Earthquake","Subtype":"Ground movement","Country":"Iran, Islamic Republic of","Location":"Fars,Yasuj, Kohkiluyeh-Boyer Ahmad provinces","Latitude":"30.167","Longitude":"50.921","Country Latitude":32.6475314,"Country Longitude":54.5643516,"Location Latitude":null,"Location Longitude":null,"Smart Coords":"[{\"Lat\": 32.6475314, \"Lng\": 54.5643516}]","Start Year":1989,"Start Month":5.0,"Start Day":27.0,"End Year":1989,"End Month":5.0,"End Day":27.0,"Total Affected":217.0,"Total Deaths":100.0},{"Year":1989,"Type":"Flood","Subtype":null,"Country":"Iran, Islamic Republic of","Location":"Zabol (Balouchestan)","Latitude":null,"Longitude":null,"Country Latitude":32.6475314,"Country Longitude":54.5643516,"Location Latitude":null,"Location Longitude":null,"Smart Coords":"[{\"Lat\": 31.0277779, \"Lng\": 61.4948211}]","Start Year":1989,"Start Month":4.0,"Start Day":4.0,"End Year":1989,"End Month":4.0,"End Day":4.0,"Total Affected":150000.0,"Total Deaths":null},{"Year":1989,"Type":"Insect infestation","Subtype":"Locust","Country":"Jordan","Location":null,"Latitude":null,"Longitude":null,"Country Latitude":31.1667049,"Country Longitude":36.941628,"Location Latitude":null,"Location Longitude":null,"Smart Coords":null,"Start Year":1989,"Start Month":1.0,"Start Day":null,"End Year":1989,"End Month":1.0,"End Day":null,"Total Affected":null,"Total Deaths":null},{"Year":1989,"Type":"Landslide","Subtype":"Landslide","Country":"Japan","Location":null,"Latitude":null,"Longitude":null,"Country Latitude":36.5748441,"Country Longitude":139.2394179,"Location Latitude":null,"Location Longitude":null,"Smart Coords":null,"Start Year":1989,"Start Month":null,"Start Day":null,"End Year":1989,"End Month":null,"End Day":null,"Total Affected":null,"Total Deaths":18.0},{"Year":1989,"Type":"Storm","Subtype":"Tropical cyclone","Country":"Japan","Location":"Tokyo","Latitude":null,"Longitude":null,"Country Latitude":36.5748441,"Country Longitude":139.2394179,"Location Latitude":35.6812665,"Location Longitude":139.757653,"Smart Coords":"[{\"Lat\": 35.6812665, \"Lng\": 139.757653}]","Start Year":1989,"Start Month":8.0,"Start Day":null,"End Year":1989,"End Month":8.0,"End Day":null,"Total Affected":null,"Total Deaths":15.0},{"Year":1989,"Type":"Storm","Subtype":"Tropical cyclone","Country":"Japan","Location":null,"Latitude":null,"Longitude":null,"Country Latitude":36.5748441,"Country Longitude":139.2394179,"Location Latitude":null,"Location Longitude":null,"Smart Coords":null,"Start Year":1989,"Start Month":9.0,"Start Day":10.0,"End Year":1989,"End Month":9.0,"End Day":10.0,"Total Affected":null,"Total Deaths":null},{"Year":1989,"Type":"Flood","Subtype":null,"Country":"Japan","Location":null,"Latitude":null,"Longitude":null,"Country Latitude":36.5748441,"Country Longitude":139.2394179,"Location Latitude":null,"Location Longitude":null,"Smart Coords":null,"Start Year":1989,"Start Month":null,"Start Day":null,"End Year":1989,"End Month":null,"End Day":null,"Total Affected":null,"Total Deaths":10.0},{"Year":1989,"Type":"Storm","Subtype":"Tropical cyclone","Country":"Saint Kitts and Nevis","Location":null,"Latitude":null,"Longitude":null,"Country Latitude":17.250512,"Country Longitude":-62.6725973,"Location Latitude":null,"Location Longitude":null,"Smart Coords":null,"Start Year":1989,"Start Month":9.0,"Start Day":17.0,"End Year":1989,"End Month":9.0,"End Day":17.0,"Total Affected":1300.0,"Total Deaths":1.0},{"Year":1989,"Type":"Storm","Subtype":"Tropical cyclone","Country":"Korea, Republic of","Location":"Cholla province, South Central Korea","Latitude":null,"Longitude":null,"Country Latitude":36.638392,"Country Longitude":127.6961188,"Location Latitude":null,"Location Longitude":null,"Smart Coords":null,"Start Year":1989,"Start Month":7.0,"Start Day":24.0,"End Year":1989,"End Month":7.0,"End Day":24.0,"Total Affected":75194.0,"Total Deaths":109.0},{"Year":1989,"Type":"Flood","Subtype":"Riverine flood","Country":"Sri Lanka","Location":"Colombo, Gampaha, Kegalle, Ratnapura, Kalutara, Galle, Matara, Nuwera Eliya, Aranayake districts","Latitude":null,"Longitude":null,"Country Latitude":7.87739585,"Country Longitude":80.6624785236,"Location Latitude":null,"Location Longitude":null,"Smart Coords":"[{\"Lat\": 6.9387469, \"Lng\": 79.8541134}, {\"Lat\": 7.11902475, \"Lng\": 79.91598756451819}, {\"Lat\": 7.11344465, \"Lng\": 80.32173952070438}, {\"Lat\": 6.6803691, \"Lng\": 80.4022975}, {\"Lat\": 6.5745305, \"Lng\": 80.02863119765179}, {\"Lat\": 6.0328139, \"Lng\": 80.214955}, {\"Lat\": 5.947822, \"Lng\": 80.5482919}, {\"Lat\": 7.1775864, \"Lng\": 80.4571784}]","Start Year":1989,"Start Month":5.0,"Start Day":30.0,"End Year":1989,"End Month":5.0,"End Day":30.0,"Total Affected":501000.0,"Total Deaths":325.0},{"Year":1989,"Type":"Storm","Subtype":null,"Country":"Lesotho","Location":null,"Latitude":null,"Longitude":null,"Country Latitude":-29.6039267,"Country Longitude":28.3350193,"Location Latitude":null,"Location Longitude":null,"Smart Coords":null,"Start Year":1989,"Start Month":5.0,"Start Day":null,"End Year":1989,"End Month":5.0,"End Day":null,"Total Affected":null,"Total Deaths":null},{"Year":1989,"Type":"Storm","Subtype":"Tropical cyclone","Country":"Madagascar","Location":"Mahajanga, Sainte Marie, Nosy-Varika, Fianarantsoa, Ihosy, Manajary, Manakara","Latitude":null,"Longitude":null,"Country Latitude":-18.9249604,"Country Longitude":46.4416422,"Location Latitude":null,"Location Longitude":null,"Smart Coords":"[{\"Lat\": -15.7181492, \"Lng\": 46.3172577}, {\"Lat\": -20.5829067, \"Lng\": 48.5322582}, {\"Lat\": -21.456444, \"Lng\": 47.085149}, {\"Lat\": -22.4491626, \"Lng\": 46.1389867}, {\"Lat\": -22.1453242, \"Lng\": 48.0081397}]","Start Year":1989,"Start Month":12.0,"Start Day":31.0,"End Year":1989,"End Month":12.0,"End Day":31.0,"Total Affected":55346.0,"Total Deaths":46.0},{"Year":1989,"Type":"Earthquake","Subtype":"Ground movement","Country":"Mexico","Location":"Near coast of Guerrero","Latitude":"16.773","Longitude":"-99.328","Country Latitude":23.6585116,"Country Longitude":-102.0077097,"Location Latitude":null,"Location Longitude":null,"Smart Coords":null,"Start Year":1989,"Start Month":4.0,"Start Day":25.0,"End Year":1989,"End Month":4.0,"End Day":25.0,"Total Affected":350.0,"Total Deaths":3.0},{"Year":1989,"Type":"Wildfire","Subtype":"Forest fire","Country":"Mexico","Location":"Quintana Roo","Latitude":null,"Longitude":null,"Country Latitude":23.6585116,"Country Longitude":-102.0077097,"Location Latitude":19.6666671,"Location Longitude":-88.5000001,"Smart Coords":"[{\"Lat\": 19.6666671, \"Lng\": -88.5000001}]","Start Year":1989,"Start Month":7.0,"Start Day":null,"End Year":1989,"End Month":7.0,"End Day":null,"Total Affected":null,"Total Deaths":null},{"Year":1989,"Type":"Flood","Subtype":null,"Country":"Mexico","Location":null,"Latitude":null,"Longitude":null,"Country Latitude":23.6585116,"Country Longitude":-102.0077097,"Location Latitude":null,"Location Longitude":null,"Smart Coords":null,"Start Year":1989,"Start Month":8.0,"Start Day":5.0,"End Year":1989,"End Month":8.0,"End Day":5.0,"Total Affected":null,"Total Deaths":40.0},{"Year":1989,"Type":"Flood","Subtype":null,"Country":"Mali","Location":null,"Latitude":null,"Longitude":null,"Country Latitude":16.3700359,"Country Longitude":-2.2900239,"Location Latitude":null,"Location Longitude":null,"Smart Coords":null,"Start Year":1989,"Start Month":8.0,"Start Day":null,"End Year":1989,"End Month":8.0,"End Day":null,"Total Affected":14635.0,"Total Deaths":1.0},{"Year":1989,"Type":"Flood","Subtype":null,"Country":"Mozambique","Location":"Sofala","Latitude":null,"Longitude":null,"Country Latitude":-19.302233,"Country Longitude":34.9144977,"Location Latitude":-19.0771666,"Location Longitude":34.7164804,"Smart Coords":"[{\"Lat\": -19.0771666, \"Lng\": 34.7164804}]","Start Year":1989,"Start Month":1.0,"Start Day":null,"End Year":1989,"End Month":1.0,"End Day":null,"Total Affected":null,"Total Deaths":2.0},{"Year":1989,"Type":"Storm","Subtype":"Tropical cyclone","Country":"Montserrat","Location":null,"Latitude":null,"Longitude":null,"Country Latitude":16.7417041,"Country Longitude":-62.1916844,"Location Latitude":null,"Location Longitude":null,"Smart Coords":null,"Start Year":1989,"Start Month":9.0,"Start Day":17.0,"End Year":1989,"End Month":9.0,"End Day":17.0,"Total Affected":12040.0,"Total Deaths":11.0},{"Year":1989,"Type":"Storm","Subtype":"Tropical cyclone","Country":"Martinique","Location":null,"Latitude":null,"Longitude":null,"Country Latitude":14.6367927,"Country Longitude":-61.0158268506,"Location Latitude":null,"Location Longitude":null,"Smart Coords":null,"Start Year":1989,"Start Month":9.0,"Start Day":17.0,"End Year":1989,"End Month":9.0,"End Day":17.0,"Total Affected":null,"Total Deaths":null},{"Year":1989,"Type":"Storm","Subtype":"Tropical cyclone","Country":"Mauritius","Location":null,"Latitude":null,"Longitude":null,"Country Latitude":-20.2759451,"Country Longitude":57.5703566,"Location Latitude":null,"Location Longitude":null,"Smart Coords":null,"Start Year":1989,"Start Month":1.0,"Start Day":29.0,"End Year":1989,"End Month":1.0,"End Day":29.0,"Total Affected":4507.0,"Total Deaths":1.0},{"Year":1989,"Type":"Earthquake","Subtype":"Ground movement","Country":"Malawi","Location":"Salima district","Latitude":"13.45 S","Longitude":"34.29 E","Country Latitude":-13.2687204,"Country Longitude":33.9301963,"Location Latitude":-13.76096215,"Location Longitude":34.4213334548,"Smart Coords":null,"Start Year":1989,"Start Month":3.0,"Start Day":9.0,"End Year":1989,"End Month":3.0,"End Day":9.0,"Total Affected":50100.0,"Total Deaths":9.0},{"Year":1989,"Type":"Epidemic","Subtype":"Bacterial disease","Country":"Malawi","Location":null,"Latitude":null,"Longitude":null,"Country Latitude":-13.2687204,"Country Longitude":33.9301963,"Location Latitude":null,"Location Longitude":null,"Smart Coords":null,"Start Year":1989,"Start Month":10.0,"Start Day":null,"End Year":1989,"End Month":10.0,"End Day":null,"Total Affected":444.0,"Total Deaths":35.0},{"Year":1989,"Type":"Flood","Subtype":null,"Country":"Malawi","Location":"Chikwawa, Nsanje, Machinga, Mangochi, Salima, Balaka, Zomba, Mulanje, Nwanza, Chiradzulu districts","Latitude":null,"Longitude":null,"Country Latitude":-13.2687204,"Country Longitude":33.9301963,"Location Latitude":null,"Location Longitude":null,"Smart Coords":"[{\"Lat\": -16.21538195, \"Lng\": 34.72283932431507}, {\"Lat\": -16.7199917, \"Lng\": 35.101108793623865}, {\"Lat\": -15.04847375, \"Lng\": 35.05315978998695}, {\"Lat\": -15.3863208, \"Lng\": 35.3268273}, {\"Lat\": -15.91088, \"Lng\": 35.54125499990176}, {\"Lat\": -15.75472, \"Lng\": 35.20553617052023}]","Start Year":1989,"Start Month":3.0,"Start Day":14.0,"End Year":1989,"End Month":3.0,"End Day":14.0,"Total Affected":100000.0,"Total Deaths":13.0},{"Year":1989,"Type":"Storm","Subtype":"Tropical cyclone","Country":"New Caledonia","Location":"Norden, Osten","Latitude":null,"Longitude":null,"Country Latitude":-21.3019905,"Country Longitude":165.4880773,"Location Latitude":null,"Location Longitude":null,"Smart Coords":null,"Start Year":1989,"Start Month":1.0,"Start Day":2.0,"End Year":1989,"End Month":1.0,"End Day":2.0,"Total Affected":null,"Total Deaths":2.0},{"Year":1989,"Type":"Epidemic","Subtype":"Bacterial disease","Country":"Niger","Location":"Maradi, Niamey","Latitude":null,"Longitude":null,"Country Latitude":17.7356214,"Country Longitude":9.3238432,"Location Latitude":13.5298836,"Location Longitude":2.0960712,"Smart Coords":"[{\"Lat\": 13.501206, \"Lng\": 7.102534}, {\"Lat\": 13.524834, \"Lng\": 2.109823}]","Start Year":1989,"Start Month":8.0,"Start Day":null,"End Year":1989,"End Month":8.0,"End Day":null,"Total Affected":131.0,"Total Deaths":19.0},{"Year":1989,"Type":"Epidemic","Subtype":"Bacterial disease","Country":"Niger","Location":null,"Latitude":null,"Longitude":null,"Country Latitude":17.7356214,"Country Longitude":9.3238432,"Location Latitude":null,"Location Longitude":null,"Smart Coords":null,"Start Year":1989,"Start Month":1.0,"Start Day":null,"End Year":1989,"End Month":1.0,"End Day":null,"Total Affected":1654.0,"Total Deaths":167.0},{"Year":1989,"Type":"Epidemic","Subtype":"Viral disease","Country":"Nigeria","Location":"Imo, Bendel states","Latitude":null,"Longitude":null,"Country Latitude":9.6000359,"Country Longitude":7.9999721,"Location Latitude":null,"Location Longitude":null,"Smart Coords":"[{\"Lat\": 5.5859456, \"Lng\": 7.0669651}, {\"Lat\": 6.4336571, \"Lng\": 3.4325372}]","Start Year":1989,"Start Month":1.0,"Start Day":1.0,"End Year":1989,"End Month":1.0,"End Day":1.0,"Total Affected":41.0,"Total Deaths":29.0},{"Year":1989,"Type":"Landslide","Subtype":"Landslide","Country":"Nepal","Location":"Bhajang district","Latitude":null,"Longitude":null,"Country Latitude":28.1083929,"Country Longitude":84.0917139,"Location Latitude":null,"Location Longitude":null,"Smart Coords":null,"Start Year":1989,"Start Month":9.0,"Start Day":12.0,"End Year":1989,"End Month":9.0,"End Day":12.0,"Total Affected":null,"Total Deaths":49.0},{"Year":1989,"Type":"Flood","Subtype":"Riverine flood","Country":"New Zealand","Location":"Great Barrier Is.","Latitude":null,"Longitude":null,"Country Latitude":-41.5000831,"Country Longitude":172.8344077,"Location Latitude":-36.1994214,"Location Longitude":175.4172866138,"Smart Coords":null,"Start Year":1989,"Start Month":1.0,"Start Day":1.0,"End Year":1989,"End Month":1.0,"End Day":1.0,"Total Affected":154.0,"Total Deaths":null},{"Year":1989,"Type":"Flood","Subtype":"Riverine flood","Country":"Pakistan","Location":"Punjab\/Sialkot, Sargodha, Rajanpur, Jhang districts","Latitude":null,"Longitude":null,"Country Latitude":30.3308401,"Country Longitude":71.247499,"Location Latitude":null,"Location Longitude":null,"Smart Coords":"[{\"Lat\": 32.4935378, \"Lng\": 74.5411575}, {\"Lat\": 32.0889657, \"Lng\": 72.6776943}, {\"Lat\": 29.1042715, \"Lng\": 70.3283163}, {\"Lat\": 31.2728805, \"Lng\": 72.3103071}]","Start Year":1989,"Start Month":8.0,"Start Day":4.0,"End Year":1989,"End Month":8.0,"End Day":4.0,"Total Affected":142400.0,"Total Deaths":20.0},{"Year":1989,"Type":"Flood","Subtype":null,"Country":"Peru","Location":"Arequipa","Latitude":null,"Longitude":null,"Country Latitude":-6.8699697,"Country Longitude":-75.0458515,"Location Latitude":-16.0,"Location Longitude":-72.25,"Smart Coords":"[{\"Lat\": -16.0, \"Lng\": -72.25}]","Start Year":1989,"Start Month":2.0,"Start Day":8.0,"End Year":1989,"End Month":2.0,"End Day":8.0,"Total Affected":500.0,"Total Deaths":38.0},{"Year":1989,"Type":"Flood","Subtype":"Riverine flood","Country":"Philippines","Location":"Metro Manila","Latitude":null,"Longitude":null,"Country Latitude":12.7503486,"Country Longitude":122.7312101,"Location Latitude":14.5736108,"Location Longitude":121.0329706,"Smart Coords":"[{\"Lat\": 14.5736108, \"Lng\": 121.0329706}]","Start Year":1989,"Start Month":8.0,"Start Day":null,"End Year":1989,"End Month":8.0,"End Day":null,"Total Affected":47500.0,"Total Deaths":null},{"Year":1989,"Type":"Landslide","Subtype":"Landslide","Country":"Philippines","Location":"Mindanao\/Monkayo","Latitude":null,"Longitude":null,"Country Latitude":12.7503486,"Country Longitude":122.7312101,"Location Latitude":null,"Location Longitude":null,"Smart Coords":null,"Start Year":1989,"Start Month":5.0,"Start Day":null,"End Year":1989,"End Month":5.0,"End Day":null,"Total Affected":1200.0,"Total Deaths":13.0},{"Year":1989,"Type":"Landslide","Subtype":"Landslide","Country":"Philippines","Location":"Muntinlupa","Latitude":null,"Longitude":null,"Country Latitude":12.7503486,"Country Longitude":122.7312101,"Location Latitude":14.3892634,"Location Longitude":121.0449101,"Smart Coords":"[{\"Lat\": 14.3892634, \"Lng\": 121.0449101}]","Start Year":1989,"Start Month":9.0,"Start Day":16.0,"End Year":1989,"End Month":9.0,"End Day":16.0,"Total Affected":77.0,"Total Deaths":14.0},{"Year":1989,"Type":"Landslide","Subtype":"Landslide","Country":"Philippines","Location":null,"Latitude":null,"Longitude":null,"Country Latitude":12.7503486,"Country Longitude":122.7312101,"Location Latitude":null,"Location Longitude":null,"Smart Coords":null,"Start Year":1989,"Start Month":null,"Start Day":null,"End Year":1989,"End Month":null,"End Day":null,"Total Affected":null,"Total Deaths":72.0},{"Year":1989,"Type":"Storm","Subtype":"Tropical cyclone","Country":"Philippines","Location":"Ilocos Sur, Ilocos Norte, Cagayan, Isabela, Nueva Vizcaya, La Union","Latitude":null,"Longitude":null,"Country Latitude":12.7503486,"Country Longitude":122.7312101,"Location Latitude":null,"Location Longitude":null,"Smart Coords":"[{\"Lat\": 17.2, \"Lng\": 120.5}, {\"Lat\": 18.166667, \"Lng\": 120.75}, {\"Lat\": 18.0, \"Lng\": 121.833333}, {\"Lat\": 17.0, \"Lng\": 122.0}, {\"Lat\": 16.35, \"Lng\": 121.13}, {\"Lat\": 16.5735957, \"Lng\": 120.4089899}]","Start Year":1989,"Start Month":7.0,"Start Day":15.0,"End Year":1989,"End Month":7.0,"End Day":15.0,"Total Affected":486382.0,"Total Deaths":97.0},{"Year":1989,"Type":"Storm","Subtype":"Tropical cyclone","Country":"Philippines","Location":"Albay, Bataan, Batangas, Bulacan, Camarines norte, Camarnies Sur, Cavite, Esatern Samar, Laguna, Marinduque, Masbate, Northern Leyte, Northern Samar, Nueva Ecija, Pampanga, Quezon, Rizal, Samar, Sorgoson, southern Leyte, Zambales, national capital region","Latitude":null,"Longitude":null,"Country Latitude":12.7503486,"Country Longitude":122.7312101,"Location Latitude":null,"Location Longitude":null,"Smart Coords":"[{\"Lat\": 13.216667, \"Lng\": 123.55}, {\"Lat\": 14.6436031, \"Lng\": 120.4657622}, {\"Lat\": 13.9146826, \"Lng\": 121.0867566}, {\"Lat\": 15.0, \"Lng\": 121.083333}, {\"Lat\": 14.166667, \"Lng\": 122.75}, {\"Lat\": 14.2554073, \"Lng\": 120.8671503}, {\"Lat\": 14.1696476, \"Lng\": 121.3336526}, {\"Lat\": 13.416667, \"Lng\": 121.95}, {\"Lat\": 8.4535134, \"Lng\": 124.6456902}, {\"Lat\": 12.42, \"Lng\": 124.81}, {\"Lat\": 15.583333, \"Lng\": 121.0}, {\"Lat\": 15.0519635, \"Lng\": 120.6445398}, {\"Lat\": 13.9, \"Lng\": 122.0}, {\"Lat\": 14.65, \"Lng\": 121.25}, {\"Lat\": 11.79822185, \"Lng\": 125.16904177391692}, {\"Lat\": 10.3475099, \"Lng\": 125.1250896}, {\"Lat\": 15.23, \"Lng\": 120.12}, {\"Lat\": 14.6493281, \"Lng\": 121.0756691}]","Start Year":1989,"Start Month":10.0,"Start Day":9.0,"End Year":1989,"End Month":10.0,"End Day":9.0,"Total Affected":736605.0,"Total Deaths":58.0},{"Year":1989,"Type":"Storm","Subtype":"Tropical cyclone","Country":"Philippines","Location":"Bataan, Benguet, Ifugao, Isabela, Kalinga-Apayao, La Union, Nueva Vizcaya, Pangasinan, Cagayan, Ilocios Sur, Neava Ecija, Quirino provinces, National capital region","Latitude":null,"Longitude":null,"Country Latitude":12.7503486,"Country Longitude":122.7312101,"Location Latitude":null,"Location Longitude":null,"Smart Coords":"[{\"Lat\": 14.6436031, \"Lng\": 120.4657622}, {\"Lat\": 16.5, \"Lng\": 120.666667}, {\"Lat\": 16.833333, \"Lng\": 121.166667}, {\"Lat\": 17.0, \"Lng\": 122.0}, {\"Lat\": 17.4018303, \"Lng\": 121.4384029}, {\"Lat\": 16.5735957, \"Lng\": 120.4089899}, {\"Lat\": 16.35, \"Lng\": 121.13}, {\"Lat\": 15.916667, \"Lng\": 120.333333}, {\"Lat\": 18.0, \"Lng\": 121.833333}, {\"Lat\": 16.283333, \"Lng\": 121.583333}, {\"Lat\": 14.6493281, \"Lng\": 121.0756691}]","Start Year":1989,"Start Month":10.0,"Start Day":14.0,"End Year":1989,"End Month":10.0,"End Day":14.0,"Total Affected":458679.0,"Total Deaths":30.0},{"Year":1989,"Type":"Storm","Subtype":"Tropical cyclone","Country":"Philippines","Location":"Cagayan, Ilocos Norte, Kalinga-Apayao, Nueva Viscayas provinces","Latitude":null,"Longitude":null,"Country Latitude":12.7503486,"Country Longitude":122.7312101,"Location Latitude":null,"Location Longitude":null,"Smart Coords":"[{\"Lat\": 18.0, \"Lng\": 121.833333}, {\"Lat\": 18.166667, \"Lng\": 120.75}, {\"Lat\": 17.4018303, \"Lng\": 121.4384029}]","Start Year":1989,"Start Month":10.0,"Start Day":2.0,"End Year":1989,"End Month":10.0,"End Day":2.0,"Total Affected":289191.0,"Total Deaths":147.0},{"Year":1989,"Type":"Storm","Subtype":"Tropical cyclone","Country":"Philippines","Location":"Benguet, Ilocos Norte, Ilocos Sur, Kalinga Apayao, La Union, Zambales","Latitude":null,"Longitude":null,"Country Latitude":12.7503486,"Country Longitude":122.7312101,"Location Latitude":null,"Location Longitude":null,"Smart Coords":"[{\"Lat\": 16.5, \"Lng\": 120.666667}, {\"Lat\": 18.166667, \"Lng\": 120.75}, {\"Lat\": 17.2, \"Lng\": 120.5}, {\"Lat\": 17.4018303, \"Lng\": 121.4384029}, {\"Lat\": 16.5735957, \"Lng\": 120.4089899}, {\"Lat\": 15.23, \"Lng\": 120.12}]","Start Year":1989,"Start Month":9.0,"Start Day":7.0,"End Year":1989,"End Month":9.0,"End Day":7.0,"Total Affected":140021.0,"Total Deaths":22.0},{"Year":1989,"Type":"Storm","Subtype":"Tropical cyclone","Country":"Philippines","Location":"Battan, Bulacan, Pampanga, North Metro Manila, Calauag Popillio Isl., northern Samar, Neava Ecija, Quezon, Rizal, Tarlac provinces","Latitude":null,"Longitude":null,"Country Latitude":12.7503486,"Country Longitude":122.7312101,"Location Latitude":null,"Location Longitude":null,"Smart Coords":"[{\"Lat\": 15.0, \"Lng\": 121.083333}, {\"Lat\": 15.0519635, \"Lng\": 120.6445398}, {\"Lat\": 14.6068325, \"Lng\": 121.0955642}, {\"Lat\": 12.42, \"Lng\": 124.81}, {\"Lat\": 13.9, \"Lng\": 122.0}, {\"Lat\": 14.65, \"Lng\": 121.25}, {\"Lat\": 15.4937252, \"Lng\": 120.4964091}]","Start Year":1989,"Start Month":11.0,"Start Day":22.0,"End Year":1989,"End Month":11.0,"End Day":22.0,"Total Affected":13050.0,"Total Deaths":11.0},{"Year":1989,"Type":"Storm","Subtype":"Tropical cyclone","Country":"Philippines","Location":null,"Latitude":null,"Longitude":null,"Country Latitude":12.7503486,"Country Longitude":122.7312101,"Location Latitude":null,"Location Longitude":null,"Smart Coords":null,"Start Year":1989,"Start Month":5.0,"Start Day":15.0,"End Year":1989,"End Month":5.0,"End Day":15.0,"Total Affected":12937.0,"Total Deaths":13.0},{"Year":1989,"Type":"Flood","Subtype":null,"Country":"Philippines","Location":"Sorgoson, Camatines Sur, Samar","Latitude":null,"Longitude":null,"Country Latitude":12.7503486,"Country Longitude":122.7312101,"Location Latitude":null,"Location Longitude":null,"Smart Coords":"[{\"Lat\": 11.79822185, \"Lng\": 125.16904177391692}]","Start Year":1989,"Start Month":2.0,"Start Day":9.0,"End Year":1989,"End Month":2.0,"End Day":9.0,"Total Affected":260011.0,"Total Deaths":44.0},{"Year":1989,"Type":"Storm","Subtype":"Tropical cyclone","Country":"Puerto Rico","Location":null,"Latitude":null,"Longitude":null,"Country Latitude":18.2247706,"Country Longitude":-66.4858295,"Location Latitude":null,"Location Longitude":null,"Smart Coords":null,"Start Year":1989,"Start Month":9.0,"Start Day":17.0,"End Year":1989,"End Month":9.0,"End Day":17.0,"Total Affected":null,"Total Deaths":null},{"Year":1989,"Type":"Storm","Subtype":"Tropical cyclone","Country":"Puerto Rico","Location":null,"Latitude":null,"Longitude":null,"Country Latitude":18.2247706,"Country Longitude":-66.4858295,"Location Latitude":null,"Location Longitude":null,"Smart Coords":null,"Start Year":1989,"Start Month":8.0,"Start Day":4.0,"End Year":1989,"End Month":8.0,"End Day":4.0,"Total Affected":2000.0,"Total Deaths":null},{"Year":1989,"Type":"Storm","Subtype":null,"Country":"Portugal","Location":null,"Latitude":null,"Longitude":null,"Country Latitude":39.6621648,"Country Longitude":-8.1353519,"Location Latitude":null,"Location Longitude":null,"Smart Coords":null,"Start Year":1989,"Start Month":2.0,"Start Day":25.0,"End Year":1989,"End Month":2.0,"End Day":25.0,"Total Affected":null,"Total Deaths":null},{"Year":1989,"Type":"Storm","Subtype":"Tropical cyclone","Country":"R\u00e9union","Location":"Southwest Isl.","Latitude":null,"Longitude":null,"Country Latitude":-21.13073795,"Country Longitude":55.536480113,"Location Latitude":null,"Location Longitude":null,"Smart Coords":null,"Start Year":1989,"Start Month":1.0,"Start Day":29.0,"End Year":1989,"End Month":1.0,"End Day":29.0,"Total Affected":6261.0,"Total Deaths":10.0},{"Year":1989,"Type":"Flood","Subtype":null,"Country":"El Salvador","Location":null,"Latitude":null,"Longitude":null,"Country Latitude":13.8000382,"Country Longitude":-88.9140683,"Location Latitude":null,"Location Longitude":null,"Smart Coords":null,"Start Year":1989,"Start Month":null,"Start Day":null,"End Year":1989,"End Month":null,"End Day":null,"Total Affected":null,"Total Deaths":10.0},{"Year":1989,"Type":"Flood","Subtype":null,"Country":"Somalia","Location":"Koryaleh province","Latitude":null,"Longitude":null,"Country Latitude":8.3676771,"Country Longitude":49.083416,"Location Latitude":null,"Location Longitude":null,"Smart Coords":null,"Start Year":1989,"Start Month":6.0,"Start Day":5.0,"End Year":1989,"End Month":6.0,"End Day":5.0,"Total Affected":50000.0,"Total Deaths":null},{"Year":1989,"Type":"Flood","Subtype":null,"Country":"Somalia","Location":"Skushban, Bosasso, Kandala (East Somalia)","Latitude":null,"Longitude":null,"Country Latitude":8.3676771,"Country Longitude":49.083416,"Location Latitude":null,"Location Longitude":null,"Smart Coords":"[{\"Lat\": 11.27848, \"Lng\": 49.179952}]","Start Year":1989,"Start Month":3.0,"Start Day":null,"End Year":1989,"End Month":3.0,"End Day":null,"Total Affected":null,"Total Deaths":34.0},{"Year":1989,"Type":"Epidemic","Subtype":"Bacterial disease","Country":"Sao Tome and Principe","Location":"Aguas Grande, Mezochi Lobata, Cantaggio, Cave","Latitude":null,"Longitude":null,"Country Latitude":0.9713095,"Country Longitude":7.02255,"Location Latitude":null,"Location Longitude":null,"Smart Coords":null,"Start Year":1989,"Start Month":6.0,"Start Day":6.0,"End Year":1989,"End Month":6.0,"End Day":6.0,"Total Affected":1063.0,"Total Deaths":31.0},{"Year":1989,"Type":"Landslide","Subtype":null,"Country":"Soviet Union","Location":"Caucasus (Georgia)","Latitude":null,"Longitude":null,"Country Latitude":52.872309,"Country Longitude":78.615662,"Location Latitude":null,"Location Longitude":null,"Smart Coords":"[{\"Lat\": 41.7728058, \"Lng\": 44.7626376}]","Start Year":1989,"Start Month":3.0,"Start Day":10.0,"End Year":1989,"End Month":4.0,"End Day":20.0,"Total Affected":null,"Total Deaths":52.0},{"Year":1989,"Type":"Storm","Subtype":"Tropical cyclone","Country":"Taiwan","Location":null,"Latitude":null,"Longitude":null,"Country Latitude":23.9739374,"Country Longitude":120.9820179,"Location Latitude":null,"Location Longitude":null,"Smart Coords":null,"Start Year":1989,"Start Month":9.0,"Start Day":11.0,"End Year":1989,"End Month":9.0,"End Day":11.0,"Total Affected":null,"Total Deaths":13.0},{"Year":1989,"Type":"Storm","Subtype":"Tropical cyclone","Country":"Viet Nam","Location":"Da Nang city (Quang Nam Danang province)","Latitude":null,"Longitude":null,"Country Latitude":15.9266657,"Country Longitude":107.9650855,"Location Latitude":15.9441991,"Location Longitude":108.1732656,"Smart Coords":"[{\"Lat\": 16.068, \"Lng\": 108.212}]","Start Year":1989,"Start Month":5.0,"Start Day":25.0,"End Year":1989,"End Month":5.0,"End Day":25.0,"Total Affected":336106.0,"Total Deaths":751.0},{"Year":1989,"Type":"Drought","Subtype":"Drought","Country":"Togo","Location":"Tone, Oti prectures","Latitude":null,"Longitude":null,"Country Latitude":8.7800265,"Country Longitude":1.0199765,"Location Latitude":null,"Location Longitude":null,"Smart Coords":null,"Start Year":1989,"Start Month":1.0,"Start Day":null,"End Year":1989,"End Month":null,"End Day":null,"Total Affected":400000.0,"Total Deaths":null},{"Year":1989,"Type":"Mass movement (dry)","Subtype":"Landslide","Country":"Soviet Union","Location":"Checheno-Ingush (Russian Federation)","Latitude":null,"Longitude":null,"Country Latitude":52.872309,"Country Longitude":78.615662,"Location Latitude":null,"Location Longitude":null,"Smart Coords":null,"Start Year":1989,"Start Month":3.0,"Start Day":null,"End Year":1989,"End Month":3.0,"End Day":null,"Total Affected":8000.0,"Total Deaths":null},{"Year":1989,"Type":"Flood","Subtype":"Riverine flood","Country":"Soviet Union","Location":"Far East (Russian Federation)","Latitude":null,"Longitude":null,"Country Latitude":52.872309,"Country Longitude":78.615662,"Location Latitude":null,"Location Longitude":null,"Smart Coords":"[{\"Lat\": 7.00194225, \"Lng\": -9.468326367917118}]","Start Year":1989,"Start Month":8.0,"Start Day":2.0,"End Year":1989,"End Month":8.0,"End Day":7.0,"Total Affected":null,"Total Deaths":17.0},{"Year":1989,"Type":"Landslide","Subtype":null,"Country":"Soviet Union","Location":"Adzharia (Georgia)","Latitude":null,"Longitude":null,"Country Latitude":52.872309,"Country Longitude":78.615662,"Location Latitude":null,"Location Longitude":null,"Smart Coords":null,"Start Year":1989,"Start Month":4.0,"Start Day":20.0,"End Year":1989,"End Month":4.0,"End Day":20.0,"Total Affected":2500.0,"Total Deaths":46.0},{"Year":1989,"Type":"Storm","Subtype":"Tropical cyclone","Country":"Thailand","Location":"Chumphon, Nakkhon Si Thammarat, Phetchaburi, Prachuap Khiri Khan, Ranong, Songkhla, Surat Thani provinces","Latitude":null,"Longitude":null,"Country Latitude":14.8971921,"Country Longitude":100.83273,"Location Latitude":null,"Location Longitude":null,"Smart Coords":"[{\"Lat\": 10.3782724, \"Lng\": 99.0077685}, {\"Lat\": 13.0692869, \"Lng\": 99.6044376}, {\"Lat\": 12.0432669, \"Lng\": 99.7487235}, {\"Lat\": 10.0469546, \"Lng\": 98.6870133}, {\"Lat\": 6.8790221, \"Lng\": 100.5498542}, {\"Lat\": 9.4674663, \"Lng\": 98.830042}]","Start Year":1989,"Start Month":11.0,"Start Day":3.0,"End Year":1989,"End Month":11.0,"End Day":5.0,"Total Affected":199000.0,"Total Deaths":458.0},{"Year":1989,"Type":"Flood","Subtype":null,"Country":"Tanzania, United Republic of","Location":"Mahurunga, Kilambo, Kihimika, Tangazo, Kitunguli, Meya, Mogoro, Twara","Latitude":null,"Longitude":null,"Country Latitude":-6.5247123,"Country Longitude":35.7878438,"Location Latitude":null,"Location Longitude":null,"Smart Coords":"[{\"Lat\": -3.370385, \"Lng\": 37.3096958}, {\"Lat\": -7.7673472, \"Lng\": 30.7591921}, {\"Lat\": -10.499595, \"Lng\": 40.2978759}, {\"Lat\": -6.815757, \"Lng\": 39.2829195}, {\"Lat\": -10.4932018, \"Lng\": 40.3144885}, {\"Lat\": -6.8221493, \"Lng\": 37.663122}]","Start Year":1989,"Start Month":4.0,"Start Day":7.0,"End Year":1989,"End Month":4.0,"End Day":7.0,"Total Affected":141056.0,"Total Deaths":10.0},{"Year":1989,"Type":"Epidemic","Subtype":"Bacterial disease","Country":"Uganda","Location":"Kampala, Mbale, Arua","Latitude":null,"Longitude":null,"Country Latitude":1.5333554,"Country Longitude":32.2166578,"Location Latitude":null,"Location Longitude":null,"Smart Coords":"[{\"Lat\": 0.3177137, \"Lng\": 32.5813539}, {\"Lat\": 0.9766007, \"Lng\": 34.20220583097499}, {\"Lat\": 3.0014096, \"Lng\": 31.009352707358268}]","Start Year":1989,"Start Month":12.0,"Start Day":null,"End Year":1989,"End Month":12.0,"End Day":null,"Total Affected":961.0,"Total Deaths":156.0},{"Year":1989,"Type":"Storm","Subtype":"Convective storm","Country":"United States","Location":"Huntsville (Alabama)","Latitude":null,"Longitude":null,"Country Latitude":39.7837304,"Country Longitude":-100.445882,"Location Latitude":34.729847,"Location Longitude":-86.5859011,"Smart Coords":null,"Start Year":1989,"Start Month":11.0,"Start Day":15.0,"End Year":1989,"End Month":11.0,"End Day":15.0,"Total Affected":null,"Total Deaths":27.0},{"Year":1989,"Type":"Earthquake","Subtype":"Ground movement","Country":"United States","Location":"San Francisco, Oakland, San Mateo, Santa Clara, San Jose, Santa Cruz, Berkeley, Holister, Silicon Valley (California)","Latitude":"37.036","Longitude":"-121.88","Country Latitude":39.7837304,"Country Longitude":-100.445882,"Location Latitude":null,"Location Longitude":null,"Smart Coords":"[{\"Lat\": 37.7790262, \"Lng\": -122.419906}, {\"Lat\": 40.5825377, \"Lng\": -86.8436392}, {\"Lat\": 37.050096, \"Lng\": -121.9905908}, {\"Lat\": 37.8708393, \"Lng\": -122.272863}]","Start Year":1989,"Start Month":10.0,"Start Day":18.0,"End Year":1989,"End Month":10.0,"End Day":18.0,"Total Affected":3757.0,"Total Deaths":62.0},{"Year":1989,"Type":"Earthquake","Subtype":"Ground movement","Country":"United States","Location":"Puna district (Hawaii)","Latitude":"19.362","Longitude":"-155.083","Country Latitude":39.7837304,"Country Longitude":-100.445882,"Location Latitude":21.3184445,"Location Longitude":-157.8452296,"Smart Coords":null,"Start Year":1989,"Start Month":6.0,"Start Day":26.0,"End Year":1989,"End Month":6.0,"End Day":26.0,"Total Affected":315.0,"Total Deaths":5.0},{"Year":1989,"Type":"Storm","Subtype":"Tropical cyclone","Country":"United States","Location":"South Caroline","Latitude":null,"Longitude":null,"Country Latitude":39.7837304,"Country Longitude":-100.445882,"Location Latitude":34.81540735,"Location Longitude":-82.9194952716,"Smart Coords":"[{\"Lat\": 34.81540735, \"Lng\": -82.9194952716483}]","Start Year":1989,"Start Month":9.0,"Start Day":25.0,"End Year":1989,"End Month":9.0,"End Day":25.0,"Total Affected":25000.0,"Total Deaths":51.0},{"Year":1989,"Type":"Storm","Subtype":"Tropical cyclone","Country":"United States","Location":"Texas, Louisiane","Latitude":null,"Longitude":null,"Country Latitude":39.7837304,"Country Longitude":-100.445882,"Location Latitude":30.1718639,"Location Longitude":-91.1381596,"Smart Coords":"[{\"Lat\": 31.2638905, \"Lng\": -98.5456116}, {\"Lat\": 30.8703881, \"Lng\": -92.007126}]","Start Year":1989,"Start Month":6.0,"Start Day":25.0,"End Year":1989,"End Month":6.0,"End Day":25.0,"Total Affected":null,"Total Deaths":null},{"Year":1989,"Type":"Storm","Subtype":"Tropical cyclone","Country":"United States","Location":"Texas","Latitude":null,"Longitude":null,"Country Latitude":39.7837304,"Country Longitude":-100.445882,"Location Latitude":31.2638905,"Location Longitude":-98.5456116,"Smart Coords":"[{\"Lat\": 31.2638905, \"Lng\": -98.5456116}]","Start Year":1989,"Start Month":8.0,"Start Day":1.0,"End Year":1989,"End Month":8.0,"End Day":2.0,"Total Affected":null,"Total Deaths":null},{"Year":1989,"Type":"Storm","Subtype":"Tropical cyclone","Country":"United States","Location":"Texas","Latitude":null,"Longitude":null,"Country Latitude":39.7837304,"Country Longitude":-100.445882,"Location Latitude":31.2638905,"Location Longitude":-98.5456116,"Smart Coords":"[{\"Lat\": 31.2638905, \"Lng\": -98.5456116}]","Start Year":1989,"Start Month":10.0,"Start Day":15.0,"End Year":1989,"End Month":10.0,"End Day":15.0,"Total Affected":null,"Total Deaths":2.0},{"Year":1989,"Type":"Extreme temperature","Subtype":"Cold wave","Country":"United States","Location":null,"Latitude":null,"Longitude":null,"Country Latitude":39.7837304,"Country Longitude":-100.445882,"Location Latitude":null,"Location Longitude":null,"Smart Coords":null,"Start Year":1989,"Start Month":12.0,"Start Day":21.0,"End Year":1989,"End Month":12.0,"End Day":21.0,"Total Affected":null,"Total Deaths":84.0},{"Year":1989,"Type":"Storm","Subtype":null,"Country":"United States","Location":"Texas, Virginia, North Carolina, Louisiana, South Carolina, Oklahoma","Latitude":null,"Longitude":null,"Country Latitude":39.7837304,"Country Longitude":-100.445882,"Location Latitude":null,"Location Longitude":null,"Smart Coords":"[{\"Lat\": 31.2638905, \"Lng\": -98.5456116}, {\"Lat\": 37.1232245, \"Lng\": -78.4927721}, {\"Lat\": 35.6729639, \"Lng\": -79.0392919}, {\"Lat\": 30.8703881, \"Lng\": -92.007126}, {\"Lat\": 33.6874388, \"Lng\": -80.4363743}, {\"Lat\": 34.9550817, \"Lng\": -97.2684063}]","Start Year":1989,"Start Month":5.0,"Start Day":6.0,"End Year":1989,"End Month":5.0,"End Day":6.0,"Total Affected":100.0,"Total Deaths":23.0},{"Year":1989,"Type":"Storm","Subtype":null,"Country":"United States","Location":null,"Latitude":null,"Longitude":null,"Country Latitude":39.7837304,"Country Longitude":-100.445882,"Location Latitude":null,"Location Longitude":null,"Smart Coords":null,"Start Year":1989,"Start Month":4.0,"Start Day":3.0,"End Year":1989,"End Month":4.0,"End Day":3.0,"Total Affected":null,"Total Deaths":null},{"Year":1989,"Type":"Storm","Subtype":null,"Country":"United States","Location":null,"Latitude":null,"Longitude":null,"Country Latitude":39.7837304,"Country Longitude":-100.445882,"Location Latitude":null,"Location Longitude":null,"Smart Coords":null,"Start Year":1989,"Start Month":4.0,"Start Day":25.0,"End Year":1989,"End Month":4.0,"End Day":25.0,"Total Affected":null,"Total Deaths":null},{"Year":1989,"Type":"Storm","Subtype":null,"Country":"United States","Location":"Arkansas (Texas)","Latitude":null,"Longitude":null,"Country Latitude":39.7837304,"Country Longitude":-100.445882,"Location Latitude":28.5683899,"Location Longitude":-99.5707485,"Smart Coords":"[{\"Lat\": 35.2048883, \"Lng\": -92.4479108}]","Start Year":1989,"Start Month":4.0,"Start Day":28.0,"End Year":1989,"End Month":4.0,"End Day":28.0,"Total Affected":null,"Total Deaths":null},{"Year":1989,"Type":"Storm","Subtype":null,"Country":"United States","Location":null,"Latitude":null,"Longitude":null,"Country Latitude":39.7837304,"Country Longitude":-100.445882,"Location Latitude":null,"Location Longitude":null,"Smart Coords":null,"Start Year":1989,"Start Month":5.0,"Start Day":24.0,"End Year":1989,"End Month":5.0,"End Day":24.0,"Total Affected":null,"Total Deaths":null},{"Year":1989,"Type":"Storm","Subtype":null,"Country":"United States","Location":null,"Latitude":null,"Longitude":null,"Country Latitude":39.7837304,"Country Longitude":-100.445882,"Location Latitude":null,"Location Longitude":null,"Smart Coords":null,"Start Year":1989,"Start Month":6.0,"Start Day":6.0,"End Year":1989,"End Month":6.0,"End Day":6.0,"Total Affected":null,"Total Deaths":5.0},{"Year":1989,"Type":"Storm","Subtype":null,"Country":"United States","Location":"Virginie, Maryland, North Caroline, South Caroline","Latitude":null,"Longitude":null,"Country Latitude":39.7837304,"Country Longitude":-100.445882,"Location Latitude":null,"Location Longitude":null,"Smart Coords":"[{\"Lat\": 37.1232245, \"Lng\": -78.4927721}, {\"Lat\": 42.634338, \"Lng\": -71.290437}, {\"Lat\": 33.6157083, \"Lng\": -81.1020414}, {\"Lat\": 34.81540735, \"Lng\": -82.9194952716483}]","Start Year":1989,"Start Month":6.0,"Start Day":14.0,"End Year":1989,"End Month":6.0,"End Day":14.0,"Total Affected":null,"Total Deaths":null},{"Year":1989,"Type":"Storm","Subtype":null,"Country":"United States","Location":"Oklahoma, Texas, Louisiane","Latitude":null,"Longitude":null,"Country Latitude":39.7837304,"Country Longitude":-100.445882,"Location Latitude":null,"Location Longitude":null,"Smart Coords":"[{\"Lat\": 34.9550817, \"Lng\": -97.2684063}, {\"Lat\": 31.2638905, \"Lng\": -98.5456116}, {\"Lat\": 30.8703881, \"Lng\": -92.007126}]","Start Year":1989,"Start Month":7.0,"Start Day":2.0,"End Year":1989,"End Month":7.0,"End Day":2.0,"Total Affected":null,"Total Deaths":null},{"Year":1989,"Type":"Storm","Subtype":null,"Country":"United States","Location":"New York, Connecticut, New Jersey","Latitude":null,"Longitude":null,"Country Latitude":39.7837304,"Country Longitude":-100.445882,"Location Latitude":null,"Location Longitude":null,"Smart Coords":"[{\"Lat\": 40.7127281, \"Lng\": -74.0060152}, {\"Lat\": 41.6500201, \"Lng\": -72.7342163}, {\"Lat\": 40.0757384, \"Lng\": -74.4041622}]","Start Year":1989,"Start Month":7.0,"Start Day":10.0,"End Year":1989,"End Month":7.0,"End Day":10.0,"Total Affected":null,"Total Deaths":null},{"Year":1989,"Type":"Storm","Subtype":null,"Country":"United States","Location":"New Mexique","Latitude":null,"Longitude":null,"Country Latitude":39.7837304,"Country Longitude":-100.445882,"Location Latitude":34.5708167,"Location Longitude":-105.993007,"Smart Coords":"[{\"Lat\": 34.5708167, \"Lng\": -105.993007}]","Start Year":1989,"Start Month":9.0,"Start Day":12.0,"End Year":1989,"End Month":9.0,"End Day":12.0,"Total Affected":null,"Total Deaths":null},{"Year":1989,"Type":"Storm","Subtype":null,"Country":"United States","Location":null,"Latitude":null,"Longitude":null,"Country Latitude":39.7837304,"Country Longitude":-100.445882,"Location Latitude":null,"Location Longitude":null,"Smart Coords":null,"Start Year":1989,"Start Month":11.0,"Start Day":21.0,"End Year":1989,"End Month":11.0,"End Day":21.0,"Total Affected":null,"Total Deaths":null},{"Year":1989,"Type":"Earthquake","Subtype":"Ground movement","Country":"Venezuela, Bolivarian Republic of","Location":"FALCON, CARABOBO, CARACAS, Tucacas area","Latitude":"11.038","Longitude":"-68.27","Country Latitude":8.0018709,"Country Longitude":-66.1109318,"Location Latitude":null,"Location Longitude":null,"Smart Coords":null,"Start Year":1989,"Start Month":5.0,"Start Day":4.0,"End Year":1989,"End Month":5.0,"End Day":4.0,"Total Affected":2000.0,"Total Deaths":null},{"Year":1989,"Type":"Epidemic","Subtype":"Viral disease","Country":"Venezuela, Bolivarian Republic of","Location":null,"Latitude":null,"Longitude":null,"Country Latitude":8.0018709,"Country Longitude":-66.1109318,"Location Latitude":null,"Location Longitude":null,"Smart Coords":null,"Start Year":1989,"Start Month":12.0,"Start Day":null,"End Year":1989,"End Month":12.0,"End Day":null,"Total Affected":null,"Total Deaths":37.0},{"Year":1989,"Type":"Storm","Subtype":"Tropical cyclone","Country":"Virgin Island (U.S.)","Location":null,"Latitude":null,"Longitude":null,"Country Latitude":17.789187,"Country Longitude":-64.7080574,"Location Latitude":null,"Location Longitude":null,"Smart Coords":null,"Start Year":1989,"Start Month":9.0,"Start Day":18.0,"End Year":1989,"End Month":9.0,"End Day":18.0,"Total Affected":10000.0,"Total Deaths":null},{"Year":1989,"Type":"Storm","Subtype":"Tropical cyclone","Country":"Viet Nam","Location":"Thanh Hoa province","Latitude":null,"Longitude":null,"Country Latitude":15.9266657,"Country Longitude":107.9650855,"Location Latitude":19.9781573,"Location Longitude":105.4816107,"Smart Coords":"[{\"Lat\": 19.9781573, \"Lng\": 105.4816107}]","Start Year":1989,"Start Month":7.0,"Start Day":24.0,"End Year":1989,"End Month":7.0,"End Day":24.0,"Total Affected":1445491.0,"Total Deaths":104.0},{"Year":1989,"Type":"Storm","Subtype":"Tropical cyclone","Country":"Viet Nam","Location":"Nghe Tinh, Binh Tri Thien provinces","Latitude":null,"Longitude":null,"Country Latitude":15.9266657,"Country Longitude":107.9650855,"Location Latitude":null,"Location Longitude":null,"Smart Coords":"[{\"Lat\": 21.1395829, \"Lng\": 105.9452069}, {\"Lat\": 12.4869385, \"Lng\": 109.101764}]","Start Year":1989,"Start Month":10.0,"Start Day":null,"End Year":1989,"End Month":10.0,"End Day":null,"Total Affected":4635762.0,"Total Deaths":104.0},{"Year":1989,"Type":"Storm","Subtype":"Tropical cyclone","Country":"Samoa","Location":"Countrywide, especially Savaii Isl.","Latitude":null,"Longitude":null,"Country Latitude":-13.7693895,"Country Longitude":-172.12005,"Location Latitude":null,"Location Longitude":null,"Smart Coords":null,"Start Year":1989,"Start Month":1.0,"Start Day":6.0,"End Year":1989,"End Month":1.0,"End Day":6.0,"Total Affected":null,"Total Deaths":null},{"Year":1989,"Type":"Flood","Subtype":"Riverine flood","Country":"Yemen P Dem Rep","Location":"Saiyoon district (Central and Eastern regions)","Latitude":null,"Longitude":null,"Country Latitude":16.120584,"Country Longitude":48.932668,"Location Latitude":null,"Location Longitude":null,"Smart Coords":null,"Start Year":1989,"Start Month":3.0,"Start Day":19.0,"End Year":1989,"End Month":3.0,"End Day":19.0,"Total Affected":340000.0,"Total Deaths":25.0},{"Year":1989,"Type":"Flood","Subtype":"Riverine flood","Country":"Yemen Arab Rep","Location":null,"Latitude":null,"Longitude":null,"Country Latitude":15.429536,"Country Longitude":44.818064,"Location Latitude":null,"Location Longitude":null,"Smart Coords":null,"Start Year":1989,"Start Month":4.0,"Start Day":6.0,"End Year":1989,"End Month":4.0,"End Day":6.0,"Total Affected":150000.0,"Total Deaths":38.0},{"Year":1989,"Type":"Landslide","Subtype":"Landslide","Country":"Congo, the Democratic Republic of the","Location":"South-Kivu","Latitude":null,"Longitude":null,"Country Latitude":-2.9814344,"Country Longitude":23.8222636,"Location Latitude":-3.2653155,"Location Longitude":27.8705717,"Smart Coords":null,"Start Year":1989,"Start Month":3.0,"Start Day":28.0,"End Year":1989,"End Month":3.0,"End Day":28.0,"Total Affected":148.0,"Total Deaths":null},{"Year":1989,"Type":"Flood","Subtype":"Riverine flood","Country":"Zambia","Location":"Chawama, Chilanga, Kanyama, Makeni, Lusaka, + southern, eastern, western provinces","Latitude":null,"Longitude":null,"Country Latitude":-14.5189121,"Country Longitude":27.5589884,"Location Latitude":null,"Location Longitude":null,"Smart Coords":"[{\"Lat\": -15.4590249, \"Lng\": 28.2826273}, {\"Lat\": -15.5587509, \"Lng\": 28.2754586}, {\"Lat\": -15.4364701, \"Lng\": 28.23678189166841}, {\"Lat\": -15.4682764, \"Lng\": 28.2495649}, {\"Lat\": -15.4163395, \"Lng\": 28.2818414}, {\"Lat\": -16.5381715, \"Lng\": 26.7374997}, {\"Lat\": -13.6514737, \"Lng\": 31.9958539}, {\"Lat\": -15.8543496, \"Lng\": 23.8016799}]","Start Year":1989,"Start Month":1.0,"Start Day":23.0,"End Year":1989,"End Month":1.0,"End Day":23.0,"Total Affected":800000.0,"Total Deaths":null},{"Year":1989,"Type":"Epidemic","Subtype":"Viral disease","Country":"Vanuatu","Location":null,"Latitude":null,"Longitude":null,"Country Latitude":-16.5255069,"Country Longitude":168.1069154,"Location Latitude":null,"Location Longitude":null,"Smart Coords":null,"Start Year":1989,"Start Month":null,"Start Day":null,"End Year":1989,"End Month":12.0,"End Day":null,"Total Affected":3000.0,"Total Deaths":12.0}]