[{"Year":1960,"Type":"Earthquake","Subtype":"Tsunami","Country":"Chile","Location":"Puerto Montt, Valdivia (Arauco peninsula)","Latitude":"-38.143","Longitude":"-73.407","Country Latitude":-31.7613365,"Country Longitude":-71.3187697,"Location Latitude":null,"Location Longitude":null,"Smart Coords":"[{\"Lat\": -41.471798, \"Lng\": -72.9395915}, {\"Lat\": -39.8141262, \"Lng\": -73.2459859}]","Start Year":1960,"Start Month":5.0,"Start Day":22.0,"End Year":1960,"End Month":5.0,"End Day":22.0,"Total Affected":2003000.0,"Total Deaths":6000.0},{"Year":1960,"Type":"Storm","Subtype":"Tropical cyclone","Country":"Anguilla","Location":"South Hille and West End","Latitude":null,"Longitude":null,"Country Latitude":18.1954947,"Country Longitude":-63.0750234,"Location Latitude":null,"Location Longitude":null,"Smart Coords":"[{\"Lat\": 18.166821650000003, \"Lng\": -63.156780427631645}]","Start Year":1960,"Start Month":9.0,"Start Day":4.0,"End Year":1960,"End Month":9.0,"End Day":4.0,"Total Affected":1250.0,"Total Deaths":5.0},{"Year":1960,"Type":"Storm","Subtype":"Tropical cyclone","Country":"Netherlands Antilles","Location":"St Martin Isl., Saba","Latitude":null,"Longitude":null,"Country Latitude":12.1845,"Country Longitude":-68.6607922625,"Location Latitude":null,"Location Longitude":null,"Smart Coords":"[{\"Lat\": 18.0423736, \"Lng\": -63.0549948}, {\"Lat\": 17.632196999999998, \"Lng\": -63.23564245991936}]","Start Year":1960,"Start Month":9.0,"Start Day":4.0,"End Year":1960,"End Month":9.0,"End Day":4.0,"Total Affected":null,"Total Deaths":null},{"Year":1960,"Type":"Storm","Subtype":"Tropical cyclone","Country":"Antigua and Barbuda","Location":null,"Latitude":null,"Longitude":null,"Country Latitude":17.2234721,"Country Longitude":-61.9554608,"Location Latitude":null,"Location Longitude":null,"Smart Coords":null,"Start Year":1960,"Start Month":9.0,"Start Day":4.0,"End Year":1960,"End Month":9.0,"End Day":4.0,"Total Affected":null,"Total Deaths":2.0},{"Year":1960,"Type":"Storm","Subtype":"Tropical cyclone","Country":"Bangladesh","Location":"Noakhali, Off-Shore Islands","Latitude":null,"Longitude":null,"Country Latitude":24.4769288,"Country Longitude":90.2934413,"Location Latitude":null,"Location Longitude":null,"Smart Coords":"[{\"Lat\": 22.2540799, \"Lng\": 91.17143993859978}, {\"Lat\": 22.0741519, \"Lng\": 90.1529369}]","Start Year":1960,"Start Month":10.0,"Start Day":9.0,"End Year":1960,"End Month":10.0,"End Day":9.0,"Total Affected":null,"Total Deaths":3000.0},{"Year":1960,"Type":"Storm","Subtype":"Tropical cyclone","Country":"Bangladesh","Location":"Chittagong area, Off-Shore Islands","Latitude":null,"Longitude":null,"Country Latitude":24.4769288,"Country Longitude":90.2934413,"Location Latitude":null,"Location Longitude":null,"Smart Coords":"[{\"Lat\": 22.3336887, \"Lng\": 91.8342162}, {\"Lat\": 22.0741519, \"Lng\": 90.1529369}]","Start Year":1960,"Start Month":10.0,"Start Day":30.0,"End Year":1960,"End Month":10.0,"End Day":30.0,"Total Affected":200000.0,"Total Deaths":5149.0},{"Year":1960,"Type":"Flood","Subtype":null,"Country":"Bangladesh","Location":null,"Latitude":null,"Longitude":null,"Country Latitude":24.4769288,"Country Longitude":90.2934413,"Location Latitude":null,"Location Longitude":null,"Smart Coords":null,"Start Year":1960,"Start Month":null,"Start Day":null,"End Year":1960,"End Month":null,"End Day":null,"Total Affected":null,"Total Deaths":10000.0},{"Year":1960,"Type":"Earthquake","Subtype":"Ground movement","Country":"Algeria","Location":"Melouza, Beni Illmane","Latitude":"36","Longitude":"4.1","Country Latitude":28.0000272,"Country Longitude":2.9999825,"Location Latitude":null,"Location Longitude":null,"Smart Coords":null,"Start Year":1960,"Start Month":2.0,"Start Day":21.0,"End Year":1960,"End Month":2.0,"End Day":21.0,"Total Affected":1250.0,"Total Deaths":57.0},{"Year":1960,"Type":"Storm","Subtype":"Tropical cyclone","Country":"Hong Kong","Location":"(Aberdeen, Stanley, Cheung Chau","Latitude":null,"Longitude":null,"Country Latitude":22.352957,"Country Longitude":113.962891,"Location Latitude":null,"Location Longitude":null,"Smart Coords":null,"Start Year":1960,"Start Month":6.0,"Start Day":4.0,"End Year":1960,"End Month":6.0,"End Day":4.0,"Total Affected":15127.0,"Total Deaths":45.0},{"Year":1960,"Type":"Drought","Subtype":"Drought","Country":"Hong Kong","Location":null,"Latitude":null,"Longitude":null,"Country Latitude":22.352957,"Country Longitude":113.962891,"Location Latitude":null,"Location Longitude":null,"Smart Coords":null,"Start Year":1960,"Start Month":1.0,"Start Day":null,"End Year":1960,"End Month":null,"End Day":null,"Total Affected":null,"Total Deaths":null},{"Year":1960,"Type":"Flood","Subtype":null,"Country":"Hong Kong","Location":"Yuen Long, Sheung Shui (New Territories)","Latitude":null,"Longitude":null,"Country Latitude":22.352957,"Country Longitude":113.962891,"Location Latitude":null,"Location Longitude":null,"Smart Coords":null,"Start Year":1960,"Start Month":5.0,"Start Day":6.0,"End Year":1960,"End Month":5.0,"End Day":6.0,"Total Affected":7000.0,"Total Deaths":15.0},{"Year":1960,"Type":"Earthquake","Subtype":"Tsunami","Country":"Japan","Location":"Onagawa, Honshu Island","Latitude":null,"Longitude":null,"Country Latitude":36.5748441,"Country Longitude":139.2394179,"Location Latitude":null,"Location Longitude":null,"Smart Coords":"[{\"Lat\": 38.4456238, \"Lng\": 141.4431399}, {\"Lat\": 37.490012, \"Lng\": 139.8356621412412}]","Start Year":1960,"Start Month":5.0,"Start Day":22.0,"End Year":1960,"End Month":5.0,"End Day":22.0,"Total Affected":null,"Total Deaths":138.0},{"Year":1960,"Type":"Earthquake","Subtype":"Ground movement","Country":"Morocco","Location":"Agadir","Latitude":"30.45","Longitude":"-9.62","Country Latitude":31.1728205,"Country Longitude":-7.3362482,"Location Latitude":30.4205162,"Location Longitude":-9.5838532,"Smart Coords":"[{\"Lat\": 30.4205162, \"Lng\": -9.5838532}]","Start Year":1960,"Start Month":2.0,"Start Day":29.0,"End Year":1960,"End Month":2.0,"End Day":29.0,"Total Affected":25000.0,"Total Deaths":12000.0},{"Year":1960,"Type":"Earthquake","Subtype":"Ground movement","Country":"Peru","Location":"Arequipa, Chuquibamban Caravelli, Cotahuasi","Latitude":"-15.75","Longitude":"-72.75","Country Latitude":-6.8699697,"Country Longitude":-75.0458515,"Location Latitude":null,"Location Longitude":null,"Smart Coords":"[{\"Lat\": -16.0, \"Lng\": -72.25}]","Start Year":1960,"Start Month":1.0,"Start Day":13.0,"End Year":1960,"End Month":1.0,"End Day":13.0,"Total Affected":200.0,"Total Deaths":63.0},{"Year":1960,"Type":"Earthquake","Subtype":"Tsunami","Country":"United States","Location":"Hawaii","Latitude":null,"Longitude":null,"Country Latitude":39.7837304,"Country Longitude":-100.445882,"Location Latitude":19.5938015,"Location Longitude":-155.4283700972,"Smart Coords":"[{\"Lat\": 19.5938015, \"Lng\": -155.42837009716908}]","Start Year":1960,"Start Month":5.0,"Start Day":23.0,"End Year":1960,"End Month":5.0,"End Day":23.0,"Total Affected":null,"Total Deaths":61.0},{"Year":1960,"Type":"Flood","Subtype":null,"Country":"India","Location":"Maduri, Madras City","Latitude":null,"Longitude":null,"Country Latitude":22.3511148,"Country Longitude":78.6677428,"Location Latitude":null,"Location Longitude":null,"Smart Coords":"[{\"Lat\": 13.0836939, \"Lng\": 80.270186}]","Start Year":1960,"Start Month":11.0,"Start Day":10.0,"End Year":1960,"End Month":11.0,"End Day":10.0,"Total Affected":160000.0,"Total Deaths":5.0},{"Year":1960,"Type":"Flood","Subtype":null,"Country":"India","Location":null,"Latitude":null,"Longitude":null,"Country Latitude":22.3511148,"Country Longitude":78.6677428,"Location Latitude":null,"Location Longitude":null,"Smart Coords":null,"Start Year":1960,"Start Month":7.0,"Start Day":null,"End Year":1960,"End Month":7.0,"End Day":null,"Total Affected":null,"Total Deaths":30.0},{"Year":1960,"Type":"Flood","Subtype":null,"Country":"India","Location":null,"Latitude":null,"Longitude":null,"Country Latitude":22.3511148,"Country Longitude":78.6677428,"Location Latitude":null,"Location Longitude":null,"Smart Coords":null,"Start Year":1960,"Start Month":8.0,"Start Day":null,"End Year":1960,"End Month":8.0,"End Day":null,"Total Affected":null,"Total Deaths":47.0},{"Year":1960,"Type":"Flood","Subtype":null,"Country":"India","Location":null,"Latitude":null,"Longitude":null,"Country Latitude":22.3511148,"Country Longitude":78.6677428,"Location Latitude":null,"Location Longitude":null,"Smart Coords":null,"Start Year":1960,"Start Month":9.0,"Start Day":null,"End Year":1960,"End Month":9.0,"End Day":null,"Total Affected":null,"Total Deaths":155.0},{"Year":1960,"Type":"Earthquake","Subtype":"Ground movement","Country":"Iran, Islamic Republic of","Location":"Lar, Gerash","Latitude":"28","Longitude":"54.5","Country Latitude":32.6475314,"Country Longitude":54.5643516,"Location Latitude":27.6545567,"Location Longitude":54.2168772,"Smart Coords":null,"Start Year":1960,"Start Month":4.0,"Start Day":24.0,"End Year":1960,"End Month":4.0,"End Day":24.0,"Total Affected":null,"Total Deaths":480.0},{"Year":1960,"Type":"Landslide","Subtype":null,"Country":"Italy","Location":"Loveno","Latitude":null,"Longitude":null,"Country Latitude":42.6384261,"Country Longitude":12.674297,"Location Latitude":46.0642413,"Location Longitude":10.2490432,"Smart Coords":null,"Start Year":1960,"Start Month":9.0,"Start Day":17.0,"End Year":1960,"End Month":9.0,"End Day":17.0,"Total Affected":null,"Total Deaths":12.0},{"Year":1960,"Type":"Storm","Subtype":"Tropical cyclone","Country":"Japan","Location":null,"Latitude":null,"Longitude":null,"Country Latitude":36.5748441,"Country Longitude":139.2394179,"Location Latitude":null,"Location Longitude":null,"Smart Coords":null,"Start Year":1960,"Start Month":8.0,"Start Day":null,"End Year":1960,"End Month":8.0,"End Day":null,"Total Affected":null,"Total Deaths":41.0},{"Year":1960,"Type":"Storm","Subtype":"Tropical cyclone","Country":"Saint Lucia","Location":null,"Latitude":null,"Longitude":null,"Country Latitude":13.8250489,"Country Longitude":-60.975036,"Location Latitude":null,"Location Longitude":null,"Smart Coords":null,"Start Year":1960,"Start Month":7.0,"Start Day":10.0,"End Year":1960,"End Month":7.0,"End Day":10.0,"Total Affected":null,"Total Deaths":null},{"Year":1960,"Type":"Storm","Subtype":"Tropical cyclone","Country":"Martinique","Location":null,"Latitude":null,"Longitude":null,"Country Latitude":14.6367927,"Country Longitude":-61.0158268506,"Location Latitude":null,"Location Longitude":null,"Smart Coords":null,"Start Year":1960,"Start Month":7.0,"Start Day":10.0,"End Year":1960,"End Month":7.0,"End Day":10.0,"Total Affected":null,"Total Deaths":null},{"Year":1960,"Type":"Storm","Subtype":null,"Country":"Mauritius","Location":null,"Latitude":null,"Longitude":null,"Country Latitude":-20.2759451,"Country Longitude":57.5703566,"Location Latitude":null,"Location Longitude":null,"Smart Coords":null,"Start Year":1960,"Start Month":2.0,"Start Day":null,"End Year":1960,"End Month":2.0,"End Day":null,"Total Affected":null,"Total Deaths":42.0},{"Year":1960,"Type":"Flood","Subtype":null,"Country":"Nicaragua","Location":null,"Latitude":null,"Longitude":null,"Country Latitude":12.6090157,"Country Longitude":-85.2936911,"Location Latitude":null,"Location Longitude":null,"Smart Coords":null,"Start Year":1960,"Start Month":10.0,"Start Day":null,"End Year":1960,"End Month":10.0,"End Day":null,"Total Affected":null,"Total Deaths":325.0},{"Year":1960,"Type":"Storm","Subtype":"Tropical cyclone","Country":"Niue","Location":null,"Latitude":null,"Longitude":null,"Country Latitude":-19.0536414,"Country Longitude":-169.861341,"Location Latitude":null,"Location Longitude":null,"Smart Coords":null,"Start Year":1960,"Start Month":1.0,"Start Day":18.0,"End Year":1960,"End Month":1.0,"End Day":18.0,"Total Affected":4000.0,"Total Deaths":null},{"Year":1960,"Type":"Earthquake","Subtype":"Tsunami","Country":"Philippines","Location":"Nationwide","Latitude":null,"Longitude":null,"Country Latitude":12.7503486,"Country Longitude":122.7312101,"Location Latitude":null,"Location Longitude":null,"Smart Coords":null,"Start Year":1960,"Start Month":5.0,"Start Day":22.0,"End Year":1960,"End Month":5.0,"End Day":22.0,"Total Affected":null,"Total Deaths":32.0},{"Year":1960,"Type":"Landslide","Subtype":"Landslide","Country":"Philippines","Location":null,"Latitude":null,"Longitude":null,"Country Latitude":12.7503486,"Country Longitude":122.7312101,"Location Latitude":null,"Location Longitude":null,"Smart Coords":null,"Start Year":1960,"Start Month":1.0,"Start Day":null,"End Year":1960,"End Month":1.0,"End Day":null,"Total Affected":null,"Total Deaths":40.0},{"Year":1960,"Type":"Storm","Subtype":"Tropical cyclone","Country":"Philippines","Location":"South Wet of Manilla","Latitude":null,"Longitude":null,"Country Latitude":12.7503486,"Country Longitude":122.7312101,"Location Latitude":null,"Location Longitude":null,"Smart Coords":null,"Start Year":1960,"Start Month":4.0,"Start Day":22.0,"End Year":1960,"End Month":4.0,"End Day":22.0,"Total Affected":null,"Total Deaths":56.0},{"Year":1960,"Type":"Storm","Subtype":"Tropical cyclone","Country":"Philippines","Location":"Luzon","Latitude":null,"Longitude":null,"Country Latitude":12.7503486,"Country Longitude":122.7312101,"Location Latitude":15.5627393,"Location Longitude":120.7465440793,"Smart Coords":"[{\"Lat\": 15.5627393, \"Lng\": 120.7465440792776}]","Start Year":1960,"Start Month":5.0,"Start Day":24.0,"End Year":1960,"End Month":5.0,"End Day":24.0,"Total Affected":null,"Total Deaths":234.0},{"Year":1960,"Type":"Storm","Subtype":"Tropical cyclone","Country":"Philippines","Location":"South Luzon","Latitude":null,"Longitude":null,"Country Latitude":12.7503486,"Country Longitude":122.7312101,"Location Latitude":14.5101233,"Location Longitude":121.0529078,"Smart Coords":"[{\"Lat\": 14.5101233, \"Lng\": 121.0529078}]","Start Year":1960,"Start Month":6.0,"Start Day":23.0,"End Year":1960,"End Month":6.0,"End Day":23.0,"Total Affected":50000.0,"Total Deaths":100.0},{"Year":1960,"Type":"Storm","Subtype":"Tropical cyclone","Country":"Philippines","Location":"Central, South Luzon","Latitude":null,"Longitude":null,"Country Latitude":12.7503486,"Country Longitude":122.7312101,"Location Latitude":14.5101233,"Location Longitude":121.0529078,"Smart Coords":"[{\"Lat\": 14.5101233, \"Lng\": 121.0529078}]","Start Year":1960,"Start Month":10.0,"Start Day":3.0,"End Year":1960,"End Month":10.0,"End Day":3.0,"Total Affected":375000.0,"Total Deaths":150.0},{"Year":1960,"Type":"Storm","Subtype":"Tropical cyclone","Country":"Philippines","Location":"Luzon","Latitude":null,"Longitude":null,"Country Latitude":12.7503486,"Country Longitude":122.7312101,"Location Latitude":15.5627393,"Location Longitude":120.7465440793,"Smart Coords":"[{\"Lat\": 15.5627393, \"Lng\": 120.7465440792776}]","Start Year":1960,"Start Month":10.0,"Start Day":8.0,"End Year":1960,"End Month":10.0,"End Day":8.0,"Total Affected":null,"Total Deaths":58.0},{"Year":1960,"Type":"Storm","Subtype":null,"Country":"Philippines","Location":null,"Latitude":null,"Longitude":null,"Country Latitude":12.7503486,"Country Longitude":122.7312101,"Location Latitude":null,"Location Longitude":null,"Smart Coords":null,"Start Year":1960,"Start Month":8.0,"Start Day":null,"End Year":1960,"End Month":8.0,"End Day":null,"Total Affected":null,"Total Deaths":33.0},{"Year":1960,"Type":"Volcanic activity","Subtype":"Ash fall","Country":"Papua New Guinea","Location":"Manam","Latitude":"-4.08","Longitude":"145.037","Country Latitude":-5.6816069,"Country Longitude":144.2489081,"Location Latitude":-4.077508,"Location Longitude":145.0359556327,"Smart Coords":null,"Start Year":1960,"Start Month":3.0,"Start Day":17.0,"End Year":1960,"End Month":3.0,"End Day":17.0,"Total Affected":2000.0,"Total Deaths":null},{"Year":1960,"Type":"Storm","Subtype":"Tropical cyclone","Country":"Puerto Rico","Location":null,"Latitude":null,"Longitude":null,"Country Latitude":18.2247706,"Country Longitude":-66.4858295,"Location Latitude":null,"Location Longitude":null,"Smart Coords":null,"Start Year":1960,"Start Month":9.0,"Start Day":null,"End Year":1960,"End Month":9.0,"End Day":null,"Total Affected":null,"Total Deaths":null},{"Year":1960,"Type":"Storm","Subtype":"Tropical cyclone","Country":"Taiwan","Location":null,"Latitude":null,"Longitude":null,"Country Latitude":23.9739374,"Country Longitude":120.9820179,"Location Latitude":null,"Location Longitude":null,"Smart Coords":null,"Start Year":1960,"Start Month":8.0,"Start Day":null,"End Year":1960,"End Month":8.0,"End Day":null,"Total Affected":null,"Total Deaths":199.0},{"Year":1960,"Type":"Storm","Subtype":"Tropical cyclone","Country":"United States","Location":"East Coast","Latitude":null,"Longitude":null,"Country Latitude":39.7837304,"Country Longitude":-100.445882,"Location Latitude":39.94236755,"Location Longitude":-75.08758735,"Smart Coords":"[{\"Lat\": 39.94236755, \"Lng\": -75.08758735}]","Start Year":1960,"Start Month":9.0,"Start Day":9.0,"End Year":1960,"End Month":9.0,"End Day":9.0,"Total Affected":null,"Total Deaths":50.0}]