[{"Year":1948,"Type":"Storm","Subtype":"Tropical cyclone","Country":"Bermuda","Location":null,"Latitude":null,"Longitude":null,"Country Latitude":32.30382,"Country Longitude":-64.7561647,"Location Latitude":null,"Location Longitude":null,"Smart Coords":null,"Start Year":1948,"Start Month":10.0,"Start Day":12.0,"End Year":1948,"End Month":10.0,"End Day":12.0,"Total Affected":null,"Total Deaths":null},{"Year":1948,"Type":"Flood","Subtype":null,"Country":"Brazil","Location":null,"Latitude":null,"Longitude":null,"Country Latitude":-10.3333333,"Country Longitude":-53.2,"Location Latitude":null,"Location Longitude":null,"Smart Coords":null,"Start Year":1948,"Start Month":12.0,"Start Day":null,"End Year":1948,"End Month":12.0,"End Day":null,"Total Affected":null,"Total Deaths":200.0},{"Year":1948,"Type":"Volcanic activity","Subtype":"Ash fall","Country":"Chile","Location":null,"Latitude":null,"Longitude":null,"Country Latitude":-31.7613365,"Country Longitude":-71.3187697,"Location Latitude":null,"Location Longitude":null,"Smart Coords":null,"Start Year":1948,"Start Month":10.0,"Start Day":null,"End Year":1948,"End Month":10.0,"End Day":null,"Total Affected":null,"Total Deaths":100.0},{"Year":1948,"Type":"Storm","Subtype":"Tropical cyclone","Country":"China","Location":"Foochow coast","Latitude":null,"Longitude":null,"Country Latitude":35.000074,"Country Longitude":104.999927,"Location Latitude":null,"Location Longitude":null,"Smart Coords":null,"Start Year":1948,"Start Month":6.0,"Start Day":null,"End Year":1948,"End Month":6.0,"End Day":null,"Total Affected":null,"Total Deaths":1000.0},{"Year":1948,"Type":"Storm","Subtype":"Tropical cyclone","Country":"China","Location":null,"Latitude":null,"Longitude":null,"Country Latitude":35.000074,"Country Longitude":104.999927,"Location Latitude":null,"Location Longitude":null,"Smart Coords":null,"Start Year":1948,"Start Month":9.0,"Start Day":null,"End Year":1948,"End Month":9.0,"End Day":null,"Total Affected":null,"Total Deaths":800.0},{"Year":1948,"Type":"Flood","Subtype":null,"Country":"China","Location":null,"Latitude":null,"Longitude":null,"Country Latitude":35.000074,"Country Longitude":104.999927,"Location Latitude":null,"Location Longitude":null,"Smart Coords":null,"Start Year":1948,"Start Month":5.0,"Start Day":null,"End Year":1948,"End Month":5.0,"End Day":null,"Total Affected":null,"Total Deaths":330.0},{"Year":1948,"Type":"Storm","Subtype":"Tropical cyclone","Country":"Cuba","Location":null,"Latitude":null,"Longitude":null,"Country Latitude":23.0131338,"Country Longitude":-80.8328748,"Location Latitude":null,"Location Longitude":null,"Smart Coords":null,"Start Year":1948,"Start Month":9.0,"Start Day":21.0,"End Year":1948,"End Month":9.0,"End Day":21.0,"Total Affected":null,"Total Deaths":3.0},{"Year":1948,"Type":"Storm","Subtype":"Tropical cyclone","Country":"Cuba","Location":null,"Latitude":null,"Longitude":null,"Country Latitude":23.0131338,"Country Longitude":-80.8328748,"Location Latitude":null,"Location Longitude":null,"Smart Coords":null,"Start Year":1948,"Start Month":10.0,"Start Day":5.0,"End Year":1948,"End Month":10.0,"End Day":5.0,"Total Affected":300.0,"Total Deaths":11.0},{"Year":1948,"Type":"Landslide","Subtype":"Landslide","Country":"India","Location":"Assam","Latitude":null,"Longitude":null,"Country Latitude":22.3511148,"Country Longitude":78.6677428,"Location Latitude":26.4073841,"Location Longitude":93.2551303,"Smart Coords":"[{\"Lat\": 26.4073841, \"Lng\": 93.2551303}]","Start Year":1948,"Start Month":9.0,"Start Day":18.0,"End Year":1948,"End Month":9.0,"End Day":18.0,"Total Affected":null,"Total Deaths":500.0},{"Year":1948,"Type":"Earthquake","Subtype":"Ground movement","Country":"Iran, Islamic Republic of","Location":null,"Latitude":null,"Longitude":null,"Country Latitude":32.6475314,"Country Longitude":54.5643516,"Location Latitude":null,"Location Longitude":null,"Smart Coords":null,"Start Year":1948,"Start Month":10.0,"Start Day":5.0,"End Year":1948,"End Month":10.0,"End Day":5.0,"Total Affected":6000.0,"Total Deaths":200.0},{"Year":1948,"Type":"Storm","Subtype":null,"Country":"Italy","Location":null,"Latitude":null,"Longitude":null,"Country Latitude":42.6384261,"Country Longitude":12.674297,"Location Latitude":null,"Location Longitude":null,"Smart Coords":null,"Start Year":1948,"Start Month":9.0,"Start Day":null,"End Year":1948,"End Month":9.0,"End Day":null,"Total Affected":null,"Total Deaths":80.0},{"Year":1948,"Type":"Landslide","Subtype":null,"Country":"Italy","Location":null,"Latitude":null,"Longitude":null,"Country Latitude":42.6384261,"Country Longitude":12.674297,"Location Latitude":null,"Location Longitude":null,"Smart Coords":null,"Start Year":1948,"Start Month":11.0,"Start Day":null,"End Year":1948,"End Month":11.0,"End Day":null,"Total Affected":null,"Total Deaths":25.0},{"Year":1948,"Type":"Earthquake","Subtype":"Ground movement","Country":"Japan","Location":"Fukui","Latitude":"36.5","Longitude":"136","Country Latitude":36.5748441,"Country Longitude":139.2394179,"Location Latitude":35.9263502,"Location Longitude":136.6068127,"Smart Coords":null,"Start Year":1948,"Start Month":6.0,"Start Day":28.0,"End Year":1948,"End Month":6.0,"End Day":28.0,"Total Affected":326000.0,"Total Deaths":5131.0},{"Year":1948,"Type":"Storm","Subtype":"Tropical cyclone","Country":"Japan","Location":"Kinki, Tohoku","Latitude":null,"Longitude":null,"Country Latitude":36.5748441,"Country Longitude":139.2394179,"Location Latitude":null,"Location Longitude":null,"Smart Coords":"[{\"Lat\": 34.7733233, \"Lng\": 135.4933213}, {\"Lat\": 40.7279915, \"Lng\": 141.2579371}]","Start Year":1948,"Start Month":9.0,"Start Day":null,"End Year":1948,"End Month":9.0,"End Day":null,"Total Affected":414153.0,"Total Deaths":868.0},{"Year":1948,"Type":"Storm","Subtype":"Tropical cyclone","Country":"New Caledonia","Location":"Southern New Caledonia","Latitude":null,"Longitude":null,"Country Latitude":-21.3019905,"Country Longitude":165.4880773,"Location Latitude":null,"Location Longitude":null,"Smart Coords":null,"Start Year":1948,"Start Month":3.0,"Start Day":13.0,"End Year":1948,"End Month":3.0,"End Day":13.0,"Total Affected":null,"Total Deaths":2.0},{"Year":1948,"Type":"Earthquake","Subtype":"Ground movement","Country":"Philippines","Location":"Panay, Iloilo city, Antique","Latitude":"10.5","Longitude":"122","Country Latitude":12.7503486,"Country Longitude":122.7312101,"Location Latitude":null,"Location Longitude":null,"Smart Coords":"[{\"Lat\": 11.1728123, \"Lng\": 122.55576877103717}, {\"Lat\": 10.9522168, \"Lng\": 122.5799456}, {\"Lat\": 11.1705066, \"Lng\": 122.083333}]","Start Year":1948,"Start Month":1.0,"Start Day":25.0,"End Year":1948,"End Month":1.0,"End Day":25.0,"Total Affected":null,"Total Deaths":72.0},{"Year":1948,"Type":"Storm","Subtype":"Tropical cyclone","Country":"R\u00e9union","Location":null,"Latitude":null,"Longitude":null,"Country Latitude":-21.13073795,"Country Longitude":55.536480113,"Location Latitude":null,"Location Longitude":null,"Smart Coords":null,"Start Year":1948,"Start Month":1.0,"Start Day":26.0,"End Year":1948,"End Month":1.0,"End Day":27.0,"Total Affected":null,"Total Deaths":165.0},{"Year":1948,"Type":"Earthquake","Subtype":"Ground movement","Country":"Soviet Union","Location":"Ashkabat (Turkmenistan)","Latitude":"37.95","Longitude":"58.32","Country Latitude":52.872309,"Country Longitude":78.615662,"Location Latitude":null,"Location Longitude":null,"Smart Coords":null,"Start Year":1948,"Start Month":10.0,"Start Day":5.0,"End Year":1948,"End Month":10.0,"End Day":5.0,"Total Affected":null,"Total Deaths":110000.0},{"Year":1948,"Type":"Flood","Subtype":null,"Country":"Turkey","Location":null,"Latitude":null,"Longitude":null,"Country Latitude":38.9597594,"Country Longitude":34.9249653,"Location Latitude":null,"Location Longitude":null,"Smart Coords":null,"Start Year":1948,"Start Month":2.0,"Start Day":null,"End Year":1948,"End Month":2.0,"End Day":null,"Total Affected":null,"Total Deaths":200.0},{"Year":1948,"Type":"Flood","Subtype":null,"Country":"Turkey","Location":null,"Latitude":null,"Longitude":null,"Country Latitude":38.9597594,"Country Longitude":34.9249653,"Location Latitude":null,"Location Longitude":null,"Smart Coords":null,"Start Year":1948,"Start Month":6.0,"Start Day":null,"End Year":1948,"End Month":6.0,"End Day":null,"Total Affected":null,"Total Deaths":132.0},{"Year":1948,"Type":"Storm","Subtype":null,"Country":"United States","Location":null,"Latitude":null,"Longitude":null,"Country Latitude":39.7837304,"Country Longitude":-100.445882,"Location Latitude":null,"Location Longitude":null,"Smart Coords":null,"Start Year":1948,"Start Month":3.0,"Start Day":null,"End Year":1948,"End Month":3.0,"End Day":null,"Total Affected":null,"Total Deaths":42.0},{"Year":1948,"Type":"Flood","Subtype":null,"Country":"United States","Location":null,"Latitude":null,"Longitude":null,"Country Latitude":39.7837304,"Country Longitude":-100.445882,"Location Latitude":null,"Location Longitude":null,"Smart Coords":null,"Start Year":1948,"Start Month":5.0,"Start Day":null,"End Year":1948,"End Month":5.0,"End Day":null,"Total Affected":null,"Total Deaths":55.0},{"Year":1948,"Type":"Earthquake","Subtype":"Ground movement","Country":"China","Location":"Sichuan province","Latitude":"29.5","Longitude":"100.5","Country Latitude":35.000074,"Country Longitude":104.999927,"Location Latitude":30.5000001,"Location Longitude":102.4999999,"Smart Coords":"[{\"Lat\": 30.5000001, \"Lng\": 102.4999999}]","Start Year":1948,"Start Month":5.0,"Start Day":25.0,"End Year":1948,"End Month":5.0,"End Day":25.0,"Total Affected":3200.0,"Total Deaths":800.0},{"Year":1948,"Type":"Earthquake","Subtype":"Ground movement","Country":"China","Location":"Yunnan province","Latitude":"26.4","Longitude":"99.7","Country Latitude":35.000074,"Country Longitude":104.999927,"Location Latitude":25.0,"Location Longitude":102.0,"Smart Coords":"[{\"Lat\": 25.0, \"Lng\": 102.0}]","Start Year":1948,"Start Month":6.0,"Start Day":27.0,"End Year":1948,"End Month":6.0,"End Day":27.0,"Total Affected":4000.0,"Total Deaths":110.0},{"Year":1948,"Type":"Earthquake","Subtype":"Ground movement","Country":"Greece","Location":"Vasiliki (Leukas)","Latitude":"38.532","Longitude":"20.425","Country Latitude":38.9953683,"Country Longitude":21.9877132,"Location Latitude":null,"Location Longitude":null,"Smart Coords":null,"Start Year":1948,"Start Month":4.0,"Start Day":22.0,"End Year":1948,"End Month":4.0,"End Day":22.0,"Total Affected":11375.0,"Total Deaths":2.0}]