[{"Year":1933,"Type":"Earthquake","Subtype":"Ground movement","Country":"China","Location":"Sichuan prpvince","Latitude":"31.9","Longitude":"103.4","Country Latitude":35.000074,"Country Longitude":104.999927,"Location Latitude":null,"Location Longitude":null,"Smart Coords":null,"Start Year":1933,"Start Month":8.0,"Start Day":25.0,"End Year":1933,"End Month":8.0,"End Day":25.0,"Total Affected":null,"Total Deaths":10000.0},{"Year":1933,"Type":"Flood","Subtype":"Riverine flood","Country":"China","Location":"Henan, Hebei, Shandong, Jiangsy","Latitude":null,"Longitude":null,"Country Latitude":35.000074,"Country Longitude":104.999927,"Location Latitude":null,"Location Longitude":null,"Smart Coords":"[{\"Lat\": 34.0000001, \"Lng\": 113.9999999}, {\"Lat\": 39.0000001, \"Lng\": 116.0}, {\"Lat\": 32.4650916, \"Lng\": 105.8723688}]","Start Year":1933,"Start Month":null,"Start Day":null,"End Year":1933,"End Month":null,"End Day":null,"Total Affected":3600000.0,"Total Deaths":18000.0},{"Year":1933,"Type":"Earthquake","Subtype":"Ground movement","Country":"United States","Location":"Long Beach (California)","Latitude":"33.62","Longitude":"117.97","Country Latitude":39.7837304,"Country Longitude":-100.445882,"Location Latitude":33.7690164,"Location Longitude":-118.191604,"Smart Coords":null,"Start Year":1933,"Start Month":3.0,"Start Day":10.0,"End Year":1933,"End Month":3.0,"End Day":10.0,"Total Affected":null,"Total Deaths":116.0},{"Year":1933,"Type":"Flood","Subtype":"Riverine flood","Country":"Jamaica","Location":"kingston, St Andrew","Latitude":null,"Longitude":null,"Country Latitude":18.1850507,"Country Longitude":-77.3947693,"Location Latitude":17.9712148,"Location Longitude":-76.7928128,"Smart Coords":"[{\"Lat\": 18.0539564, \"Lng\": -76.76197426035179}]","Start Year":1933,"Start Month":null,"Start Day":null,"End Year":1933,"End Month":null,"End Day":null,"Total Affected":null,"Total Deaths":53.0},{"Year":1933,"Type":"Storm","Subtype":"Tropical cyclone","Country":"Jamaica","Location":"Western Parishes","Latitude":null,"Longitude":null,"Country Latitude":18.1850507,"Country Longitude":-77.3947693,"Location Latitude":null,"Location Longitude":null,"Smart Coords":null,"Start Year":1933,"Start Month":10.0,"Start Day":29.0,"End Year":1933,"End Month":10.0,"End Day":29.0,"Total Affected":null,"Total Deaths":10.0},{"Year":1933,"Type":"Earthquake","Subtype":"Tsunami","Country":"Japan","Location":"Sanriku","Latitude":"39.224","Longitude":"144.622","Country Latitude":36.5748441,"Country Longitude":139.2394179,"Location Latitude":39.1174499,"Location Longitude":141.8099561,"Smart Coords":null,"Start Year":1933,"Start Month":3.0,"Start Day":3.0,"End Year":1933,"End Month":3.0,"End Day":3.0,"Total Affected":null,"Total Deaths":3000.0},{"Year":1933,"Type":"Storm","Subtype":"Tropical cyclone","Country":"Trinidad and Tobago","Location":null,"Latitude":null,"Longitude":null,"Country Latitude":10.7466905,"Country Longitude":-61.0840075,"Location Latitude":null,"Location Longitude":null,"Smart Coords":null,"Start Year":1933,"Start Month":6.0,"Start Day":27.0,"End Year":1933,"End Month":6.0,"End Day":27.0,"Total Affected":null,"Total Deaths":13.0},{"Year":1933,"Type":"Storm","Subtype":"Tropical cyclone","Country":"United States","Location":"South Texas","Latitude":null,"Longitude":null,"Country Latitude":39.7837304,"Country Longitude":-100.445882,"Location Latitude":28.7039113,"Location Longitude":-100.4814774,"Smart Coords":"[{\"Lat\": 28.7039113, \"Lng\": -100.4814774}]","Start Year":1933,"Start Month":null,"Start Day":null,"End Year":1933,"End Month":null,"End Day":null,"Total Affected":null,"Total Deaths":40.0},{"Year":1933,"Type":"Drought","Subtype":"Drought","Country":"United States","Location":"Great Plains","Latitude":null,"Longitude":null,"Country Latitude":39.7837304,"Country Longitude":-100.445882,"Location Latitude":39.4168652,"Location Longitude":-101.2920972,"Smart Coords":null,"Start Year":1933,"Start Month":null,"Start Day":null,"End Year":1937,"End Month":null,"End Day":null,"Total Affected":null,"Total Deaths":null},{"Year":1933,"Type":"Earthquake","Subtype":null,"Country":"China","Location":"Sichuan province","Latitude":"29.5","Longitude":"102.5","Country Latitude":35.000074,"Country Longitude":104.999927,"Location Latitude":30.5000001,"Location Longitude":102.4999999,"Smart Coords":"[{\"Lat\": 30.5000001, \"Lng\": 102.4999999}]","Start Year":1933,"Start Month":9.0,"Start Day":20.0,"End Year":1933,"End Month":9.0,"End Day":20.0,"Total Affected":150.0,"Total Deaths":200.0},{"Year":1933,"Type":"Earthquake","Subtype":"Ground movement","Country":"Italy","Location":"Central","Latitude":"42","Longitude":"14.2","Country Latitude":42.6384261,"Country Longitude":12.674297,"Location Latitude":46.0097187,"Location Longitude":9.2820212,"Smart Coords":null,"Start Year":1933,"Start Month":9.0,"Start Day":26.0,"End Year":1933,"End Month":9.0,"End Day":26.0,"Total Affected":null,"Total Deaths":10.0}]