[{"Year":1953,"Type":"Earthquake","Subtype":"Ground movement","Country":"Chile","Location":"Chillan, Concepcion","Latitude":"-37.093","Longitude":"-72.866","Country Latitude":-31.7613365,"Country Longitude":-71.3187697,"Location Latitude":-37.0757108,"Location Longitude":-73.1464738,"Smart Coords":null,"Start Year":1953,"Start Month":5.0,"Start Day":6.0,"End Year":1953,"End Month":5.0,"End Day":6.0,"Total Affected":40.0,"Total Deaths":12.0},{"Year":1953,"Type":"Earthquake","Subtype":"Ground movement","Country":"Cyprus","Location":"Paphos","Latitude":"34.741","Longitude":"32.335","Country Latitude":34.9823018,"Country Longitude":33.1451285,"Location Latitude":34.7743988,"Location Longitude":32.4231586,"Smart Coords":"[{\"Lat\": 34.7743988, \"Lng\": 32.4231586}]","Start Year":1953,"Start Month":9.0,"Start Day":10.0,"End Year":1953,"End Month":9.0,"End Day":10.0,"Total Affected":2600.0,"Total Deaths":40.0},{"Year":1953,"Type":"Earthquake","Subtype":"Ground movement","Country":"Greece","Location":"Zakinthos (Zante), C\u00e9phalonie (Ionian Islands)","Latitude":"38.182","Longitude":"20.942","Country Latitude":38.9953683,"Country Longitude":21.9877132,"Location Latitude":null,"Location Longitude":null,"Smart Coords":null,"Start Year":1953,"Start Month":8.0,"Start Day":12.0,"End Year":1953,"End Month":8.0,"End Day":12.0,"Total Affected":141277.0,"Total Deaths":476.0},{"Year":1953,"Type":"Flood","Subtype":"Coastal flood","Country":"Belgium","Location":"Ostende","Latitude":null,"Longitude":null,"Country Latitude":50.6402809,"Country Longitude":4.6667145,"Location Latitude":51.2258565,"Location Longitude":2.919496,"Smart Coords":null,"Start Year":1953,"Start Month":1.0,"Start Day":31.0,"End Year":1953,"End Month":1.0,"End Day":31.0,"Total Affected":350.0,"Total Deaths":11.0},{"Year":1953,"Type":"Epidemic","Subtype":"Viral disease","Country":"Canada","Location":"Nationwide","Latitude":null,"Longitude":null,"Country Latitude":61.0666922,"Country Longitude":-107.991707,"Location Latitude":null,"Location Longitude":null,"Smart Coords":null,"Start Year":1953,"Start Month":1.0,"Start Day":null,"End Year":1953,"End Month":1.0,"End Day":null,"Total Affected":8000.0,"Total Deaths":481.0},{"Year":1953,"Type":"Earthquake","Subtype":"Ground movement","Country":"Chile","Location":null,"Latitude":"-22.1","Longitude":"-68.7","Country Latitude":-31.7613365,"Country Longitude":-71.3187697,"Location Latitude":null,"Location Longitude":null,"Smart Coords":null,"Start Year":1953,"Start Month":12.0,"Start Day":6.0,"End Year":1953,"End Month":12.0,"End Day":6.0,"Total Affected":15.0,"Total Deaths":3.0},{"Year":1953,"Type":"Storm","Subtype":"Convective storm","Country":"Germany Fed Rep","Location":"Bavaria","Latitude":null,"Longitude":null,"Country Latitude":50.626761,"Country Longitude":9.037884,"Location Latitude":null,"Location Longitude":null,"Smart Coords":"[{\"Lat\": 48.9467562, \"Lng\": 11.4038717}]","Start Year":1953,"Start Month":7.0,"Start Day":null,"End Year":1953,"End Month":7.0,"End Day":null,"Total Affected":null,"Total Deaths":null},{"Year":1953,"Type":"Flood","Subtype":null,"Country":"Ecuador","Location":null,"Latitude":null,"Longitude":null,"Country Latitude":-1.3397668,"Country Longitude":-79.3666965,"Location Latitude":null,"Location Longitude":null,"Smart Coords":null,"Start Year":1953,"Start Month":3.0,"Start Day":null,"End Year":1953,"End Month":3.0,"End Day":null,"Total Affected":null,"Total Deaths":71.0},{"Year":1953,"Type":"Flood","Subtype":null,"Country":"Spain","Location":null,"Latitude":null,"Longitude":null,"Country Latitude":39.3260685,"Country Longitude":-4.8379791,"Location Latitude":null,"Location Longitude":null,"Smart Coords":null,"Start Year":1953,"Start Month":10.0,"Start Day":null,"End Year":1953,"End Month":10.0,"End Day":null,"Total Affected":null,"Total Deaths":50.0},{"Year":1953,"Type":"Flood","Subtype":null,"Country":"Indonesia","Location":null,"Latitude":null,"Longitude":null,"Country Latitude":-2.4833826,"Country Longitude":117.8902853,"Location Latitude":null,"Location Longitude":null,"Smart Coords":null,"Start Year":1953,"Start Month":2.0,"Start Day":null,"End Year":1953,"End Month":2.0,"End Day":null,"Total Affected":null,"Total Deaths":114.0},{"Year":1953,"Type":"Extreme temperature","Subtype":"Heat wave","Country":"India","Location":null,"Latitude":null,"Longitude":null,"Country Latitude":22.3511148,"Country Longitude":78.6677428,"Location Latitude":null,"Location Longitude":null,"Smart Coords":null,"Start Year":1953,"Start Month":6.0,"Start Day":null,"End Year":1953,"End Month":6.0,"End Day":null,"Total Affected":null,"Total Deaths":400.0},{"Year":1953,"Type":"Flood","Subtype":null,"Country":"India","Location":null,"Latitude":null,"Longitude":null,"Country Latitude":22.3511148,"Country Longitude":78.6677428,"Location Latitude":null,"Location Longitude":null,"Smart Coords":null,"Start Year":1953,"Start Month":6.0,"Start Day":null,"End Year":1953,"End Month":6.0,"End Day":null,"Total Affected":null,"Total Deaths":80.0},{"Year":1953,"Type":"Flood","Subtype":"Coastal flood","Country":"Netherlands","Location":"Zeeland, South Holland and North Brabant .largest floodings on Schouwen-Duiveland, Tholen, Sint Philipsland, Goeree-Overflakkee, the Hoeksche Waard, Voorne-Putten and Alblasserwaard. Parts of Zuid-Beveland, Noord-Beveland, IJselmonde, Pernis, Rozenburg, Walcheren and Land van Altena, Willemstad, Nieuw-Vossemeer, Zeeuws-Vlaanderenwere flooded.","Latitude":null,"Longitude":null,"Country Latitude":52.2434979,"Country Longitude":5.6343227,"Location Latitude":null,"Location Longitude":null,"Smart Coords":"[{\"Lat\": 53.3259131, \"Lng\": 6.8888184}, {\"Lat\": 51.57085015, \"Lng\": 4.076142821673509}, {\"Lat\": 51.75128625, \"Lng\": 4.13576992064659}, {\"Lat\": 51.8249879, \"Lng\": 4.411662}, {\"Lat\": 51.85750095, \"Lng\": 4.199478369056619}, {\"Lat\": 52.3922817, \"Lng\": 4.9285137}, {\"Lat\": 51.8890881, \"Lng\": 4.3877215}, {\"Lat\": 51.9056445, \"Lng\": 4.2415465}, {\"Lat\": 51.51662375, \"Lng\": 3.572589212993242}, {\"Lat\": 52.6188136, \"Lng\": 6.571287}, {\"Lat\": 51.76925385, \"Lng\": 5.000181190440207}, {\"Lat\": 12.11000695, \"Lng\": -68.9370850600204}, {\"Lat\": 51.5863367, \"Lng\": 4.2178348}]","Start Year":1953,"Start Month":1.0,"Start Day":31.0,"End Year":1953,"End Month":1.0,"End Day":31.0,"Total Affected":300000.0,"Total Deaths":2000.0},{"Year":1953,"Type":"Earthquake","Subtype":"Ground movement","Country":"Iran, Islamic Republic of","Location":"Torud","Latitude":"35.385","Longitude":"54.979","Country Latitude":32.6475314,"Country Longitude":54.5643516,"Location Latitude":35.7840212,"Location Longitude":52.9392287,"Smart Coords":null,"Start Year":1953,"Start Month":2.0,"Start Day":12.0,"End Year":1953,"End Month":2.0,"End Day":12.0,"Total Affected":null,"Total Deaths":970.0},{"Year":1953,"Type":"Extreme temperature","Subtype":"Heat wave","Country":"Iran, Islamic Republic of","Location":null,"Latitude":null,"Longitude":null,"Country Latitude":32.6475314,"Country Longitude":54.5643516,"Location Latitude":null,"Location Longitude":null,"Smart Coords":null,"Start Year":1953,"Start Month":7.0,"Start Day":null,"End Year":1953,"End Month":7.0,"End Day":null,"Total Affected":null,"Total Deaths":158.0},{"Year":1953,"Type":"Flood","Subtype":null,"Country":"Iran, Islamic Republic of","Location":null,"Latitude":null,"Longitude":null,"Country Latitude":32.6475314,"Country Longitude":54.5643516,"Location Latitude":null,"Location Longitude":null,"Smart Coords":null,"Start Year":1953,"Start Month":8.0,"Start Day":null,"End Year":1953,"End Month":8.0,"End Day":null,"Total Affected":null,"Total Deaths":467.0},{"Year":1953,"Type":"Flood","Subtype":null,"Country":"Iran, Islamic Republic of","Location":null,"Latitude":null,"Longitude":null,"Country Latitude":32.6475314,"Country Longitude":54.5643516,"Location Latitude":null,"Location Longitude":null,"Smart Coords":null,"Start Year":1953,"Start Month":8.0,"Start Day":null,"End Year":1953,"End Month":8.0,"End Day":null,"Total Affected":null,"Total Deaths":265.0},{"Year":1953,"Type":"Flood","Subtype":null,"Country":"Italy","Location":"Catanzaro (Reggio Calabria)","Latitude":null,"Longitude":null,"Country Latitude":42.6384261,"Country Longitude":12.674297,"Location Latitude":38.8196476,"Location Longitude":16.6132476,"Smart Coords":"[{\"Lat\": 38.82996034999999, \"Lng\": 16.43155687627833}]","Start Year":1953,"Start Month":10.0,"Start Day":21.0,"End Year":1953,"End Month":10.0,"End Day":21.0,"Total Affected":4000.0,"Total Deaths":100.0},{"Year":1953,"Type":"Storm","Subtype":"Tropical cyclone","Country":"Japan","Location":"Nagoya","Latitude":null,"Longitude":null,"Country Latitude":36.5748441,"Country Longitude":139.2394179,"Location Latitude":35.1851045,"Location Longitude":136.8998438,"Smart Coords":"[{\"Lat\": 35.1851045, \"Lng\": 136.8998438}]","Start Year":1953,"Start Month":9.0,"Start Day":25.0,"End Year":1953,"End Month":9.0,"End Day":25.0,"Total Affected":1000000.0,"Total Deaths":250.0},{"Year":1953,"Type":"Storm","Subtype":"Tropical cyclone","Country":"Japan","Location":null,"Latitude":null,"Longitude":null,"Country Latitude":36.5748441,"Country Longitude":139.2394179,"Location Latitude":null,"Location Longitude":null,"Smart Coords":null,"Start Year":1953,"Start Month":6.0,"Start Day":null,"End Year":1953,"End Month":6.0,"End Day":null,"Total Affected":null,"Total Deaths":29.0},{"Year":1953,"Type":"Flood","Subtype":null,"Country":"Japan","Location":"Most of the nation","Latitude":null,"Longitude":null,"Country Latitude":36.5748441,"Country Longitude":139.2394179,"Location Latitude":null,"Location Longitude":null,"Smart Coords":null,"Start Year":1953,"Start Month":6.0,"Start Day":23.0,"End Year":1953,"End Month":6.0,"End Day":23.0,"Total Affected":1886760.0,"Total Deaths":2566.0},{"Year":1953,"Type":"Flood","Subtype":null,"Country":"Japan","Location":null,"Latitude":null,"Longitude":null,"Country Latitude":36.5748441,"Country Longitude":139.2394179,"Location Latitude":null,"Location Longitude":null,"Smart Coords":null,"Start Year":1953,"Start Month":7.0,"Start Day":null,"End Year":1953,"End Month":7.0,"End Day":null,"Total Affected":null,"Total Deaths":1024.0},{"Year":1953,"Type":"Flood","Subtype":null,"Country":"Japan","Location":null,"Latitude":null,"Longitude":null,"Country Latitude":36.5748441,"Country Longitude":139.2394179,"Location Latitude":null,"Location Longitude":null,"Smart Coords":null,"Start Year":1953,"Start Month":8.0,"Start Day":null,"End Year":1953,"End Month":8.0,"End Day":null,"Total Affected":null,"Total Deaths":377.0},{"Year":1953,"Type":"Volcanic activity","Subtype":"Ash fall","Country":"New Zealand","Location":"Ruapehu","Latitude":null,"Longitude":null,"Country Latitude":-41.5000831,"Country Longitude":172.8344077,"Location Latitude":-39.2812032,"Location Longitude":175.5642887,"Smart Coords":"[{\"Lat\": -39.2812032, \"Lng\": 175.5642887}]","Start Year":1953,"Start Month":12.0,"Start Day":25.0,"End Year":1953,"End Month":12.0,"End Day":25.0,"Total Affected":null,"Total Deaths":150.0},{"Year":1953,"Type":"Extreme temperature","Subtype":"Heat wave","Country":"Pakistan","Location":null,"Latitude":null,"Longitude":null,"Country Latitude":30.3308401,"Country Longitude":71.247499,"Location Latitude":null,"Location Longitude":null,"Smart Coords":null,"Start Year":1953,"Start Month":7.0,"Start Day":null,"End Year":1953,"End Month":7.0,"End Day":null,"Total Affected":null,"Total Deaths":111.0},{"Year":1953,"Type":"Earthquake","Subtype":"Ground movement","Country":"Peru","Location":"Tumbes","Latitude":"-3.552","Longitude":"-80.636","Country Latitude":-6.8699697,"Country Longitude":-75.0458515,"Location Latitude":-3.833333,"Location Longitude":-80.5,"Smart Coords":"[{\"Lat\": -3.833333, \"Lng\": -80.5}]","Start Year":1953,"Start Month":12.0,"Start Day":12.0,"End Year":1953,"End Month":12.0,"End Day":12.0,"Total Affected":1020.0,"Total Deaths":9.0},{"Year":1953,"Type":"Earthquake","Subtype":"Ground movement","Country":"Turkey","Location":"Canakkale, Balikesir, Yenice, Onon","Latitude":"40.175","Longitude":"27.648","Country Latitude":38.9597594,"Country Longitude":34.9249653,"Location Latitude":null,"Location Longitude":null,"Smart Coords":"[{\"Lat\": 40.0549886, \"Lng\": 26.9278292}, {\"Lat\": 39.5400798, \"Lng\": 28.0228793}]","Start Year":1953,"Start Month":3.0,"Start Day":18.0,"End Year":1953,"End Month":3.0,"End Day":18.0,"Total Affected":50000.0,"Total Deaths":1200.0},{"Year":1953,"Type":"Storm","Subtype":"Tropical cyclone","Country":"Taiwan","Location":null,"Latitude":null,"Longitude":null,"Country Latitude":23.9739374,"Country Longitude":120.9820179,"Location Latitude":null,"Location Longitude":null,"Smart Coords":null,"Start Year":1953,"Start Month":11.0,"Start Day":null,"End Year":1953,"End Month":11.0,"End Day":null,"Total Affected":null,"Total Deaths":67.0},{"Year":1953,"Type":"Storm","Subtype":"Convective storm","Country":"United States","Location":"Massachusetts","Latitude":null,"Longitude":null,"Country Latitude":39.7837304,"Country Longitude":-100.445882,"Location Latitude":42.3788774,"Location Longitude":-72.032366,"Smart Coords":"[{\"Lat\": 42.3788774, \"Lng\": -72.032366}]","Start Year":1953,"Start Month":6.0,"Start Day":null,"End Year":1953,"End Month":6.0,"End Day":null,"Total Affected":null,"Total Deaths":92.0},{"Year":1953,"Type":"Storm","Subtype":null,"Country":"United States","Location":null,"Latitude":null,"Longitude":null,"Country Latitude":39.7837304,"Country Longitude":-100.445882,"Location Latitude":null,"Location Longitude":null,"Smart Coords":null,"Start Year":1953,"Start Month":1.0,"Start Day":null,"End Year":1953,"End Month":1.0,"End Day":null,"Total Affected":null,"Total Deaths":30.0},{"Year":1953,"Type":"Storm","Subtype":null,"Country":"United States","Location":null,"Latitude":null,"Longitude":null,"Country Latitude":39.7837304,"Country Longitude":-100.445882,"Location Latitude":null,"Location Longitude":null,"Smart Coords":null,"Start Year":1953,"Start Month":4.0,"Start Day":null,"End Year":1953,"End Month":4.0,"End Day":null,"Total Affected":null,"Total Deaths":41.0},{"Year":1953,"Type":"Storm","Subtype":null,"Country":"United States","Location":null,"Latitude":null,"Longitude":null,"Country Latitude":39.7837304,"Country Longitude":-100.445882,"Location Latitude":null,"Location Longitude":null,"Smart Coords":null,"Start Year":1953,"Start Month":5.0,"Start Day":null,"End Year":1953,"End Month":5.0,"End Day":null,"Total Affected":null,"Total Deaths":125.0},{"Year":1953,"Type":"Storm","Subtype":null,"Country":"United States","Location":null,"Latitude":null,"Longitude":null,"Country Latitude":39.7837304,"Country Longitude":-100.445882,"Location Latitude":null,"Location Longitude":null,"Smart Coords":null,"Start Year":1953,"Start Month":6.0,"Start Day":null,"End Year":1953,"End Month":6.0,"End Day":null,"Total Affected":null,"Total Deaths":142.0},{"Year":1953,"Type":"Storm","Subtype":null,"Country":"United States","Location":null,"Latitude":null,"Longitude":null,"Country Latitude":39.7837304,"Country Longitude":-100.445882,"Location Latitude":null,"Location Longitude":null,"Smart Coords":null,"Start Year":1953,"Start Month":12.0,"Start Day":null,"End Year":1953,"End Month":12.0,"End Day":null,"Total Affected":null,"Total Deaths":38.0},{"Year":1953,"Type":"Storm","Subtype":"Tropical cyclone","Country":"Viet Nam","Location":"Southern coast","Latitude":null,"Longitude":null,"Country Latitude":15.9266657,"Country Longitude":107.9650855,"Location Latitude":null,"Location Longitude":null,"Smart Coords":null,"Start Year":1953,"Start Month":9.0,"Start Day":26.0,"End Year":1953,"End Month":9.0,"End Day":26.0,"Total Affected":null,"Total Deaths":1000.0},{"Year":1953,"Type":"Earthquake","Subtype":"Ground movement","Country":"Iran, Islamic Republic of","Location":"Goder","Latitude":"28.5","Longitude":"52.3","Country Latitude":32.6475314,"Country Longitude":54.5643516,"Location Latitude":null,"Location Longitude":null,"Smart Coords":null,"Start Year":1953,"Start Month":1.0,"Start Day":16.0,"End Year":1953,"End Month":1.0,"End Day":16.0,"Total Affected":null,"Total Deaths":11.0},{"Year":1953,"Type":"Earthquake","Subtype":"Ground movement","Country":"Turkey","Location":"Edirne","Latitude":"41.4","Longitude":"26.3","Country Latitude":38.9597594,"Country Longitude":34.9249653,"Location Latitude":41.6759327,"Location Longitude":26.5587225,"Smart Coords":"[{\"Lat\": 41.6759327, \"Lng\": 26.5587225}]","Start Year":1953,"Start Month":6.0,"Start Day":18.0,"End Year":1953,"End Month":6.0,"End Day":18.0,"Total Affected":null,"Total Deaths":37.0}]