[{"Year":1981,"Type":"Earthquake","Subtype":"Ground movement","Country":"Colombia","Location":"Colombia\/Venezuela border","Latitude":"8.117","Longitude":"-72.527","Country Latitude":4.099917,"Country Longitude":-72.9088133,"Location Latitude":null,"Location Longitude":null,"Smart Coords":null,"Start Year":1981,"Start Month":10.0,"Start Day":18.0,"End Year":1981,"End Month":10.0,"End Day":18.0,"Total Affected":null,"Total Deaths":10.0},{"Year":1981,"Type":"Earthquake","Subtype":"Ground movement","Country":"Greece","Location":"Greece-Albania border region","Latitude":"39.481","Longitude":"20.699","Country Latitude":38.9953683,"Country Longitude":21.9877132,"Location Latitude":null,"Location Longitude":null,"Smart Coords":null,"Start Year":1981,"Start Month":3.0,"Start Day":10.0,"End Year":1981,"End Month":3.0,"End Day":10.0,"Total Affected":450.0,"Total Deaths":2.0},{"Year":1981,"Type":"Storm","Subtype":"Convective storm","Country":"Canada","Location":"Calgary, Alberta","Latitude":null,"Longitude":null,"Country Latitude":61.0666922,"Country Longitude":-107.991707,"Location Latitude":51.0460954,"Location Longitude":-114.065465,"Smart Coords":"[{\"Lat\": 51.0460954, \"Lng\": -114.065465}, {\"Lat\": 55.001251, \"Lng\": -115.002136}]","Start Year":1981,"Start Month":7.0,"Start Day":28.0,"End Year":1981,"End Month":7.0,"End Day":28.0,"Total Affected":null,"Total Deaths":null},{"Year":1981,"Type":"Drought","Subtype":"Drought","Country":"Angola","Location":"Benguela, Mocamedes, Huila, Cunene, Kuando-Kobango, Bie","Latitude":null,"Longitude":null,"Country Latitude":-11.8775768,"Country Longitude":17.5691241,"Location Latitude":null,"Location Longitude":null,"Smart Coords":"[{\"Lat\": -12.9104657, \"Lng\": 14.0356608}, {\"Lat\": -15.195064, \"Lng\": 12.1458085}, {\"Lat\": -14.6957808, \"Lng\": 15.0976293}, {\"Lat\": -16.5568536, \"Lng\": 15.7867319}, {\"Lat\": -12.2630485, \"Lng\": 17.4967812}]","Start Year":1981,"Start Month":7.0,"Start Day":null,"End Year":1981,"End Month":null,"End Day":null,"Total Affected":80000.0,"Total Deaths":null},{"Year":1981,"Type":"Drought","Subtype":"Drought","Country":"Comoros","Location":"Great Comoros Isl.","Latitude":null,"Longitude":null,"Country Latitude":-12.2045176,"Country Longitude":44.2832964,"Location Latitude":null,"Location Longitude":null,"Smart Coords":null,"Start Year":1981,"Start Month":8.0,"Start Day":null,"End Year":1981,"End Month":null,"End Day":null,"Total Affected":null,"Total Deaths":null},{"Year":1981,"Type":"Storm","Subtype":"Convective storm","Country":"Australia","Location":"Queensland, New South Wales, South Australia, West Australia","Latitude":null,"Longitude":null,"Country Latitude":-24.7761086,"Country Longitude":134.755,"Location Latitude":null,"Location Longitude":null,"Smart Coords":"[{\"Lat\": -31.8759835, \"Lng\": 147.2869493}, {\"Lat\": -30.5343665, \"Lng\": 135.6301212}, {\"Lat\": -37.7880726, \"Lng\": 144.957782}]","Start Year":1981,"Start Month":11.0,"Start Day":null,"End Year":1981,"End Month":11.0,"End Day":null,"Total Affected":null,"Total Deaths":null},{"Year":1981,"Type":"Flood","Subtype":"Riverine flood","Country":"Australia","Location":"Queensland","Latitude":null,"Longitude":null,"Country Latitude":-24.7761086,"Country Longitude":134.755,"Location Latitude":-22.1646782,"Location Longitude":144.5844903,"Smart Coords":null,"Start Year":1981,"Start Month":1.0,"Start Day":null,"End Year":1981,"End Month":1.0,"End Day":null,"Total Affected":null,"Total Deaths":2.0},{"Year":1981,"Type":"Drought","Subtype":"Drought","Country":"Australia","Location":"Queensland, New South Wales, Victoria States","Latitude":null,"Longitude":null,"Country Latitude":-24.7761086,"Country Longitude":134.755,"Location Latitude":null,"Location Longitude":null,"Smart Coords":"[{\"Lat\": -31.8759835, \"Lng\": 147.2869493}, {\"Lat\": -36.5986096, \"Lng\": 144.6780052}]","Start Year":1981,"Start Month":null,"Start Day":null,"End Year":1982,"End Month":null,"End Day":null,"Total Affected":80000.0,"Total Deaths":null},{"Year":1981,"Type":"Flood","Subtype":null,"Country":"Australia","Location":"Victoria","Latitude":null,"Longitude":null,"Country Latitude":-24.7761086,"Country Longitude":134.755,"Location Latitude":-36.5986096,"Location Longitude":144.6780052,"Smart Coords":"[{\"Lat\": -36.5986096, \"Lng\": 144.6780052}]","Start Year":1981,"Start Month":8.0,"Start Day":null,"End Year":1981,"End Month":8.0,"End Day":null,"Total Affected":null,"Total Deaths":null},{"Year":1981,"Type":"Flood","Subtype":null,"Country":"Australia","Location":"Dalby","Latitude":null,"Longitude":null,"Country Latitude":-24.7761086,"Country Longitude":134.755,"Location Latitude":-27.1822593,"Location Longitude":151.2634168,"Smart Coords":null,"Start Year":1981,"Start Month":2.0,"Start Day":null,"End Year":1981,"End Month":2.0,"End Day":null,"Total Affected":null,"Total Deaths":null},{"Year":1981,"Type":"Storm","Subtype":"Convective storm","Country":"Austria","Location":"Donau regions","Latitude":null,"Longitude":null,"Country Latitude":47.59397,"Country Longitude":14.12456,"Location Latitude":null,"Location Longitude":null,"Smart Coords":"[{\"Lat\": 48.1752932, \"Lng\": 16.4794182}]","Start Year":1981,"Start Month":7.0,"Start Day":19.0,"End Year":1981,"End Month":7.0,"End Day":19.0,"Total Affected":null,"Total Deaths":null},{"Year":1981,"Type":"Epidemic","Subtype":"Bacterial disease","Country":"Burkina Faso","Location":null,"Latitude":null,"Longitude":null,"Country Latitude":12.0753083,"Country Longitude":-1.6880314,"Location Latitude":null,"Location Longitude":null,"Smart Coords":null,"Start Year":1981,"Start Month":1.0,"Start Day":1.0,"End Year":1981,"End Month":1.0,"End Day":1.0,"Total Affected":3801.0,"Total Deaths":441.0},{"Year":1981,"Type":"Epidemic","Subtype":"Bacterial disease","Country":"Burkina Faso","Location":null,"Latitude":null,"Longitude":null,"Country Latitude":12.0753083,"Country Longitude":-1.6880314,"Location Latitude":null,"Location Longitude":null,"Smart Coords":null,"Start Year":1981,"Start Month":12.0,"Start Day":null,"End Year":1981,"End Month":12.0,"End Day":null,"Total Affected":6212.0,"Total Deaths":650.0},{"Year":1981,"Type":"Storm","Subtype":"Convective storm","Country":"Bangladesh","Location":"Noakhali district","Latitude":null,"Longitude":null,"Country Latitude":24.4769288,"Country Longitude":90.2934413,"Location Latitude":22.2540799,"Location Longitude":91.1714399386,"Smart Coords":"[{\"Lat\": 22.2540799, \"Lng\": 91.17143993859978}]","Start Year":1981,"Start Month":4.0,"Start Day":15.0,"End Year":1981,"End Month":4.0,"End Day":15.0,"Total Affected":12000.0,"Total Deaths":70.0},{"Year":1981,"Type":"Storm","Subtype":"Tropical cyclone","Country":"Bangladesh","Location":null,"Latitude":null,"Longitude":null,"Country Latitude":24.4769288,"Country Longitude":90.2934413,"Location Latitude":null,"Location Longitude":null,"Smart Coords":null,"Start Year":1981,"Start Month":12.0,"Start Day":11.0,"End Year":1981,"End Month":12.0,"End Day":11.0,"Total Affected":2000000.0,"Total Deaths":1000.0},{"Year":1981,"Type":"Storm","Subtype":"Tropical cyclone","Country":"Bangladesh","Location":"Comilla","Latitude":null,"Longitude":null,"Country Latitude":24.4769288,"Country Longitude":90.2934413,"Location Latitude":23.4610615,"Location Longitude":91.1808748,"Smart Coords":"[{\"Lat\": 23.4610615, \"Lng\": 91.1808748}]","Start Year":1981,"Start Month":3.0,"Start Day":6.0,"End Year":1981,"End Month":3.0,"End Day":6.0,"Total Affected":25000.0,"Total Deaths":15.0},{"Year":1981,"Type":"Storm","Subtype":"Convective storm","Country":"Bulgaria","Location":"North-East region","Latitude":null,"Longitude":null,"Country Latitude":42.6073975,"Country Longitude":25.4856617,"Location Latitude":null,"Location Longitude":null,"Smart Coords":null,"Start Year":1981,"Start Month":11.0,"Start Day":10.0,"End Year":1981,"End Month":11.0,"End Day":10.0,"Total Affected":null,"Total Deaths":null},{"Year":1981,"Type":"Flood","Subtype":null,"Country":"Brazil","Location":"NorthEastern","Latitude":null,"Longitude":null,"Country Latitude":-10.3333333,"Country Longitude":-53.2,"Location Latitude":null,"Location Longitude":null,"Smart Coords":null,"Start Year":1981,"Start Month":4.0,"Start Day":null,"End Year":1981,"End Month":4.0,"End Day":null,"Total Affected":50000.0,"Total Deaths":30.0},{"Year":1981,"Type":"Flood","Subtype":null,"Country":"Brazil","Location":"Rio de Janeiro state","Latitude":null,"Longitude":null,"Country Latitude":-10.3333333,"Country Longitude":-53.2,"Location Latitude":-22.91116535,"Location Longitude":-43.2357831739,"Smart Coords":"[{\"Lat\": -22.9110137, \"Lng\": -43.2093727}]","Start Year":1981,"Start Month":12.0,"Start Day":2.0,"End Year":1981,"End Month":12.0,"End Day":2.0,"Total Affected":2300.0,"Total Deaths":67.0},{"Year":1981,"Type":"Drought","Subtype":"Drought","Country":"Botswana","Location":"Nationwide","Latitude":null,"Longitude":null,"Country Latitude":-23.1681782,"Country Longitude":24.5928742,"Location Latitude":null,"Location Longitude":null,"Smart Coords":null,"Start Year":1982,"Start Month":4.0,"Start Day":null,"End Year":1987,"End Month":null,"End Day":null,"Total Affected":1037300.0,"Total Deaths":null},{"Year":1981,"Type":"Storm","Subtype":null,"Country":"Central African Republic","Location":"Bimbi","Latitude":null,"Longitude":null,"Country Latitude":7.0323598,"Country Longitude":19.9981227,"Location Latitude":null,"Location Longitude":null,"Smart Coords":null,"Start Year":1981,"Start Month":11.0,"Start Day":18.0,"End Year":1981,"End Month":11.0,"End Day":18.0,"Total Affected":1850.0,"Total Deaths":null},{"Year":1981,"Type":"Storm","Subtype":"Convective storm","Country":"China","Location":"Hubei province","Latitude":null,"Longitude":null,"Country Latitude":35.000074,"Country Longitude":104.999927,"Location Latitude":32.0940138,"Location Longitude":112.1165305,"Smart Coords":"[{\"Lat\": 31.15305035, \"Lng\": 112.88064226239663}]","Start Year":1981,"Start Month":4.0,"Start Day":15.0,"End Year":1981,"End Month":4.0,"End Day":15.0,"Total Affected":null,"Total Deaths":null},{"Year":1981,"Type":"Earthquake","Subtype":"Ground movement","Country":"China","Location":"Sichuan province","Latitude":"30.927","Longitude":"101.098","Country Latitude":35.000074,"Country Longitude":104.999927,"Location Latitude":30.5000001,"Location Longitude":102.4999999,"Smart Coords":"[{\"Lat\": 30.5000001, \"Lng\": 102.4999999}]","Start Year":1981,"Start Month":1.0,"Start Day":24.0,"End Year":1981,"End Month":1.0,"End Day":24.0,"Total Affected":25850.0,"Total Deaths":150.0},{"Year":1981,"Type":"Flood","Subtype":"Riverine flood","Country":"China","Location":"Quinghai province","Latitude":null,"Longitude":null,"Country Latitude":35.000074,"Country Longitude":104.999927,"Location Latitude":null,"Location Longitude":null,"Smart Coords":null,"Start Year":1981,"Start Month":9.0,"Start Day":12.0,"End Year":1981,"End Month":9.0,"End Day":12.0,"Total Affected":4000.0,"Total Deaths":null},{"Year":1981,"Type":"Wildfire","Subtype":"Forest fire","Country":"China","Location":"Near Beijing","Latitude":null,"Longitude":null,"Country Latitude":35.000074,"Country Longitude":104.999927,"Location Latitude":null,"Location Longitude":null,"Smart Coords":null,"Start Year":1981,"Start Month":5.0,"Start Day":9.0,"End Year":1981,"End Month":5.0,"End Day":9.0,"Total Affected":null,"Total Deaths":null},{"Year":1981,"Type":"Flood","Subtype":null,"Country":"China","Location":"Sichuan, Central and South China","Latitude":null,"Longitude":null,"Country Latitude":35.000074,"Country Longitude":104.999927,"Location Latitude":null,"Location Longitude":null,"Smart Coords":"[{\"Lat\": 30.5000001, \"Lng\": 102.4999999}]","Start Year":1981,"Start Month":7.0,"Start Day":14.0,"End Year":1981,"End Month":7.0,"End Day":14.0,"Total Affected":1528140.0,"Total Deaths":1311.0},{"Year":1981,"Type":"Flood","Subtype":null,"Country":"China","Location":"Shaanxi province","Latitude":null,"Longitude":null,"Country Latitude":35.000074,"Country Longitude":104.999927,"Location Latitude":35.8894105,"Location Longitude":109.1357285,"Smart Coords":"[{\"Lat\": 35.8894105, \"Lng\": 109.1357285}]","Start Year":1981,"Start Month":8.0,"Start Day":null,"End Year":1981,"End Month":8.0,"End Day":null,"Total Affected":1405000.0,"Total Deaths":764.0},{"Year":1981,"Type":"Flood","Subtype":null,"Country":"China","Location":"Guangdong province","Latitude":null,"Longitude":null,"Country Latitude":35.000074,"Country Longitude":104.999927,"Location Latitude":23.1357694,"Location Longitude":113.1982688,"Smart Coords":"[{\"Lat\": 23.1357694, \"Lng\": 113.1982688}]","Start Year":1981,"Start Month":10.0,"Start Day":null,"End Year":1981,"End Month":10.0,"End Day":null,"Total Affected":150000.0,"Total Deaths":null},{"Year":1981,"Type":"Flood","Subtype":null,"Country":"China","Location":"Sichuan province","Latitude":null,"Longitude":null,"Country Latitude":35.000074,"Country Longitude":104.999927,"Location Latitude":30.5000001,"Location Longitude":102.4999999,"Smart Coords":"[{\"Lat\": 30.5000001, \"Lng\": 102.4999999}]","Start Year":1981,"Start Month":10.0,"Start Day":4.0,"End Year":1981,"End Month":10.0,"End Day":4.0,"Total Affected":100000.0,"Total Deaths":240.0},{"Year":1981,"Type":"Storm","Subtype":"Tropical cyclone","Country":"Cook Islands (the)","Location":"Aitutaki","Latitude":null,"Longitude":null,"Country Latitude":-19.99697155,"Country Longitude":-157.7858714062,"Location Latitude":null,"Location Longitude":null,"Smart Coords":"[{\"Lat\": -18.88837815, \"Lng\": -159.7831878170802}]","Start Year":1981,"Start Month":2.0,"Start Day":21.0,"End Year":1981,"End Month":2.0,"End Day":21.0,"Total Affected":null,"Total Deaths":null},{"Year":1981,"Type":"Flood","Subtype":"Riverine flood","Country":"Colombia","Location":"East, Calimina","Latitude":null,"Longitude":null,"Country Latitude":4.099917,"Country Longitude":-72.9088133,"Location Latitude":null,"Location Longitude":null,"Smart Coords":null,"Start Year":1981,"Start Month":8.0,"Start Day":17.0,"End Year":1981,"End Month":8.0,"End Day":17.0,"Total Affected":null,"Total Deaths":150.0},{"Year":1981,"Type":"Landslide","Subtype":"Landslide","Country":"Colombia","Location":"Northern provinces","Latitude":null,"Longitude":null,"Country Latitude":4.099917,"Country Longitude":-72.9088133,"Location Latitude":null,"Location Longitude":null,"Smart Coords":null,"Start Year":1981,"Start Month":4.0,"Start Day":null,"End Year":1981,"End Month":4.0,"End Day":null,"Total Affected":14000.0,"Total Deaths":65.0},{"Year":1981,"Type":"Storm","Subtype":"Convective storm","Country":"Czechoslovakia","Location":null,"Latitude":null,"Longitude":null,"Country Latitude":49.323182,"Country Longitude":17.621027,"Location Latitude":null,"Location Longitude":null,"Smart Coords":null,"Start Year":1981,"Start Month":7.0,"Start Day":19.0,"End Year":1981,"End Month":7.0,"End Day":19.0,"Total Affected":600.0,"Total Deaths":null},{"Year":1981,"Type":"Extreme temperature","Subtype":"Severe winter conditions","Country":"Czechoslovakia","Location":null,"Latitude":null,"Longitude":null,"Country Latitude":49.323182,"Country Longitude":17.621027,"Location Latitude":null,"Location Longitude":null,"Smart Coords":null,"Start Year":1981,"Start Month":11.0,"Start Day":10.0,"End Year":1981,"End Month":11.0,"End Day":10.0,"Total Affected":null,"Total Deaths":null},{"Year":1981,"Type":"Drought","Subtype":"Drought","Country":"Cuba","Location":null,"Latitude":null,"Longitude":null,"Country Latitude":23.0131338,"Country Longitude":-80.8328748,"Location Latitude":null,"Location Longitude":null,"Smart Coords":null,"Start Year":1981,"Start Month":null,"Start Day":null,"End Year":1983,"End Month":null,"End Day":null,"Total Affected":null,"Total Deaths":null},{"Year":1981,"Type":"Flood","Subtype":null,"Country":"Djibouti","Location":"Djibouti city","Latitude":null,"Longitude":null,"Country Latitude":11.8145966,"Country Longitude":42.8453061,"Location Latitude":11.5566501,"Location Longitude":43.1133955683,"Smart Coords":"[{\"Lat\": 11.8145966, \"Lng\": 42.8453061}]","Start Year":1981,"Start Month":3.0,"Start Day":18.0,"End Year":1981,"End Month":3.0,"End Day":18.0,"Total Affected":102000.0,"Total Deaths":25.0},{"Year":1981,"Type":"Storm","Subtype":null,"Country":"Denmark","Location":null,"Latitude":null,"Longitude":null,"Country Latitude":55.670249,"Country Longitude":10.3333283,"Location Latitude":null,"Location Longitude":null,"Smart Coords":null,"Start Year":1981,"Start Month":11.0,"Start Day":24.0,"End Year":1981,"End Month":11.0,"End Day":25.0,"Total Affected":null,"Total Deaths":9.0},{"Year":1981,"Type":"Flood","Subtype":null,"Country":"Dominican Republic","Location":null,"Latitude":null,"Longitude":null,"Country Latitude":19.0974031,"Country Longitude":-70.3028026,"Location Latitude":null,"Location Longitude":null,"Smart Coords":null,"Start Year":1981,"Start Month":5.0,"Start Day":null,"End Year":1981,"End Month":5.0,"End Day":null,"Total Affected":150000.0,"Total Deaths":20.0},{"Year":1981,"Type":"Drought","Subtype":"Drought","Country":"Algeria","Location":null,"Latitude":null,"Longitude":null,"Country Latitude":28.0000272,"Country Longitude":2.9999825,"Location Latitude":null,"Location Longitude":null,"Smart Coords":null,"Start Year":1981,"Start Month":null,"Start Day":null,"End Year":1983,"End Month":null,"End Day":null,"Total Affected":null,"Total Deaths":null},{"Year":1981,"Type":"Flood","Subtype":null,"Country":"Algeria","Location":"El Elma","Latitude":null,"Longitude":null,"Country Latitude":28.0000272,"Country Longitude":2.9999825,"Location Latitude":36.1529057,"Location Longitude":5.6911588,"Smart Coords":null,"Start Year":1981,"Start Month":9.0,"Start Day":4.0,"End Year":1981,"End Month":9.0,"End Day":4.0,"Total Affected":50.0,"Total Deaths":43.0},{"Year":1981,"Type":"Drought","Subtype":"Drought","Country":"Spain","Location":null,"Latitude":null,"Longitude":null,"Country Latitude":39.3260685,"Country Longitude":-4.8379791,"Location Latitude":null,"Location Longitude":null,"Smart Coords":null,"Start Year":1981,"Start Month":null,"Start Day":null,"End Year":1981,"End Month":null,"End Day":null,"Total Affected":null,"Total Deaths":null},{"Year":1981,"Type":"Flood","Subtype":"Flash flood","Country":"Ethiopia","Location":"Kalafo","Latitude":null,"Longitude":null,"Country Latitude":10.2116702,"Country Longitude":38.6521203,"Location Latitude":null,"Location Longitude":null,"Smart Coords":null,"Start Year":1981,"Start Month":5.0,"Start Day":null,"End Year":1981,"End Month":5.0,"End Day":null,"Total Affected":20000.0,"Total Deaths":null},{"Year":1981,"Type":"Epidemic","Subtype":"Bacterial disease","Country":"Ethiopia","Location":null,"Latitude":null,"Longitude":null,"Country Latitude":10.2116702,"Country Longitude":38.6521203,"Location Latitude":null,"Location Longitude":null,"Smart Coords":null,"Start Year":1981,"Start Month":null,"Start Day":null,"End Year":1981,"End Month":null,"End Day":null,"Total Affected":50000.0,"Total Deaths":990.0},{"Year":1981,"Type":"Storm","Subtype":"Tropical cyclone","Country":"Fiji","Location":"Yasawas, Mamanuca","Latitude":null,"Longitude":null,"Country Latitude":-18.1239696,"Country Longitude":179.0122737,"Location Latitude":null,"Location Longitude":null,"Smart Coords":"[{\"Lat\": -17.7495601, \"Lng\": 177.1706455035983}]","Start Year":1981,"Start Month":1.0,"Start Day":15.0,"End Year":1981,"End Month":1.0,"End Day":15.0,"Total Affected":4700.0,"Total Deaths":null},{"Year":1981,"Type":"Flood","Subtype":null,"Country":"France","Location":"Gironde, Lot-Et-Garonne departments","Latitude":null,"Longitude":null,"Country Latitude":46.603354,"Country Longitude":1.8883335,"Location Latitude":null,"Location Longitude":null,"Smart Coords":"[{\"Lat\": 44.883745950000005, \"Lng\": -0.6051264440438711}, {\"Lat\": 44.3691703, \"Lng\": 0.4539157583248752}]","Start Year":1981,"Start Month":12.0,"Start Day":20.0,"End Year":1981,"End Month":12.0,"End Day":20.0,"Total Affected":null,"Total Deaths":null},{"Year":1981,"Type":"Storm","Subtype":null,"Country":"United Kingdom","Location":null,"Latitude":null,"Longitude":null,"Country Latitude":54.7023545,"Country Longitude":-3.2765753,"Location Latitude":null,"Location Longitude":null,"Smart Coords":null,"Start Year":1981,"Start Month":9.0,"Start Day":21.0,"End Year":1981,"End Month":9.0,"End Day":21.0,"Total Affected":null,"Total Deaths":12.0},{"Year":1981,"Type":"Flood","Subtype":null,"Country":"Guinea","Location":"Niany, Tieney, Sirakoro, Balandougoubal, Dougou, Sidikila, Kama, Goinso","Latitude":null,"Longitude":null,"Country Latitude":10.7226226,"Country Longitude":-10.7083587,"Location Latitude":null,"Location Longitude":null,"Smart Coords":"[{\"Lat\": 9.75, \"Lng\": -9.933333}, {\"Lat\": 10.66242345, \"Lng\": -14.599790716058523}, {\"Lat\": 11.2392803, \"Lng\": -8.490109080772207}, {\"Lat\": 8.946944, \"Lng\": -10.444722}]","Start Year":1981,"Start Month":9.0,"Start Day":null,"End Year":1981,"End Month":9.0,"End Day":null,"Total Affected":5000.0,"Total Deaths":null},{"Year":1981,"Type":"Earthquake","Subtype":"Ground movement","Country":"Greece","Location":"Athens-Corinth area","Latitude":"38.222","Longitude":"22.934","Country Latitude":38.9953683,"Country Longitude":21.9877132,"Location Latitude":37.9210955,"Location Longitude":22.814734,"Smart Coords":null,"Start Year":1981,"Start Month":2.0,"Start Day":24.0,"End Year":1981,"End Month":2.0,"End Day":24.0,"Total Affected":80400.0,"Total Deaths":22.0},{"Year":1981,"Type":"Storm","Subtype":"Convective storm","Country":"Hong Kong","Location":"Kowloon, Lantau Isl.","Latitude":null,"Longitude":null,"Country Latitude":22.352957,"Country Longitude":113.962891,"Location Latitude":null,"Location Longitude":null,"Smart Coords":null,"Start Year":1981,"Start Month":3.0,"Start Day":19.0,"End Year":1981,"End Month":3.0,"End Day":19.0,"Total Affected":null,"Total Deaths":null},{"Year":1981,"Type":"Wildfire","Subtype":"Forest fire","Country":"Hong Kong","Location":null,"Latitude":null,"Longitude":null,"Country Latitude":22.352957,"Country Longitude":113.962891,"Location Latitude":null,"Location Longitude":null,"Smart Coords":null,"Start Year":1981,"Start Month":1.0,"Start Day":null,"End Year":1981,"End Month":1.0,"End Day":null,"Total Affected":null,"Total Deaths":null},{"Year":1981,"Type":"Wildfire","Subtype":"Land fire (Brush, Bush, Pasture)","Country":"Hong Kong","Location":null,"Latitude":null,"Longitude":null,"Country Latitude":22.352957,"Country Longitude":113.962891,"Location Latitude":null,"Location Longitude":null,"Smart Coords":null,"Start Year":1981,"Start Month":10.0,"Start Day":null,"End Year":1981,"End Month":10.0,"End Day":null,"Total Affected":null,"Total Deaths":null},{"Year":1981,"Type":"Drought","Subtype":"Drought","Country":"Hong Kong","Location":null,"Latitude":null,"Longitude":null,"Country Latitude":22.352957,"Country Longitude":113.962891,"Location Latitude":null,"Location Longitude":null,"Smart Coords":null,"Start Year":1981,"Start Month":null,"Start Day":null,"End Year":1981,"End Month":null,"End Day":null,"Total Affected":null,"Total Deaths":null},{"Year":1981,"Type":"Flood","Subtype":null,"Country":"Honduras","Location":"Western","Latitude":null,"Longitude":null,"Country Latitude":15.2572432,"Country Longitude":-86.0755145,"Location Latitude":null,"Location Longitude":null,"Smart Coords":null,"Start Year":1981,"Start Month":10.0,"Start Day":null,"End Year":1981,"End Month":10.0,"End Day":null,"Total Affected":null,"Total Deaths":null},{"Year":1981,"Type":"Earthquake","Subtype":"Ground movement","Country":"Indonesia","Location":"Solo Valley (Irian Jaya)","Latitude":"-4.576","Longitude":"139.232","Country Latitude":-2.4833826,"Country Longitude":117.8902853,"Location Latitude":null,"Location Longitude":null,"Smart Coords":null,"Start Year":1981,"Start Month":1.0,"Start Day":19.0,"End Year":1981,"End Month":1.0,"End Day":19.0,"Total Affected":2682.0,"Total Deaths":306.0},{"Year":1981,"Type":"Earthquake","Subtype":"Ground movement","Country":"Pakistan","Location":"Karakoram, Darel, Tangir, Khanbari valleys","Latitude":"35.693","Longitude":"73.594","Country Latitude":30.3308401,"Country Longitude":71.247499,"Location Latitude":null,"Location Longitude":null,"Smart Coords":null,"Start Year":1981,"Start Month":9.0,"Start Day":12.0,"End Year":1981,"End Month":9.0,"End Day":12.0,"Total Affected":2000.0,"Total Deaths":250.0},{"Year":1981,"Type":"Drought","Subtype":"Drought","Country":"Jamaica","Location":null,"Latitude":null,"Longitude":null,"Country Latitude":18.1850507,"Country Longitude":-77.3947693,"Location Latitude":null,"Location Longitude":null,"Smart Coords":null,"Start Year":1981,"Start Month":1.0,"Start Day":null,"End Year":1983,"End Month":null,"End Day":null,"Total Affected":null,"Total Deaths":null},{"Year":1981,"Type":"Drought","Subtype":"Drought","Country":"Madagascar","Location":"Toliary, Tolagnaro","Latitude":null,"Longitude":null,"Country Latitude":-18.9249604,"Country Longitude":46.4416422,"Location Latitude":null,"Location Longitude":null,"Smart Coords":"[{\"Lat\": -23.343912, \"Lng\": 43.6756399}, {\"Lat\": -25.0290132, \"Lng\": 46.9966565}]","Start Year":1981,"Start Month":null,"Start Day":null,"End Year":1981,"End Month":null,"End Day":null,"Total Affected":1000000.0,"Total Deaths":null},{"Year":1981,"Type":"Volcanic activity","Subtype":"Ash fall","Country":"Indonesia","Location":"East of Java","Latitude":null,"Longitude":null,"Country Latitude":-2.4833826,"Country Longitude":117.8902853,"Location Latitude":-6.26289085,"Location Longitude":106.8822289469,"Smart Coords":null,"Start Year":1981,"Start Month":3.0,"Start Day":2.0,"End Year":1981,"End Month":3.0,"End Day":2.0,"Total Affected":5000.0,"Total Deaths":192.0},{"Year":1981,"Type":"Flood","Subtype":"Flash flood","Country":"Indonesia","Location":"Jarkarta","Latitude":null,"Longitude":null,"Country Latitude":-2.4833826,"Country Longitude":117.8902853,"Location Latitude":null,"Location Longitude":null,"Smart Coords":null,"Start Year":1981,"Start Month":12.0,"Start Day":25.0,"End Year":1981,"End Month":12.0,"End Day":25.0,"Total Affected":212000.0,"Total Deaths":9.0},{"Year":1981,"Type":"Landslide","Subtype":"Landslide","Country":"Indonesia","Location":"Jogjakarta","Latitude":null,"Longitude":null,"Country Latitude":-2.4833826,"Country Longitude":117.8902853,"Location Latitude":-7.8011945,"Location Longitude":110.364917,"Smart Coords":null,"Start Year":1981,"Start Month":11.0,"Start Day":6.0,"End Year":1981,"End Month":11.0,"End Day":6.0,"Total Affected":6000.0,"Total Deaths":null},{"Year":1981,"Type":"Flood","Subtype":null,"Country":"Indonesia","Location":"Mont Semeru","Latitude":null,"Longitude":null,"Country Latitude":-2.4833826,"Country Longitude":117.8902853,"Location Latitude":null,"Location Longitude":null,"Smart Coords":null,"Start Year":1981,"Start Month":5.0,"Start Day":14.0,"End Year":1981,"End Month":5.0,"End Day":14.0,"Total Affected":null,"Total Deaths":500.0},{"Year":1981,"Type":"Flood","Subtype":null,"Country":"Indonesia","Location":"Central Java","Latitude":null,"Longitude":null,"Country Latitude":-2.4833826,"Country Longitude":117.8902853,"Location Latitude":-7.3032412,"Location Longitude":110.0044145,"Smart Coords":"[{\"Lat\": -7.3032412, \"Lng\": 110.0044145}]","Start Year":1981,"Start Month":1.0,"Start Day":22.0,"End Year":1981,"End Month":1.0,"End Day":22.0,"Total Affected":140000.0,"Total Deaths":null},{"Year":1981,"Type":"Storm","Subtype":"Convective storm","Country":"India","Location":"Orissa","Latitude":null,"Longitude":null,"Country Latitude":22.3511148,"Country Longitude":78.6677428,"Location Latitude":20.5431241,"Location Longitude":84.6897321,"Smart Coords":"[{\"Lat\": 20.5431241, \"Lng\": 84.6897321}]","Start Year":1981,"Start Month":4.0,"Start Day":17.0,"End Year":1981,"End Month":4.0,"End Day":17.0,"Total Affected":10000.0,"Total Deaths":120.0},{"Year":1981,"Type":"Storm","Subtype":"Tropical cyclone","Country":"India","Location":"Orissa, West Bengal","Latitude":null,"Longitude":null,"Country Latitude":22.3511148,"Country Longitude":78.6677428,"Location Latitude":22.4719979,"Location Longitude":88.0269373,"Smart Coords":"[{\"Lat\": 20.5431241, \"Lng\": 84.6897321}, {\"Lat\": 22.9964948, \"Lng\": 87.6855882}]","Start Year":1981,"Start Month":12.0,"Start Day":10.0,"End Year":1981,"End Month":12.0,"End Day":10.0,"Total Affected":20000.0,"Total Deaths":200.0},{"Year":1981,"Type":"Storm","Subtype":"Tropical cyclone","Country":"India","Location":"Puri, Ganjam, Koraput, Kalhandi, Phulbani, Sundergarh districts (Orissa state)","Latitude":null,"Longitude":null,"Country Latitude":22.3511148,"Country Longitude":78.6677428,"Location Latitude":null,"Location Longitude":null,"Smart Coords":"[{\"Lat\": 19.8076083, \"Lng\": 85.8252538}, {\"Lat\": 19.4129711, \"Lng\": 85.04710406447731}, {\"Lat\": 24.4519998, \"Lng\": 94.0273416}, {\"Lat\": 20.4762322, \"Lng\": 84.2348517}, {\"Lat\": 22.1181799, \"Lng\": 84.0361994}]","Start Year":1981,"Start Month":8.0,"Start Day":7.0,"End Year":1981,"End Month":8.0,"End Day":7.0,"Total Affected":101700.0,"Total Deaths":15.0},{"Year":1981,"Type":"Storm","Subtype":"Tropical cyclone","Country":"India","Location":"Orissa, West Bengal, Bihar Plateau, Andhra Pradesh, Telangana, East Madhya Pradesh","Latitude":null,"Longitude":null,"Country Latitude":22.3511148,"Country Longitude":78.6677428,"Location Latitude":null,"Location Longitude":null,"Smart Coords":"[{\"Lat\": 20.5431241, \"Lng\": 84.6897321}, {\"Lat\": 22.9964948, \"Lng\": 87.6855882}, {\"Lat\": 15.9240905, \"Lng\": 80.1863809}, {\"Lat\": 17.8495919, \"Lng\": 79.1151663}, {\"Lat\": 21.75, \"Lng\": 76.583333}]","Start Year":1981,"Start Month":9.0,"Start Day":24.0,"End Year":1981,"End Month":9.0,"End Day":24.0,"Total Affected":null,"Total Deaths":null},{"Year":1981,"Type":"Extreme temperature","Subtype":"Cold wave","Country":"India","Location":"Northern","Latitude":null,"Longitude":null,"Country Latitude":22.3511148,"Country Longitude":78.6677428,"Location Latitude":null,"Location Longitude":null,"Smart Coords":null,"Start Year":1981,"Start Month":1.0,"Start Day":null,"End Year":1981,"End Month":1.0,"End Day":null,"Total Affected":null,"Total Deaths":300.0},{"Year":1981,"Type":"Flood","Subtype":null,"Country":"India","Location":null,"Latitude":null,"Longitude":null,"Country Latitude":22.3511148,"Country Longitude":78.6677428,"Location Latitude":null,"Location Longitude":null,"Smart Coords":null,"Start Year":1981,"Start Month":7.0,"Start Day":4.0,"End Year":1981,"End Month":7.0,"End Day":4.0,"Total Affected":16000000.0,"Total Deaths":553.0},{"Year":1981,"Type":"Storm","Subtype":null,"Country":"India","Location":"Gujarat","Latitude":null,"Longitude":null,"Country Latitude":22.3511148,"Country Longitude":78.6677428,"Location Latitude":22.3850051,"Location Longitude":71.745261,"Smart Coords":"[{\"Lat\": 22.3850051, \"Lng\": 71.745261}]","Start Year":1981,"Start Month":11.0,"Start Day":1.0,"End Year":1981,"End Month":11.0,"End Day":1.0,"Total Affected":null,"Total Deaths":470.0},{"Year":1981,"Type":"Earthquake","Subtype":"Ground movement","Country":"Iran, Islamic Republic of","Location":"Golbaf region, Kerman province","Latitude":"29.913","Longitude":"57.715","Country Latitude":32.6475314,"Country Longitude":54.5643516,"Location Latitude":null,"Location Longitude":null,"Smart Coords":"[{\"Lat\": 29.571858, \"Lng\": 57.301047}]","Start Year":1981,"Start Month":6.0,"Start Day":11.0,"End Year":1981,"End Month":6.0,"End Day":11.0,"Total Affected":3000.0,"Total Deaths":2000.0},{"Year":1981,"Type":"Earthquake","Subtype":"Ground movement","Country":"Iran, Islamic Republic of","Location":"Kerman, Golbaf, Shahdab","Latitude":"30.013","Longitude":"57.794","Country Latitude":32.6475314,"Country Longitude":54.5643516,"Location Latitude":null,"Location Longitude":null,"Smart Coords":"[{\"Lat\": 29.571858, \"Lng\": 57.301047}]","Start Year":1981,"Start Month":7.0,"Start Day":28.0,"End Year":1981,"End Month":7.0,"End Day":28.0,"Total Affected":31000.0,"Total Deaths":1200.0},{"Year":1981,"Type":"Flood","Subtype":null,"Country":"Iran, Islamic Republic of","Location":"Korassan","Latitude":null,"Longitude":null,"Country Latitude":32.6475314,"Country Longitude":54.5643516,"Location Latitude":null,"Location Longitude":null,"Smart Coords":null,"Start Year":1981,"Start Month":5.0,"Start Day":3.0,"End Year":1981,"End Month":5.0,"End Day":3.0,"Total Affected":100.0,"Total Deaths":58.0},{"Year":1981,"Type":"Storm","Subtype":null,"Country":"Iran, Islamic Republic of","Location":"Hormuz","Latitude":null,"Longitude":null,"Country Latitude":32.6475314,"Country Longitude":54.5643516,"Location Latitude":27.068024,"Location Longitude":56.4641698486,"Smart Coords":null,"Start Year":1981,"Start Month":10.0,"Start Day":19.0,"End Year":1981,"End Month":10.0,"End Day":19.0,"Total Affected":null,"Total Deaths":200.0},{"Year":1981,"Type":"Earthquake","Subtype":"Ground movement","Country":"Italy","Location":"Mazara del Vallo area (Sicily)","Latitude":"37.67 N","Longitude":"12.47 E","Country Latitude":42.6384261,"Country Longitude":12.674297,"Location Latitude":null,"Location Longitude":null,"Smart Coords":null,"Start Year":1981,"Start Month":6.0,"Start Day":7.0,"End Year":1981,"End Month":6.0,"End Day":7.0,"Total Affected":306.0,"Total Deaths":null},{"Year":1981,"Type":"Earthquake","Subtype":"Ground movement","Country":"Italy","Location":"South","Latitude":"41.051","Longitude":"14.601","Country Latitude":42.6384261,"Country Longitude":12.674297,"Location Latitude":40.3516152,"Location Longitude":18.1659782,"Smart Coords":null,"Start Year":1981,"Start Month":2.0,"Start Day":14.0,"End Year":1981,"End Month":2.0,"End Day":14.0,"Total Affected":null,"Total Deaths":12.0},{"Year":1981,"Type":"Epidemic","Subtype":"Bacterial disease","Country":"Jordan","Location":null,"Latitude":null,"Longitude":null,"Country Latitude":31.1667049,"Country Longitude":36.941628,"Location Latitude":null,"Location Longitude":null,"Smart Coords":null,"Start Year":1981,"Start Month":7.0,"Start Day":null,"End Year":1981,"End Month":7.0,"End Day":null,"Total Affected":715.0,"Total Deaths":4.0},{"Year":1981,"Type":"Landslide","Subtype":"Landslide","Country":"Japan","Location":null,"Latitude":null,"Longitude":null,"Country Latitude":36.5748441,"Country Longitude":139.2394179,"Location Latitude":null,"Location Longitude":null,"Smart Coords":null,"Start Year":1981,"Start Month":null,"Start Day":null,"End Year":1981,"End Month":null,"End Day":null,"Total Affected":null,"Total Deaths":40.0},{"Year":1981,"Type":"Storm","Subtype":"Tropical cyclone","Country":"Japan","Location":"Hokkaido","Latitude":null,"Longitude":null,"Country Latitude":36.5748441,"Country Longitude":139.2394179,"Location Latitude":43.4519831,"Location Longitude":142.8197834,"Smart Coords":"[{\"Lat\": 43.4519831, \"Lng\": 142.8197834}]","Start Year":1981,"Start Month":8.0,"Start Day":6.0,"End Year":1981,"End Month":8.0,"End Day":6.0,"Total Affected":62500.0,"Total Deaths":7.0},{"Year":1981,"Type":"Storm","Subtype":"Tropical cyclone","Country":"Japan","Location":"Central, Northern","Latitude":null,"Longitude":null,"Country Latitude":36.5748441,"Country Longitude":139.2394179,"Location Latitude":null,"Location Longitude":null,"Smart Coords":null,"Start Year":1981,"Start Month":8.0,"Start Day":23.0,"End Year":1981,"End Month":8.0,"End Day":23.0,"Total Affected":20100.0,"Total Deaths":40.0},{"Year":1981,"Type":"Storm","Subtype":null,"Country":"Japan","Location":null,"Latitude":null,"Longitude":null,"Country Latitude":36.5748441,"Country Longitude":139.2394179,"Location Latitude":null,"Location Longitude":null,"Smart Coords":null,"Start Year":1981,"Start Month":1.0,"Start Day":8.0,"End Year":1981,"End Month":1.0,"End Day":8.0,"Total Affected":null,"Total Deaths":33.0},{"Year":1981,"Type":"Storm","Subtype":null,"Country":"Japan","Location":null,"Latitude":null,"Longitude":null,"Country Latitude":36.5748441,"Country Longitude":139.2394179,"Location Latitude":null,"Location Longitude":null,"Smart Coords":null,"Start Year":1981,"Start Month":2.0,"Start Day":null,"End Year":1981,"End Month":2.0,"End Day":null,"Total Affected":null,"Total Deaths":83.0},{"Year":1981,"Type":"Landslide","Subtype":"Landslide","Country":"Korea, Republic of","Location":null,"Latitude":null,"Longitude":null,"Country Latitude":36.638392,"Country Longitude":127.6961188,"Location Latitude":null,"Location Longitude":null,"Smart Coords":null,"Start Year":1981,"Start Month":7.0,"Start Day":4.0,"End Year":1981,"End Month":7.0,"End Day":4.0,"Total Affected":null,"Total Deaths":null},{"Year":1981,"Type":"Storm","Subtype":"Tropical cyclone","Country":"Korea, Republic of","Location":"S.E.W. Coasts\/Inland","Latitude":null,"Longitude":null,"Country Latitude":36.638392,"Country Longitude":127.6961188,"Location Latitude":null,"Location Longitude":null,"Smart Coords":null,"Start Year":1981,"Start Month":8.0,"Start Day":31.0,"End Year":1981,"End Month":8.0,"End Day":31.0,"Total Affected":14253.0,"Total Deaths":113.0},{"Year":1981,"Type":"Flood","Subtype":null,"Country":"Lao People's Democratic Republic","Location":null,"Latitude":null,"Longitude":null,"Country Latitude":20.0171109,"Country Longitude":103.378253,"Location Latitude":null,"Location Longitude":null,"Smart Coords":null,"Start Year":1981,"Start Month":7.0,"Start Day":null,"End Year":1981,"End Month":7.0,"End Day":null,"Total Affected":null,"Total Deaths":null},{"Year":1981,"Type":"Drought","Subtype":"Drought","Country":"Sri Lanka","Location":null,"Latitude":null,"Longitude":null,"Country Latitude":7.87739585,"Country Longitude":80.6624785236,"Location Latitude":null,"Location Longitude":null,"Smart Coords":null,"Start Year":1981,"Start Month":null,"Start Day":null,"End Year":1981,"End Month":null,"End Day":null,"Total Affected":null,"Total Deaths":null},{"Year":1981,"Type":"Flood","Subtype":null,"Country":"Sri Lanka","Location":"North","Latitude":null,"Longitude":null,"Country Latitude":7.87739585,"Country Longitude":80.6624785236,"Location Latitude":null,"Location Longitude":null,"Smart Coords":null,"Start Year":1981,"Start Month":12.0,"Start Day":7.0,"End Year":1981,"End Month":12.0,"End Day":7.0,"Total Affected":20000.0,"Total Deaths":7.0},{"Year":1981,"Type":"Storm","Subtype":"Tropical cyclone","Country":"Madagascar","Location":"Countrywide (mainly Antananarivo)","Latitude":null,"Longitude":null,"Country Latitude":-18.9249604,"Country Longitude":46.4416422,"Location Latitude":null,"Location Longitude":null,"Smart Coords":null,"Start Year":1981,"Start Month":12.0,"Start Day":20.0,"End Year":1981,"End Month":12.0,"End Day":20.0,"Total Affected":118000.0,"Total Deaths":107.0},{"Year":1981,"Type":"Earthquake","Subtype":"Ground movement","Country":"Mexico","Location":"Mexico city, Michoacan","Latitude":"18.048","Longitude":"-102.084","Country Latitude":23.6585116,"Country Longitude":-102.0077097,"Location Latitude":19.3707735,"Location Longitude":-99.0558831,"Smart Coords":"[{\"Lat\": 23.6585116, \"Lng\": -102.0077097}, {\"Lat\": 19.207098, \"Lng\": -101.878113}]","Start Year":1981,"Start Month":10.0,"Start Day":24.0,"End Year":1981,"End Month":10.0,"End Day":24.0,"Total Affected":28.0,"Total Deaths":3.0},{"Year":1981,"Type":"Storm","Subtype":"Tropical cyclone","Country":"Mexico","Location":"Sinaloa state","Latitude":null,"Longitude":null,"Country Latitude":23.6585116,"Country Longitude":-102.0077097,"Location Latitude":19.6162255,"Location Longitude":-99.3459172,"Smart Coords":"[{\"Lat\": 25.0000001, \"Lng\": -107.5000001}]","Start Year":1981,"Start Month":10.0,"Start Day":7.0,"End Year":1981,"End Month":10.0,"End Day":7.0,"Total Affected":null,"Total Deaths":100.0},{"Year":1981,"Type":"Epidemic","Subtype":"Bacterial disease","Country":"Mali","Location":null,"Latitude":null,"Longitude":null,"Country Latitude":16.3700359,"Country Longitude":-2.2900239,"Location Latitude":null,"Location Longitude":null,"Smart Coords":null,"Start Year":1981,"Start Month":2.0,"Start Day":null,"End Year":1981,"End Month":2.0,"End Day":null,"Total Affected":4153.0,"Total Deaths":412.0},{"Year":1981,"Type":"Wildfire","Subtype":"Forest fire","Country":"Myanmar","Location":"Taungdwingyi, central Burma","Latitude":null,"Longitude":null,"Country Latitude":17.1750495,"Country Longitude":95.9999652,"Location Latitude":null,"Location Longitude":null,"Smart Coords":"[{\"Lat\": 20.001873, \"Lng\": 95.546135}, {\"Lat\": 21.9938515, \"Lng\": 96.0745983}]","Start Year":1981,"Start Month":4.0,"Start Day":11.0,"End Year":1981,"End Month":4.0,"End Day":11.0,"Total Affected":48588.0,"Total Deaths":8.0},{"Year":1981,"Type":"Drought","Subtype":"Drought","Country":"Mozambique","Location":"South, Central, Maputo, Gaza, Inhambane, Manica, Sofala, Zambezi","Latitude":null,"Longitude":null,"Country Latitude":-19.302233,"Country Longitude":34.9144977,"Location Latitude":null,"Location Longitude":null,"Smart Coords":"[{\"Lat\": -25.966213, \"Lng\": 32.56745}, {\"Lat\": -23.328398, \"Lng\": 32.8066057}, {\"Lat\": -22.779116, \"Lng\": 34.5661741}, {\"Lat\": -19.0400995, \"Lng\": 33.4318137}, {\"Lat\": -19.0771666, \"Lng\": 34.7164804}, {\"Lat\": -18.7261804, \"Lng\": 36.2460302}]","Start Year":1981,"Start Month":null,"Start Day":null,"End Year":1985,"End Month":null,"End Day":null,"Total Affected":4750000.0,"Total Deaths":100000.0},{"Year":1981,"Type":"Flood","Subtype":null,"Country":"Mozambique","Location":null,"Latitude":null,"Longitude":null,"Country Latitude":-19.302233,"Country Longitude":34.9144977,"Location Latitude":null,"Location Longitude":null,"Smart Coords":null,"Start Year":1981,"Start Month":2.0,"Start Day":null,"End Year":1981,"End Month":2.0,"End Day":null,"Total Affected":500000.0,"Total Deaths":null},{"Year":1981,"Type":"Drought","Subtype":"Drought","Country":"Namibia","Location":null,"Latitude":null,"Longitude":null,"Country Latitude":-23.2335499,"Country Longitude":17.3231107,"Location Latitude":null,"Location Longitude":null,"Smart Coords":null,"Start Year":1982,"Start Month":4.0,"Start Day":null,"End Year":1984,"End Month":null,"End Day":null,"Total Affected":null,"Total Deaths":null},{"Year":1981,"Type":"Storm","Subtype":"Tropical cyclone","Country":"New Caledonia","Location":"Houailou (Grande Terre)","Latitude":null,"Longitude":null,"Country Latitude":-21.3019905,"Country Longitude":165.4880773,"Location Latitude":null,"Location Longitude":null,"Smart Coords":null,"Start Year":1981,"Start Month":2.0,"Start Day":11.0,"End Year":1981,"End Month":2.0,"End Day":11.0,"Total Affected":2000.0,"Total Deaths":1.0},{"Year":1981,"Type":"Storm","Subtype":"Tropical cyclone","Country":"New Caledonia","Location":"Belep","Latitude":null,"Longitude":null,"Country Latitude":-21.3019905,"Country Longitude":165.4880773,"Location Latitude":null,"Location Longitude":null,"Smart Coords":null,"Start Year":1981,"Start Month":3.0,"Start Day":5.0,"End Year":1981,"End Month":3.0,"End Day":5.0,"Total Affected":null,"Total Deaths":null},{"Year":1981,"Type":"Storm","Subtype":"Tropical cyclone","Country":"New Caledonia","Location":null,"Latitude":null,"Longitude":null,"Country Latitude":-21.3019905,"Country Longitude":165.4880773,"Location Latitude":null,"Location Longitude":null,"Smart Coords":null,"Start Year":1981,"Start Month":12.0,"Start Day":23.0,"End Year":1981,"End Month":12.0,"End Day":23.0,"Total Affected":null,"Total Deaths":3.0},{"Year":1981,"Type":"Drought","Subtype":"Drought","Country":"Nigeria","Location":"North, central, south","Latitude":null,"Longitude":null,"Country Latitude":9.6000359,"Country Longitude":7.9999721,"Location Latitude":null,"Location Longitude":null,"Smart Coords":null,"Start Year":1983,"Start Month":6.0,"Start Day":null,"End Year":1985,"End Month":null,"End Day":null,"Total Affected":3000000.0,"Total Deaths":null},{"Year":1981,"Type":"Flood","Subtype":"Flash flood","Country":"Nepal","Location":"North","Latitude":null,"Longitude":null,"Country Latitude":28.1083929,"Country Longitude":84.0917139,"Location Latitude":null,"Location Longitude":null,"Smart Coords":null,"Start Year":1981,"Start Month":7.0,"Start Day":13.0,"End Year":1981,"End Month":7.0,"End Day":13.0,"Total Affected":null,"Total Deaths":100.0},{"Year":1981,"Type":"Flood","Subtype":"Flash flood","Country":"Nepal","Location":null,"Latitude":null,"Longitude":null,"Country Latitude":28.1083929,"Country Longitude":84.0917139,"Location Latitude":null,"Location Longitude":null,"Smart Coords":null,"Start Year":1981,"Start Month":9.0,"Start Day":29.0,"End Year":1981,"End Month":9.0,"End Day":29.0,"Total Affected":10000.0,"Total Deaths":650.0},{"Year":1981,"Type":"Flood","Subtype":null,"Country":"New Zealand","Location":"Paeroa Borough, Ohinemuri county","Latitude":null,"Longitude":null,"Country Latitude":-41.5000831,"Country Longitude":172.8344077,"Location Latitude":null,"Location Longitude":null,"Smart Coords":"[{\"Lat\": -37.3804671, \"Lng\": 175.6704263}, {\"Lat\": -37.4109442, \"Lng\": 175.7732904}]","Start Year":1981,"Start Month":4.0,"Start Day":12.0,"End Year":1981,"End Month":4.0,"End Day":12.0,"Total Affected":2250.0,"Total Deaths":null},{"Year":1981,"Type":"Storm","Subtype":null,"Country":"Oman","Location":null,"Latitude":null,"Longitude":null,"Country Latitude":21.0000287,"Country Longitude":57.0036901,"Location Latitude":null,"Location Longitude":null,"Smart Coords":null,"Start Year":1981,"Start Month":5.0,"Start Day":8.0,"End Year":1981,"End Month":5.0,"End Day":8.0,"Total Affected":null,"Total Deaths":26.0},{"Year":1981,"Type":"Storm","Subtype":"Convective storm","Country":"Pakistan","Location":"Gujranwala, Sheikhupura districts","Latitude":null,"Longitude":null,"Country Latitude":30.3308401,"Country Longitude":71.247499,"Location Latitude":null,"Location Longitude":null,"Smart Coords":"[{\"Lat\": 32.1525312, \"Lng\": 74.1933745}, {\"Lat\": 31.7085285, \"Lng\": 73.9864014}]","Start Year":1981,"Start Month":3.0,"Start Day":10.0,"End Year":1981,"End Month":3.0,"End Day":10.0,"Total Affected":600.0,"Total Deaths":56.0},{"Year":1981,"Type":"Earthquake","Subtype":"Ground movement","Country":"Pakistan","Location":"Koshkak","Latitude":"29.856","Longitude":"66.962","Country Latitude":30.3308401,"Country Longitude":71.247499,"Location Latitude":null,"Location Longitude":null,"Smart Coords":null,"Start Year":1981,"Start Month":12.0,"Start Day":12.0,"End Year":1981,"End Month":12.0,"End Day":12.0,"Total Affected":237.0,"Total Deaths":6.0},{"Year":1981,"Type":"Flood","Subtype":"Flash flood","Country":"Pakistan","Location":"North regions","Latitude":null,"Longitude":null,"Country Latitude":30.3308401,"Country Longitude":71.247499,"Location Latitude":null,"Location Longitude":null,"Smart Coords":null,"Start Year":1981,"Start Month":7.0,"Start Day":24.0,"End Year":1981,"End Month":7.0,"End Day":24.0,"Total Affected":null,"Total Deaths":82.0},{"Year":1981,"Type":"Earthquake","Subtype":"Ground movement","Country":"Peru","Location":"Ayacucho, Huancavelica","Latitude":"-13.166","Longitude":"-74.522","Country Latitude":-6.8699697,"Country Longitude":-75.0458515,"Location Latitude":-13.0805542,"Location Longitude":-74.2281629,"Smart Coords":"[{\"Lat\": -14.0, \"Lng\": -74.0}, {\"Lat\": -13.0, \"Lng\": -75.0}]","Start Year":1981,"Start Month":6.0,"Start Day":22.0,"End Year":1981,"End Month":6.0,"End Day":22.0,"Total Affected":12256.0,"Total Deaths":10.0},{"Year":1981,"Type":"Earthquake","Subtype":"Ground movement","Country":"Peru","Location":"Ayacucho area","Latitude":"-13.144","Longitude":"-74.376","Country Latitude":-6.8699697,"Country Longitude":-75.0458515,"Location Latitude":-11.9883047,"Location Longitude":-77.019074,"Smart Coords":"[{\"Lat\": -14.0, \"Lng\": -74.0}]","Start Year":1981,"Start Month":4.0,"Start Day":18.0,"End Year":1981,"End Month":4.0,"End Day":18.0,"Total Affected":15.0,"Total Deaths":8.0},{"Year":1981,"Type":"Landslide","Subtype":"Landslide","Country":"Peru","Location":"Yanacocha","Latitude":null,"Longitude":null,"Country Latitude":-6.8699697,"Country Longitude":-75.0458515,"Location Latitude":-12.8445496,"Location Longitude":-74.5268498,"Smart Coords":null,"Start Year":1981,"Start Month":12.0,"Start Day":31.0,"End Year":1981,"End Month":12.0,"End Day":31.0,"Total Affected":null,"Total Deaths":70.0},{"Year":1981,"Type":"Flood","Subtype":null,"Country":"Peru","Location":"Central mountains","Latitude":null,"Longitude":null,"Country Latitude":-6.8699697,"Country Longitude":-75.0458515,"Location Latitude":null,"Location Longitude":null,"Smart Coords":null,"Start Year":1981,"Start Month":3.0,"Start Day":13.0,"End Year":1981,"End Month":3.0,"End Day":13.0,"Total Affected":5000.0,"Total Deaths":70.0},{"Year":1981,"Type":"Flood","Subtype":"Flash flood","Country":"Philippines","Location":"Maco, Davao del Norte","Latitude":null,"Longitude":null,"Country Latitude":12.7503486,"Country Longitude":122.7312101,"Location Latitude":null,"Location Longitude":null,"Smart Coords":"[{\"Lat\": 7.3624048, \"Lng\": 125.8579543}, {\"Lat\": 7.6179228, \"Lng\": 125.6832687}]","Start Year":1981,"Start Month":10.0,"Start Day":9.0,"End Year":1981,"End Month":10.0,"End Day":9.0,"Total Affected":122.0,"Total Deaths":125.0},{"Year":1981,"Type":"Landslide","Subtype":"Landslide","Country":"Philippines","Location":null,"Latitude":null,"Longitude":null,"Country Latitude":12.7503486,"Country Longitude":122.7312101,"Location Latitude":null,"Location Longitude":null,"Smart Coords":null,"Start Year":1981,"Start Month":10.0,"Start Day":null,"End Year":1981,"End Month":10.0,"End Day":null,"Total Affected":null,"Total Deaths":200.0},{"Year":1981,"Type":"Storm","Subtype":"Tropical cyclone","Country":"Philippines","Location":"Oriental Mindoro","Latitude":null,"Longitude":null,"Country Latitude":12.7503486,"Country Longitude":122.7312101,"Location Latitude":13.2,"Location Longitude":121.2,"Smart Coords":"[{\"Lat\": 13.2, \"Lng\": 121.2}]","Start Year":1981,"Start Month":7.0,"Start Day":4.0,"End Year":1981,"End Month":7.0,"End Day":4.0,"Total Affected":28500.0,"Total Deaths":null},{"Year":1981,"Type":"Storm","Subtype":"Tropical cyclone","Country":"Philippines","Location":"Northern Luzon","Latitude":null,"Longitude":null,"Country Latitude":12.7503486,"Country Longitude":122.7312101,"Location Latitude":15.4621338,"Location Longitude":120.5857580179,"Smart Coords":null,"Start Year":1981,"Start Month":9.0,"Start Day":20.0,"End Year":1981,"End Month":9.0,"End Day":20.0,"Total Affected":21905.0,"Total Deaths":55.0},{"Year":1981,"Type":"Storm","Subtype":"Tropical cyclone","Country":"Philippines","Location":null,"Latitude":null,"Longitude":null,"Country Latitude":12.7503486,"Country Longitude":122.7312101,"Location Latitude":null,"Location Longitude":null,"Smart Coords":null,"Start Year":1981,"Start Month":11.0,"Start Day":25.0,"End Year":1981,"End Month":11.0,"End Day":25.0,"Total Affected":840173.0,"Total Deaths":261.0},{"Year":1981,"Type":"Storm","Subtype":"Tropical cyclone","Country":"Philippines","Location":"Samar, Mindoro, Luzon","Latitude":null,"Longitude":null,"Country Latitude":12.7503486,"Country Longitude":122.7312101,"Location Latitude":null,"Location Longitude":null,"Smart Coords":"[{\"Lat\": 11.79822185, \"Lng\": 125.16904177391692}, {\"Lat\": 15.5627393, \"Lng\": 120.7465440792776}]","Start Year":1981,"Start Month":12.0,"Start Day":25.0,"End Year":1981,"End Month":12.0,"End Day":25.0,"Total Affected":180000.0,"Total Deaths":250.0},{"Year":1981,"Type":"Storm","Subtype":"Tropical cyclone","Country":"Philippines","Location":null,"Latitude":null,"Longitude":null,"Country Latitude":12.7503486,"Country Longitude":122.7312101,"Location Latitude":null,"Location Longitude":null,"Smart Coords":null,"Start Year":1981,"Start Month":6.0,"Start Day":28.0,"End Year":1981,"End Month":6.0,"End Day":28.0,"Total Affected":15478.0,"Total Deaths":210.0},{"Year":1981,"Type":"Storm","Subtype":"Tropical cyclone","Country":"Philippines","Location":null,"Latitude":null,"Longitude":null,"Country Latitude":12.7503486,"Country Longitude":122.7312101,"Location Latitude":null,"Location Longitude":null,"Smart Coords":null,"Start Year":1981,"Start Month":8.0,"Start Day":16.0,"End Year":1981,"End Month":8.0,"End Day":16.0,"Total Affected":9721.0,"Total Deaths":5.0},{"Year":1981,"Type":"Storm","Subtype":"Tropical cyclone","Country":"Philippines","Location":null,"Latitude":null,"Longitude":null,"Country Latitude":12.7503486,"Country Longitude":122.7312101,"Location Latitude":null,"Location Longitude":null,"Smart Coords":null,"Start Year":1981,"Start Month":11.0,"Start Day":17.0,"End Year":1981,"End Month":11.0,"End Day":17.0,"Total Affected":5736.0,"Total Deaths":4.0},{"Year":1981,"Type":"Flood","Subtype":null,"Country":"Philippines","Location":null,"Latitude":null,"Longitude":null,"Country Latitude":12.7503486,"Country Longitude":122.7312101,"Location Latitude":null,"Location Longitude":null,"Smart Coords":null,"Start Year":1981,"Start Month":1.0,"Start Day":null,"End Year":1981,"End Month":1.0,"End Day":null,"Total Affected":300000.0,"Total Deaths":228.0},{"Year":1981,"Type":"Storm","Subtype":null,"Country":"Philippines","Location":"Albay province","Latitude":null,"Longitude":null,"Country Latitude":12.7503486,"Country Longitude":122.7312101,"Location Latitude":14.2458037,"Location Longitude":121.1669318,"Smart Coords":"[{\"Lat\": 13.216667, \"Lng\": 123.55}]","Start Year":1981,"Start Month":7.0,"Start Day":null,"End Year":1981,"End Month":7.0,"End Day":null,"Total Affected":32.0,"Total Deaths":214.0},{"Year":1981,"Type":"Flood","Subtype":null,"Country":"Philippines","Location":"Lucena","Latitude":null,"Longitude":null,"Country Latitude":12.7503486,"Country Longitude":122.7312101,"Location Latitude":13.9260427,"Location Longitude":121.6141793,"Smart Coords":"[{\"Lat\": 13.9260427, \"Lng\": 121.6141793}]","Start Year":1981,"Start Month":11.0,"Start Day":7.0,"End Year":1981,"End Month":11.0,"End Day":7.0,"Total Affected":7500.0,"Total Deaths":null},{"Year":1981,"Type":"Landslide","Subtype":"Landslide","Country":"Puerto Rico","Location":null,"Latitude":null,"Longitude":null,"Country Latitude":18.2247706,"Country Longitude":-66.4858295,"Location Latitude":null,"Location Longitude":null,"Smart Coords":null,"Start Year":1981,"Start Month":null,"Start Day":null,"End Year":1981,"End Month":null,"End Day":null,"Total Affected":null,"Total Deaths":26.0},{"Year":1981,"Type":"Flood","Subtype":null,"Country":"Portugal","Location":"Lisbon","Latitude":null,"Longitude":null,"Country Latitude":39.6621648,"Country Longitude":-8.1353519,"Location Latitude":38.7077507,"Location Longitude":-9.1365919,"Smart Coords":"[{\"Lat\": 38.7077507, \"Lng\": -9.1365919}]","Start Year":1981,"Start Month":12.0,"Start Day":29.0,"End Year":1981,"End Month":12.0,"End Day":29.0,"Total Affected":900.0,"Total Deaths":30.0},{"Year":1981,"Type":"Flood","Subtype":"Flash flood","Country":"Somalia","Location":"Hiran, Juba provinces","Latitude":null,"Longitude":null,"Country Latitude":8.3676771,"Country Longitude":49.083416,"Location Latitude":null,"Location Longitude":null,"Smart Coords":"[{\"Lat\": 4.3616958, \"Lng\": 45.5333102}]","Start Year":1981,"Start Month":4.0,"Start Day":null,"End Year":1981,"End Month":4.0,"End Day":null,"Total Affected":30000.0,"Total Deaths":5.0},{"Year":1981,"Type":"Drought","Subtype":"Drought","Country":"Eswatini","Location":"Nationwide","Latitude":null,"Longitude":null,"Country Latitude":-26.5624806,"Country Longitude":31.3991317,"Location Latitude":null,"Location Longitude":null,"Smart Coords":null,"Start Year":1983,"Start Month":null,"Start Day":null,"End Year":1983,"End Month":null,"End Day":null,"Total Affected":null,"Total Deaths":500.0},{"Year":1981,"Type":"Storm","Subtype":null,"Country":"Soviet Union","Location":"East","Latitude":null,"Longitude":null,"Country Latitude":52.872309,"Country Longitude":78.615662,"Location Latitude":null,"Location Longitude":null,"Smart Coords":null,"Start Year":1981,"Start Month":8.0,"Start Day":6.0,"End Year":1981,"End Month":8.0,"End Day":6.0,"Total Affected":10000.0,"Total Deaths":null},{"Year":1981,"Type":"Flood","Subtype":null,"Country":"Soviet Union","Location":null,"Latitude":null,"Longitude":null,"Country Latitude":52.872309,"Country Longitude":78.615662,"Location Latitude":null,"Location Longitude":null,"Smart Coords":null,"Start Year":1981,"Start Month":null,"Start Day":null,"End Year":1981,"End Month":null,"End Day":null,"Total Affected":2000.0,"Total Deaths":null},{"Year":1981,"Type":"Storm","Subtype":"Tropical cyclone","Country":"Thailand","Location":"Nan province","Latitude":null,"Longitude":null,"Country Latitude":14.8971921,"Country Longitude":100.83273,"Location Latitude":18.7544594,"Location Longitude":100.624804,"Smart Coords":"[{\"Lat\": 18.7544594, \"Lng\": 100.624804}]","Start Year":1981,"Start Month":7.0,"Start Day":6.0,"End Year":1981,"End Month":7.0,"End Day":6.0,"Total Affected":43000.0,"Total Deaths":null},{"Year":1981,"Type":"Storm","Subtype":null,"Country":"Thailand","Location":"South","Latitude":null,"Longitude":null,"Country Latitude":14.8971921,"Country Longitude":100.83273,"Location Latitude":null,"Location Longitude":null,"Smart Coords":null,"Start Year":1981,"Start Month":12.0,"Start Day":null,"End Year":1981,"End Month":12.0,"End Day":null,"Total Affected":null,"Total Deaths":55.0},{"Year":1981,"Type":"Flood","Subtype":null,"Country":"Turkey","Location":"Western","Latitude":null,"Longitude":null,"Country Latitude":38.9597594,"Country Longitude":34.9249653,"Location Latitude":null,"Location Longitude":null,"Smart Coords":null,"Start Year":1981,"Start Month":12.0,"Start Day":17.0,"End Year":1981,"End Month":12.0,"End Day":17.0,"Total Affected":null,"Total Deaths":10.0},{"Year":1981,"Type":"Storm","Subtype":null,"Country":"Taiwan","Location":"North","Latitude":null,"Longitude":null,"Country Latitude":23.9739374,"Country Longitude":120.9820179,"Location Latitude":null,"Location Longitude":null,"Smart Coords":null,"Start Year":1981,"Start Month":7.0,"Start Day":19.0,"End Year":1981,"End Month":7.0,"End Day":19.0,"Total Affected":null,"Total Deaths":26.0},{"Year":1981,"Type":"Storm","Subtype":"Convective storm","Country":"United States","Location":"Texas, Oklahoma","Latitude":null,"Longitude":null,"Country Latitude":39.7837304,"Country Longitude":-100.445882,"Location Latitude":36.7390314,"Location Longitude":-101.4953594,"Smart Coords":"[{\"Lat\": 31.2638905, \"Lng\": -98.5456116}, {\"Lat\": 34.9550817, \"Lng\": -97.2684063}]","Start Year":1981,"Start Month":5.0,"Start Day":9.0,"End Year":1981,"End Month":5.0,"End Day":9.0,"Total Affected":null,"Total Deaths":20.0},{"Year":1981,"Type":"Storm","Subtype":null,"Country":"United States","Location":"Minnesota, Northern Iowa","Latitude":null,"Longitude":null,"Country Latitude":39.7837304,"Country Longitude":-100.445882,"Location Latitude":null,"Location Longitude":null,"Smart Coords":"[{\"Lat\": 45.9896587, \"Lng\": -94.6113288}, {\"Lat\": 42.51495695, \"Lng\": -92.46295221070967}]","Start Year":1981,"Start Month":6.0,"Start Day":23.0,"End Year":1981,"End Month":6.0,"End Day":23.0,"Total Affected":null,"Total Deaths":null},{"Year":1981,"Type":"Storm","Subtype":null,"Country":"United States","Location":"Texas-Nabarus","Latitude":null,"Longitude":null,"Country Latitude":39.7837304,"Country Longitude":-100.445882,"Location Latitude":null,"Location Longitude":null,"Smart Coords":null,"Start Year":1981,"Start Month":5.0,"Start Day":3.0,"End Year":1981,"End Month":5.0,"End Day":3.0,"Total Affected":null,"Total Deaths":10.0},{"Year":1981,"Type":"Flood","Subtype":null,"Country":"United States","Location":null,"Latitude":null,"Longitude":null,"Country Latitude":39.7837304,"Country Longitude":-100.445882,"Location Latitude":null,"Location Longitude":null,"Smart Coords":null,"Start Year":1981,"Start Month":null,"Start Day":null,"End Year":1981,"End Month":null,"End Day":null,"Total Affected":null,"Total Deaths":30.0},{"Year":1981,"Type":"Landslide","Subtype":"Mudslide","Country":"Venezuela, Bolivarian Republic of","Location":"Caracas","Latitude":null,"Longitude":null,"Country Latitude":8.0018709,"Country Longitude":-66.1109318,"Location Latitude":10.5060934,"Location Longitude":-66.9146008,"Smart Coords":"[{\"Lat\": 10.5060934, \"Lng\": -66.9146008}]","Start Year":1981,"Start Month":4.0,"Start Day":null,"End Year":1981,"End Month":4.0,"End Day":null,"Total Affected":4000.0,"Total Deaths":20.0},{"Year":1981,"Type":"Storm","Subtype":"Tropical cyclone","Country":"Vanuatu","Location":null,"Latitude":null,"Longitude":null,"Country Latitude":-16.5255069,"Country Longitude":168.1069154,"Location Latitude":null,"Location Longitude":null,"Smart Coords":null,"Start Year":1981,"Start Month":2.0,"Start Day":11.0,"End Year":1981,"End Month":2.0,"End Day":11.0,"Total Affected":null,"Total Deaths":null},{"Year":1981,"Type":"Storm","Subtype":"Tropical cyclone","Country":"Vanuatu","Location":"Northern Isl., West Santo","Latitude":null,"Longitude":null,"Country Latitude":-16.5255069,"Country Longitude":168.1069154,"Location Latitude":null,"Location Longitude":null,"Smart Coords":null,"Start Year":1981,"Start Month":12.0,"Start Day":12.0,"End Year":1981,"End Month":12.0,"End Day":12.0,"Total Affected":null,"Total Deaths":null},{"Year":1981,"Type":"Flood","Subtype":"Flash flood","Country":"Yemen P Dem Rep","Location":"Abyan","Latitude":null,"Longitude":null,"Country Latitude":16.120584,"Country Longitude":48.932668,"Location Latitude":null,"Location Longitude":null,"Smart Coords":"[{\"Lat\": 13.786202, \"Lng\": 46.141766}]","Start Year":1981,"Start Month":9.0,"Start Day":null,"End Year":1981,"End Month":9.0,"End Day":null,"Total Affected":3000.0,"Total Deaths":null},{"Year":1981,"Type":"Flood","Subtype":null,"Country":"Yemen P Dem Rep","Location":null,"Latitude":null,"Longitude":null,"Country Latitude":16.120584,"Country Longitude":48.932668,"Location Latitude":null,"Location Longitude":null,"Smart Coords":null,"Start Year":1981,"Start Month":3.0,"Start Day":null,"End Year":1981,"End Month":3.0,"End Day":null,"Total Affected":12000.0,"Total Deaths":null},{"Year":1981,"Type":"Earthquake","Subtype":"Ground movement","Country":"Yugoslavia","Location":"Banja Luka (Bosnia and Herzegovina)","Latitude":"44.849","Longitude":"17.312","Country Latitude":44.30017,"Country Longitude":18.979612,"Location Latitude":null,"Location Longitude":null,"Smart Coords":null,"Start Year":1981,"Start Month":8.0,"Start Day":13.0,"End Year":1981,"End Month":8.0,"End Day":13.0,"Total Affected":44.0,"Total Deaths":null},{"Year":1981,"Type":"Flood","Subtype":null,"Country":"Yugoslavia","Location":"Northeastern (Serbia)","Latitude":null,"Longitude":null,"Country Latitude":44.30017,"Country Longitude":18.979612,"Location Latitude":null,"Location Longitude":null,"Smart Coords":null,"Start Year":1981,"Start Month":3.0,"Start Day":23.0,"End Year":1981,"End Month":3.0,"End Day":23.0,"Total Affected":null,"Total Deaths":70.0},{"Year":1981,"Type":"Drought","Subtype":"Drought","Country":"South Africa","Location":"Countrywide, Transvaal, Orange Free, Natal states","Latitude":null,"Longitude":null,"Country Latitude":-28.8166236,"Country Longitude":24.991639,"Location Latitude":null,"Location Longitude":null,"Smart Coords":null,"Start Year":1982,"Start Month":3.0,"Start Day":null,"End Year":1983,"End Month":null,"End Day":null,"Total Affected":null,"Total Deaths":null},{"Year":1981,"Type":"Flood","Subtype":null,"Country":"South Africa","Location":"Laingsburg, Cape province","Latitude":null,"Longitude":null,"Country Latitude":-28.8166236,"Country Longitude":24.991639,"Location Latitude":-33.195,"Location Longitude":20.859167,"Smart Coords":null,"Start Year":1981,"Start Month":1.0,"Start Day":null,"End Year":1981,"End Month":1.0,"End Day":null,"Total Affected":185.0,"Total Deaths":104.0},{"Year":1981,"Type":"Drought","Subtype":"Drought","Country":"Zambia","Location":"south, west and central","Latitude":null,"Longitude":null,"Country Latitude":-14.5189121,"Country Longitude":27.5589884,"Location Latitude":null,"Location Longitude":null,"Smart Coords":"[{\"Lat\": -14.183507, \"Lng\": 29.0375543}]","Start Year":1982,"Start Month":1.0,"Start Day":null,"End Year":1982,"End Month":null,"End Day":null,"Total Affected":null,"Total Deaths":null},{"Year":1981,"Type":"Drought","Subtype":"Drought","Country":"Zimbabwe","Location":"central, south east and west","Latitude":null,"Longitude":null,"Country Latitude":-18.4554963,"Country Longitude":29.7468414,"Location Latitude":null,"Location Longitude":null,"Smart Coords":null,"Start Year":1982,"Start Month":10.0,"Start Day":null,"End Year":1984,"End Month":null,"End Day":null,"Total Affected":null,"Total Deaths":null}]