[{"Year":1905,"Type":"Mass movement (dry)","Subtype":"Rockfall","Country":"Canada","Location":"Spence's Bridge, British Columbia","Latitude":null,"Longitude":null,"Country Latitude":61.0666922,"Country Longitude":-107.991707,"Location Latitude":null,"Location Longitude":null,"Smart Coords":"[{\"Lat\": 55.001251, \"Lng\": -125.002441}]","Start Year":1905,"Start Month":8.0,"Start Day":13.0,"End Year":1905,"End Month":8.0,"End Day":13.0,"Total Affected":18.0,"Total Deaths":18.0},{"Year":1905,"Type":"Earthquake","Subtype":"Ground movement","Country":"India","Location":"Kangra","Latitude":"32.04","Longitude":"76.16","Country Latitude":22.3511148,"Country Longitude":78.6677428,"Location Latitude":32.166667,"Location Longitude":76.25,"Smart Coords":"[{\"Lat\": 32.166667, \"Lng\": 76.25}]","Start Year":1905,"Start Month":4.0,"Start Day":4.0,"End Year":1905,"End Month":4.0,"End Day":4.0,"Total Affected":null,"Total Deaths":20000.0},{"Year":1905,"Type":"Earthquake","Subtype":"Tsunami","Country":"Japan","Location":"Fukushima","Latitude":"37.4","Longitude":"142.6","Country Latitude":36.5748441,"Country Longitude":139.2394179,"Location Latitude":37.75454,"Location Longitude":140.4592144,"Smart Coords":"[{\"Lat\": 37.75454, \"Lng\": 140.4592144}]","Start Year":1907,"Start Month":7.0,"Start Day":7.0,"End Year":1907,"End Month":7.0,"End Day":7.0,"Total Affected":null,"Total Deaths":41.0},{"Year":1905,"Type":"Earthquake","Subtype":"Ground movement","Country":"Italy","Location":"MONTELEONE, TROPEA, MONTE PORO (Calabria)","Latitude":"38.67","Longitude":"16.07","Country Latitude":42.6384261,"Country Longitude":12.674297,"Location Latitude":null,"Location Longitude":null,"Smart Coords":null,"Start Year":1905,"Start Month":9.0,"Start Day":8.0,"End Year":1905,"End Month":9.0,"End Day":8.0,"Total Affected":22100.0,"Total Deaths":557.0},{"Year":1905,"Type":"Storm","Subtype":"Tropical cyclone","Country":"Philippines","Location":"Central","Latitude":null,"Longitude":null,"Country Latitude":12.7503486,"Country Longitude":122.7312101,"Location Latitude":14.5927991,"Location Longitude":120.9816188455,"Smart Coords":null,"Start Year":1905,"Start Month":9.0,"Start Day":21.0,"End Year":1905,"End Month":9.0,"End Day":21.0,"Total Affected":null,"Total Deaths":240.0},{"Year":1905,"Type":"Earthquake","Subtype":"Ground movement","Country":"Albania","Location":"Shkoder","Latitude":"42.1","Longitude":"19600","Country Latitude":41.000028,"Country Longitude":19.9999619,"Location Latitude":42.0681371,"Location Longitude":19.5121437,"Smart Coords":"[{\"Lat\": 42.0681371, \"Lng\": 19.5121437}]","Start Year":1905,"Start Month":6.0,"Start Day":1.0,"End Year":1905,"End Month":6.0,"End Day":1.0,"Total Affected":null,"Total Deaths":120.0},{"Year":1905,"Type":"Earthquake","Subtype":"Ground movement","Country":"China","Location":"Sichuan province","Latitude":"29.3","Longitude":"104.8","Country Latitude":35.000074,"Country Longitude":104.999927,"Location Latitude":30.5000001,"Location Longitude":102.4999999,"Smart Coords":"[{\"Lat\": 30.5000001, \"Lng\": 102.4999999}]","Start Year":1905,"Start Month":11.0,"Start Day":8.0,"End Year":1905,"End Month":11.0,"End Day":8.0,"Total Affected":null,"Total Deaths":null},{"Year":1905,"Type":"Earthquake","Subtype":"Ground movement","Country":"Japan","Location":"Aki","Latitude":"34","Longitude":"132","Country Latitude":36.5748441,"Country Longitude":139.2394179,"Location Latitude":34.4296985,"Location Longitude":132.4856905753,"Smart Coords":null,"Start Year":1905,"Start Month":6.0,"Start Day":2.0,"End Year":1905,"End Month":6.0,"End Day":2.0,"Total Affected":177.0,"Total Deaths":11.0}]