[{"Year":1949,"Type":"Earthquake","Subtype":"Ground movement","Country":"Ecuador","Location":"Pelileo, Ambato","Latitude":"-1.5","Longitude":"-78.2","Country Latitude":-1.3397668,"Country Longitude":-79.3666965,"Location Latitude":-1.2658313,"Location Longitude":-78.6830172,"Smart Coords":null,"Start Year":1949,"Start Month":8.0,"Start Day":5.0,"End Year":1949,"End Month":8.0,"End Day":5.0,"Total Affected":100000.0,"Total Deaths":6000.0},{"Year":1949,"Type":"Earthquake","Subtype":"Ground movement","Country":"Chile","Location":"Angol, Traiguan","Latitude":"-38","Longitude":"-73.5","Country Latitude":-31.7613365,"Country Longitude":-71.3187697,"Location Latitude":null,"Location Longitude":null,"Smart Coords":null,"Start Year":1949,"Start Month":4.0,"Start Day":19.0,"End Year":1949,"End Month":4.0,"End Day":19.0,"Total Affected":155.0,"Total Deaths":35.0},{"Year":1949,"Type":"Earthquake","Subtype":"Ground movement","Country":"Chile","Location":"Tierra del Fuego","Latitude":"-54","Longitude":"-71","Country Latitude":-31.7613365,"Country Longitude":-71.3187697,"Location Latitude":-53.75547945,"Location Longitude":-68.9332570951,"Smart Coords":null,"Start Year":1949,"Start Month":12.0,"Start Day":17.0,"End Year":1949,"End Month":12.0,"End Day":17.0,"Total Affected":18.0,"Total Deaths":6.0},{"Year":1949,"Type":"Storm","Subtype":null,"Country":"Brazil","Location":null,"Latitude":null,"Longitude":null,"Country Latitude":-10.3333333,"Country Longitude":-53.2,"Location Latitude":null,"Location Longitude":null,"Smart Coords":null,"Start Year":1949,"Start Month":5.0,"Start Day":null,"End Year":1949,"End Month":5.0,"End Day":null,"Total Affected":null,"Total Deaths":100.0},{"Year":1949,"Type":"Flood","Subtype":null,"Country":"China","Location":null,"Latitude":null,"Longitude":null,"Country Latitude":35.000074,"Country Longitude":104.999927,"Location Latitude":null,"Location Longitude":null,"Smart Coords":null,"Start Year":1949,"Start Month":7.0,"Start Day":null,"End Year":1949,"End Month":7.0,"End Day":null,"Total Affected":null,"Total Deaths":57000.0},{"Year":1949,"Type":"Volcanic activity","Subtype":"Ash fall","Country":"Colombia","Location":null,"Latitude":null,"Longitude":null,"Country Latitude":4.099917,"Country Longitude":-72.9088133,"Location Latitude":null,"Location Longitude":null,"Smart Coords":null,"Start Year":1949,"Start Month":null,"Start Day":null,"End Year":1949,"End Month":null,"End Day":null,"Total Affected":null,"Total Deaths":1000.0},{"Year":1949,"Type":"Wildfire","Subtype":null,"Country":"France","Location":"Landes","Latitude":null,"Longitude":null,"Country Latitude":46.603354,"Country Longitude":1.8883335,"Location Latitude":44.00996945,"Location Longitude":-0.6433872354,"Smart Coords":"[{\"Lat\": 46.51572055, \"Lng\": 4.677836595952956}, {\"Lat\": 43.0174862, \"Lng\": 0.3737441}]","Start Year":1949,"Start Month":8.0,"Start Day":null,"End Year":1949,"End Month":8.0,"End Day":null,"Total Affected":null,"Total Deaths":80.0},{"Year":1949,"Type":"Flood","Subtype":null,"Country":"Guatemala","Location":"East","Latitude":null,"Longitude":null,"Country Latitude":15.5855545,"Country Longitude":-90.345759,"Location Latitude":null,"Location Longitude":null,"Smart Coords":null,"Start Year":1949,"Start Month":10.0,"Start Day":null,"End Year":1949,"End Month":10.0,"End Day":null,"Total Affected":null,"Total Deaths":40000.0},{"Year":1949,"Type":"Storm","Subtype":"Tropical cyclone","Country":"India","Location":"East & West Godavari districts, Masulipatnam","Latitude":null,"Longitude":null,"Country Latitude":22.3511148,"Country Longitude":78.6677428,"Location Latitude":null,"Location Longitude":null,"Smart Coords":"[{\"Lat\": 19.4603615, \"Lng\": 72.81140976928096}]","Start Year":1949,"Start Month":10.0,"Start Day":27.0,"End Year":1949,"End Month":10.0,"End Day":27.0,"Total Affected":null,"Total Deaths":1000.0},{"Year":1949,"Type":"Storm","Subtype":"Tropical cyclone","Country":"Japan","Location":"Western Japan","Latitude":null,"Longitude":null,"Country Latitude":36.5748441,"Country Longitude":139.2394179,"Location Latitude":43.7808754,"Location Longitude":142.3382059791,"Smart Coords":"[{\"Lat\": 35.663972, \"Lng\": 139.8713358}]","Start Year":1949,"Start Month":6.0,"Start Day":null,"End Year":1949,"End Month":6.0,"End Day":null,"Total Affected":194046.0,"Total Deaths":419.0},{"Year":1949,"Type":"Storm","Subtype":"Tropical cyclone","Country":"Japan","Location":null,"Latitude":null,"Longitude":null,"Country Latitude":36.5748441,"Country Longitude":139.2394179,"Location Latitude":null,"Location Longitude":null,"Smart Coords":null,"Start Year":1949,"Start Month":7.0,"Start Day":null,"End Year":1949,"End Month":7.0,"End Day":null,"Total Affected":null,"Total Deaths":38.0},{"Year":1949,"Type":"Storm","Subtype":"Tropical cyclone","Country":"Japan","Location":null,"Latitude":null,"Longitude":null,"Country Latitude":36.5748441,"Country Longitude":139.2394179,"Location Latitude":null,"Location Longitude":null,"Smart Coords":null,"Start Year":1949,"Start Month":9.0,"Start Day":null,"End Year":1949,"End Month":9.0,"End Day":null,"Total Affected":null,"Total Deaths":160.0},{"Year":1949,"Type":"Volcanic activity","Subtype":"Ash fall","Country":"Mexico","Location":null,"Latitude":null,"Longitude":null,"Country Latitude":23.6585116,"Country Longitude":-102.0077097,"Location Latitude":null,"Location Longitude":null,"Smart Coords":null,"Start Year":1949,"Start Month":null,"Start Day":null,"End Year":1949,"End Month":null,"End Day":null,"Total Affected":null,"Total Deaths":1000.0},{"Year":1949,"Type":"Storm","Subtype":"Tropical cyclone","Country":"Philippines","Location":"Cebu City, Negros, Panay","Latitude":null,"Longitude":null,"Country Latitude":12.7503486,"Country Longitude":122.7312101,"Location Latitude":null,"Location Longitude":null,"Smart Coords":"[{\"Lat\": 10.2931062, \"Lng\": 123.9020773}, {\"Lat\": 10.0206654, \"Lng\": 122.97715983111424}, {\"Lat\": 11.1728123, \"Lng\": 122.55576877103717}]","Start Year":1949,"Start Month":10.0,"Start Day":31.0,"End Year":1949,"End Month":10.0,"End Day":31.0,"Total Affected":null,"Total Deaths":1000.0},{"Year":1949,"Type":"Earthquake","Subtype":"Ground movement","Country":"Soviet Union","Location":"Tadzhik (Tajikistan)","Latitude":"39.2","Longitude":"70.8","Country Latitude":52.872309,"Country Longitude":78.615662,"Location Latitude":null,"Location Longitude":null,"Smart Coords":null,"Start Year":1949,"Start Month":7.0,"Start Day":10.0,"End Year":1949,"End Month":7.0,"End Day":10.0,"Total Affected":null,"Total Deaths":3500.0},{"Year":1949,"Type":"Landslide","Subtype":null,"Country":"Soviet Union","Location":"Khait (Tadzhikistan)","Latitude":null,"Longitude":null,"Country Latitude":52.872309,"Country Longitude":78.615662,"Location Latitude":null,"Location Longitude":null,"Smart Coords":"[{\"Lat\": 25.242999, \"Lng\": 49.084026}]","Start Year":1949,"Start Month":null,"Start Day":null,"End Year":1949,"End Month":null,"End Day":null,"Total Affected":null,"Total Deaths":12000.0},{"Year":1949,"Type":"Earthquake","Subtype":"Ground movement","Country":"Turkey","Location":"Karliova (Anatolia)","Latitude":"39","Longitude":"40.5","Country Latitude":38.9597594,"Country Longitude":34.9249653,"Location Latitude":39.2945998,"Location Longitude":41.0102383,"Smart Coords":null,"Start Year":1949,"Start Month":8.0,"Start Day":17.0,"End Year":1949,"End Month":8.0,"End Day":17.0,"Total Affected":355.0,"Total Deaths":320.0},{"Year":1949,"Type":"Earthquake","Subtype":"Ground movement","Country":"United States","Location":"Puget Sound, Olympia (Washington state)","Latitude":"47.167","Longitude":"-122.617","Country Latitude":39.7837304,"Country Longitude":-100.445882,"Location Latitude":47.0458426,"Location Longitude":-122.898766,"Smart Coords":null,"Start Year":1949,"Start Month":4.0,"Start Day":13.0,"End Year":1949,"End Month":4.0,"End Day":13.0,"Total Affected":null,"Total Deaths":8.0},{"Year":1949,"Type":"Storm","Subtype":null,"Country":"United States","Location":null,"Latitude":null,"Longitude":null,"Country Latitude":39.7837304,"Country Longitude":-100.445882,"Location Latitude":null,"Location Longitude":null,"Smart Coords":null,"Start Year":1949,"Start Month":1.0,"Start Day":null,"End Year":1949,"End Month":1.0,"End Day":null,"Total Affected":null,"Total Deaths":59.0},{"Year":1949,"Type":"Storm","Subtype":null,"Country":"United States","Location":null,"Latitude":null,"Longitude":null,"Country Latitude":39.7837304,"Country Longitude":-100.445882,"Location Latitude":null,"Location Longitude":null,"Smart Coords":null,"Start Year":1949,"Start Month":3.0,"Start Day":null,"End Year":1949,"End Month":3.0,"End Day":null,"Total Affected":null,"Total Deaths":28.0},{"Year":1949,"Type":"Earthquake","Subtype":"Ground movement","Country":"China","Location":"Xinjiang province","Latitude":"42","Longitude":"84","Country Latitude":35.000074,"Country Longitude":104.999927,"Location Latitude":35.6250478,"Location Longitude":111.2209922,"Smart Coords":"[{\"Lat\": 42.4804953, \"Lng\": 85.4633464}]","Start Year":1949,"Start Month":2.0,"Start Day":23.0,"End Year":1949,"End Month":2.0,"End Day":23.0,"Total Affected":5067.0,"Total Deaths":21.0}]