[{"Year":1903,"Type":"Mass movement (dry)","Subtype":"Rockfall","Country":"Canada","Location":"Frank, Alberta","Latitude":null,"Longitude":null,"Country Latitude":61.0666922,"Country Longitude":-107.991707,"Location Latitude":49.6016471,"Location Longitude":-114.406023,"Smart Coords":"[{\"Lat\": 55.001251, \"Lng\": -115.002136}]","Start Year":1903,"Start Month":4.0,"Start Day":29.0,"End Year":1903,"End Month":4.0,"End Day":29.0,"Total Affected":23.0,"Total Deaths":76.0},{"Year":1903,"Type":"Volcanic activity","Subtype":"Ash fall","Country":"Comoros","Location":null,"Latitude":null,"Longitude":null,"Country Latitude":-12.2045176,"Country Longitude":44.2832964,"Location Latitude":null,"Location Longitude":null,"Smart Coords":null,"Start Year":1903,"Start Month":null,"Start Day":null,"End Year":1903,"End Month":null,"End Day":null,"Total Affected":null,"Total Deaths":17.0},{"Year":1903,"Type":"Storm","Subtype":"Tropical cyclone","Country":"Jamaica","Location":"North coast","Latitude":null,"Longitude":null,"Country Latitude":18.1850507,"Country Longitude":-77.3947693,"Location Latitude":null,"Location Longitude":null,"Smart Coords":null,"Start Year":1903,"Start Month":8.0,"Start Day":10.0,"End Year":1903,"End Month":8.0,"End Day":10.0,"Total Affected":null,"Total Deaths":65.0},{"Year":1903,"Type":"Drought","Subtype":"Drought","Country":"Niger","Location":"Tahoua area","Latitude":null,"Longitude":null,"Country Latitude":17.7356214,"Country Longitude":9.3238432,"Location Latitude":14.6351301,"Location Longitude":6.1426381969,"Smart Coords":"[{\"Lat\": 16.1576745, \"Lng\": 5.328265237903225}]","Start Year":1903,"Start Month":null,"Start Day":null,"End Year":1903,"End Month":null,"End Day":null,"Total Affected":null,"Total Deaths":null},{"Year":1903,"Type":"Earthquake","Subtype":"Ground movement","Country":"Turkey","Location":"Malazgirt","Latitude":"39.09","Longitude":"42.3","Country Latitude":38.9597594,"Country Longitude":34.9249653,"Location Latitude":39.1461406,"Location Longitude":42.5409459,"Smart Coords":null,"Start Year":1903,"Start Month":4.0,"Start Day":29.0,"End Year":1903,"End Month":4.0,"End Day":29.0,"Total Affected":60000.0,"Total Deaths":3560.0},{"Year":1903,"Type":"Storm","Subtype":"Convective storm","Country":"United States","Location":"Gainesville (Georgia)","Latitude":null,"Longitude":null,"Country Latitude":39.7837304,"Country Longitude":-100.445882,"Location Latitude":34.2978794,"Location Longitude":-83.8240663,"Smart Coords":"[{\"Lat\": 29.6519684, \"Lng\": -82.3249846}]","Start Year":1903,"Start Month":null,"Start Day":null,"End Year":1903,"End Month":null,"End Day":null,"Total Affected":null,"Total Deaths":98.0},{"Year":1903,"Type":"Flood","Subtype":null,"Country":"United States","Location":"Passaic, Delaware","Latitude":null,"Longitude":null,"Country Latitude":39.7837304,"Country Longitude":-100.445882,"Location Latitude":40.854925,"Location Longitude":-74.139094,"Smart Coords":"[{\"Lat\": 38.6920451, \"Lng\": -75.4013315}]","Start Year":1903,"Start Month":null,"Start Day":null,"End Year":1903,"End Month":null,"End Day":null,"Total Affected":null,"Total Deaths":null},{"Year":1903,"Type":"Flood","Subtype":null,"Country":"United States","Location":"Heppner, Oregon","Latitude":null,"Longitude":null,"Country Latitude":39.7837304,"Country Longitude":-100.445882,"Location Latitude":45.3560636,"Location Longitude":-119.5528279,"Smart Coords":"[{\"Lat\": 43.9792797, \"Lng\": -120.737257}]","Start Year":1903,"Start Month":null,"Start Day":null,"End Year":1903,"End Month":null,"End Day":null,"Total Affected":null,"Total Deaths":250.0},{"Year":1903,"Type":"Earthquake","Subtype":"Ground movement","Country":"Iran, Islamic Republic of","Location":"Kashmar","Latitude":"35.2","Longitude":"58.2","Country Latitude":32.6475314,"Country Longitude":54.5643516,"Location Latitude":35.2444908,"Location Longitude":58.464248,"Smart Coords":null,"Start Year":1903,"Start Month":9.0,"Start Day":25.0,"End Year":1903,"End Month":9.0,"End Day":25.0,"Total Affected":null,"Total Deaths":350.0},{"Year":1903,"Type":"Earthquake","Subtype":"Ground movement","Country":"Israel","Location":"Nabulus","Latitude":"32.2","Longitude":"35.3","Country Latitude":30.8124247,"Country Longitude":34.8594762,"Location Latitude":null,"Location Longitude":null,"Smart Coords":null,"Start Year":1903,"Start Month":3.0,"Start Day":30.0,"End Year":1903,"End Month":3.0,"End Day":30.0,"Total Affected":null,"Total Deaths":20.0},{"Year":1903,"Type":"Earthquake","Subtype":"Ground movement","Country":"Turkey","Location":null,"Latitude":"39.1","Longitude":"42.4","Country Latitude":38.9597594,"Country Longitude":34.9249653,"Location Latitude":null,"Location Longitude":null,"Smart Coords":null,"Start Year":1903,"Start Month":4.0,"Start Day":19.0,"End Year":1903,"End Month":4.0,"End Day":19.0,"Total Affected":null,"Total Deaths":1700.0},{"Year":1903,"Type":"Earthquake","Subtype":"Ground movement","Country":"Turkey","Location":"VARGINIS,CARDAHLI,MEHKEREK","Latitude":"40.9","Longitude":"42.7","Country Latitude":38.9597594,"Country Longitude":34.9249653,"Location Latitude":null,"Location Longitude":null,"Smart Coords":null,"Start Year":1903,"Start Month":5.0,"Start Day":28.0,"End Year":1903,"End Month":5.0,"End Day":28.0,"Total Affected":null,"Total Deaths":1000.0}]