[
    {
        "Year": 1912,
        "Type": "Storm",
        "Subtype": "Convective storm",
        "Country": "Canada",
        "Location": "Regina, Saskatchewan",
        "Latitude": null,
        "Longitude": null,
        "Country Latitude": 61.0666922,
        "Country Longitude": -107.991707,
        "Location Latitude": 50.44876,
        "Location Longitude": -104.61731,
        "Smart Coords": "[{\"Lat\": 55.5321257, \"Lng\": -106.1412243}]",
        "Start Year": 1912,
        "Start Month": 6.0,
        "Start Day": 30.0,
        "End Year": 1912,
        "End Month": 6.0,
        "End Day": 30.0,
        "Total Affected": 2700.0,
        "Total Deaths": 28.0
    },
    {
        "Year": 1912,
        "Type": "Storm",
        "Subtype": "Tropical cyclone",
        "Country": "China",
        "Location": "Wenchou",
        "Latitude": null,
        "Longitude": null,
        "Country Latitude": 35.000074,
        "Country Longitude": 104.999927,
        "Location Latitude": null,
        "Location Longitude": null,
        "Smart Coords": null,
        "Start Year": 1912,
        "Start Month": 8.0,
        "Start Day": null,
        "End Year": 1912,
        "End Month": 8.0,
        "End Day": null,
        "Total Affected": null,
        "Total Deaths": 50000.0
    },
    {
        "Year": 1912,
        "Type": "Earthquake",
        "Subtype": "Ground movement",
        "Country": "Turkey",
        "Location": "Murefte Sarkoy, marmara sea",
        "Latitude": "40.41",
        "Longitude": "27.15",
        "Country Latitude": 38.9597594,
        "Country Longitude": 34.9249653,
        "Location Latitude": null,
        "Location Longitude": null,
        "Smart Coords": null,
        "Start Year": 1912,
        "Start Month": 8.0,
        "Start Day": 9.0,
        "End Year": 1912,
        "End Month": 8.0,
        "End Day": 9.0,
        "Total Affected": 18195.0,
        "Total Deaths": 923.0
    },
    {
        "Year": 1912,
        "Type": "Storm",
        "Subtype": "Tropical cyclone",
        "Country": "Jamaica",
        "Location": "West Jamaica, Savanna-La-Mer",
        "Latitude": null,
        "Longitude": null,
        "Country Latitude": 18.1850507,
        "Country Longitude": -77.3947693,
        "Location Latitude": null,
        "Location Longitude": null,
        "Smart Coords": "[{\"Lat\": 18.0213449, \"Lng\": -76.7883539}]",
        "Start Year": 1912,
        "Start Month": 11.0,
        "Start Day": 18.0,
        "End Year": 1912,
        "End Month": 11.0,
        "End Day": 18.0,
        "Total Affected": 94820.0,
        "Total Deaths": 142.0
    },
    {
        "Year": 1912,
        "Type": "Storm",
        "Subtype": "Tropical cyclone",
        "Country": "Japan",
        "Location": "Nagoya, Osaka",
        "Latitude": null,
        "Longitude": null,
        "Country Latitude": 36.5748441,
        "Country Longitude": 139.2394179,
        "Location Latitude": 34.6934996,
        "Location Longitude": 135.4965238,
        "Smart Coords": "[{\"Lat\": 35.1851045, \"Lng\": 136.8998438}, {\"Lat\": 34.661629000000005, \"Lng\": 135.49992679245517}]",
        "Start Year": 1912,
        "Start Month": 9.0,
        "Start Day": null,
        "End Year": 1912,
        "End Month": 9.0,
        "End Day": null,
        "Total Affected": null,
        "Total Deaths": 1000.0
    },
    {
        "Year": 1912,
        "Type": "Storm",
        "Subtype": "Tropical cyclone",
        "Country": "Philippines",
        "Location": "Cebu",
        "Latitude": null,
        "Longitude": null,
        "Country Latitude": 12.7503486,
        "Country Longitude": 122.7312101,
        "Location Latitude": 10.2931062,
        "Location Longitude": 123.9020773,
        "Smart Coords": "[{\"Lat\": 10.2931062, \"Lng\": 123.9020773}]",
        "Start Year": 1912,
        "Start Month": 10.0,
        "Start Day": null,
        "End Year": 1912,
        "End Month": 10.0,
        "End Day": null,
        "Total Affected": null,
        "Total Deaths": null
    }
]