[{"Year":1971,"Type":"Earthquake","Subtype":"Ground movement","Country":"Chile","Location":"Valparaiso, Salamnca, Coquimbo","Latitude":"-32.601","Longitude":"-71.076","Country Latitude":-31.7613365,"Country Longitude":-71.3187697,"Location Latitude":null,"Location Longitude":null,"Smart Coords":"[{\"Lat\": -33.0458456, \"Lng\": -71.6196749}, {\"Lat\": -30.7546652, \"Lng\": -70.9005536}]","Start Year":1971,"Start Month":7.0,"Start Day":9.0,"End Year":1971,"End Month":7.0,"End Day":9.0,"Total Affected":2348973.0,"Total Deaths":85.0},{"Year":1971,"Type":"Landslide","Subtype":"Landslide","Country":"Afghanistan","Location":"Khinjan Pass","Latitude":null,"Longitude":null,"Country Latitude":33.7680065,"Country Longitude":66.2385139,"Location Latitude":35.313846,"Location Longitude":69.0368491,"Smart Coords":null,"Start Year":1971,"Start Month":7.0,"Start Day":28.0,"End Year":1971,"End Month":7.0,"End Day":28.0,"Total Affected":null,"Total Deaths":100.0},{"Year":1971,"Type":"Drought","Subtype":"Drought","Country":"Afghanistan","Location":"Central, North-West, North-East, West regions","Latitude":null,"Longitude":null,"Country Latitude":33.7680065,"Country Longitude":66.2385139,"Location Latitude":null,"Location Longitude":null,"Smart Coords":null,"Start Year":1971,"Start Month":8.0,"Start Day":null,"End Year":1973,"End Month":null,"End Day":null,"Total Affected":null,"Total Deaths":null},{"Year":1971,"Type":"Flood","Subtype":"Riverine flood","Country":"Australia","Location":"South Wales, Queensland, Victoria","Latitude":null,"Longitude":null,"Country Latitude":-24.7761086,"Country Longitude":134.755,"Location Latitude":null,"Location Longitude":null,"Smart Coords":"[{\"Lat\": -33.5354064, \"Lng\": 151.1402657627591}, {\"Lat\": -36.5986096, \"Lng\": 144.6780052}]","Start Year":1971,"Start Month":2.0,"Start Day":9.0,"End Year":1971,"End Month":2.0,"End Day":9.0,"Total Affected":null,"Total Deaths":27.0},{"Year":1971,"Type":"Storm","Subtype":"Tropical cyclone","Country":"Australia","Location":"Townsville area (Queensland)","Latitude":null,"Longitude":null,"Country Latitude":-24.7761086,"Country Longitude":134.755,"Location Latitude":null,"Location Longitude":null,"Smart Coords":"[{\"Lat\": -19.2569391, \"Lng\": 146.8239537}]","Start Year":1971,"Start Month":12.0,"Start Day":24.0,"End Year":1971,"End Month":12.0,"End Day":24.0,"Total Affected":null,"Total Deaths":3.0},{"Year":1971,"Type":"Flood","Subtype":"Flash flood","Country":"Belgium","Location":"Bassenge","Latitude":null,"Longitude":null,"Country Latitude":50.6402809,"Country Longitude":4.6667145,"Location Latitude":50.7583596,"Location Longitude":5.6094772,"Smart Coords":null,"Start Year":1971,"Start Month":8.0,"Start Day":26.0,"End Year":1971,"End Month":8.0,"End Day":26.0,"Total Affected":600.0,"Total Deaths":null},{"Year":1971,"Type":"Storm","Subtype":"Tropical cyclone","Country":"Bangladesh","Location":"Coastal areas","Latitude":null,"Longitude":null,"Country Latitude":24.4769288,"Country Longitude":90.2934413,"Location Latitude":null,"Location Longitude":null,"Smart Coords":null,"Start Year":1971,"Start Month":5.0,"Start Day":8.0,"End Year":1971,"End Month":5.0,"End Day":8.0,"Total Affected":null,"Total Deaths":163.0},{"Year":1971,"Type":"Flood","Subtype":"Flash flood","Country":"Brazil","Location":"Rio de Janeiro","Latitude":null,"Longitude":null,"Country Latitude":-10.3333333,"Country Longitude":-53.2,"Location Latitude":-22.9110137,"Location Longitude":-43.2093727,"Smart Coords":"[{\"Lat\": -22.9110137, \"Lng\": -43.2093727}]","Start Year":1971,"Start Month":2.0,"Start Day":26.0,"End Year":1971,"End Month":2.0,"End Day":26.0,"Total Affected":null,"Total Deaths":130.0},{"Year":1971,"Type":"Flood","Subtype":null,"Country":"Brazil","Location":"Salvador","Latitude":null,"Longitude":null,"Country Latitude":-10.3333333,"Country Longitude":-53.2,"Location Latitude":-12.9822499,"Location Longitude":-38.4812772,"Smart Coords":"[{\"Lat\": -12.9822499, \"Lng\": -38.4812772}]","Start Year":1971,"Start Month":4.0,"Start Day":26.0,"End Year":1971,"End Month":4.0,"End Day":26.0,"Total Affected":13000.0,"Total Deaths":109.0},{"Year":1971,"Type":"Storm","Subtype":"Convective storm","Country":"Canada","Location":"Montreal (Quebec)","Latitude":null,"Longitude":null,"Country Latitude":61.0666922,"Country Longitude":-107.991707,"Location Latitude":45.5031824,"Location Longitude":-73.5698065,"Smart Coords":"[{\"Lat\": 45.5031824, \"Lng\": -73.5698065}]","Start Year":1971,"Start Month":3.0,"Start Day":4.0,"End Year":1971,"End Month":3.0,"End Day":4.0,"Total Affected":null,"Total Deaths":null},{"Year":1971,"Type":"Mass movement (dry)","Subtype":"Landslide","Country":"Canada","Location":"Jean Vianney (Quebec)","Latitude":null,"Longitude":null,"Country Latitude":61.0666922,"Country Longitude":-107.991707,"Location Latitude":48.6161868,"Location Longitude":-67.4131243,"Smart Coords":null,"Start Year":1971,"Start Month":5.0,"Start Day":4.0,"End Year":1971,"End Month":5.0,"End Day":4.0,"Total Affected":1500.0,"Total Deaths":31.0},{"Year":1971,"Type":"Storm","Subtype":null,"Country":"Chile","Location":null,"Latitude":null,"Longitude":null,"Country Latitude":-31.7613365,"Country Longitude":-71.3187697,"Location Latitude":null,"Location Longitude":null,"Smart Coords":null,"Start Year":1971,"Start Month":6.0,"Start Day":20.0,"End Year":1971,"End Month":6.0,"End Day":20.0,"Total Affected":90000.0,"Total Deaths":null},{"Year":1971,"Type":"Drought","Subtype":"Drought","Country":"Cameroon","Location":null,"Latitude":null,"Longitude":null,"Country Latitude":4.6125522,"Country Longitude":13.1535811,"Location Latitude":null,"Location Longitude":null,"Smart Coords":null,"Start Year":1971,"Start Month":1.0,"Start Day":null,"End Year":1971,"End Month":null,"End Day":null,"Total Affected":400000.0,"Total Deaths":null},{"Year":1971,"Type":"Landslide","Subtype":"Landslide","Country":"Colombia","Location":null,"Latitude":null,"Longitude":null,"Country Latitude":4.099917,"Country Longitude":-72.9088133,"Location Latitude":null,"Location Longitude":null,"Smart Coords":null,"Start Year":1971,"Start Month":12.0,"Start Day":null,"End Year":1971,"End Month":12.0,"End Day":null,"Total Affected":null,"Total Deaths":200.0},{"Year":1971,"Type":"Flood","Subtype":null,"Country":"Colombia","Location":"Magdalena, Cauca Vals","Latitude":null,"Longitude":null,"Country Latitude":4.099917,"Country Longitude":-72.9088133,"Location Latitude":null,"Location Longitude":null,"Smart Coords":"[{\"Lat\": 10.5808075, \"Lng\": -74.0685669}]","Start Year":1971,"Start Month":3.0,"Start Day":null,"End Year":1971,"End Month":3.0,"End Day":null,"Total Affected":null,"Total Deaths":null},{"Year":1971,"Type":"Flood","Subtype":null,"Country":"Colombia","Location":null,"Latitude":null,"Longitude":null,"Country Latitude":4.099917,"Country Longitude":-72.9088133,"Location Latitude":null,"Location Longitude":null,"Smart Coords":null,"Start Year":1971,"Start Month":6.0,"Start Day":null,"End Year":1971,"End Month":6.0,"End Day":null,"Total Affected":null,"Total Deaths":51.0},{"Year":1971,"Type":"Landslide","Subtype":"Landslide","Country":"Ecuador","Location":"Quito","Latitude":null,"Longitude":null,"Country Latitude":-1.3397668,"Country Longitude":-79.3666965,"Location Latitude":-0.2201641,"Location Longitude":-78.5123274,"Smart Coords":"[{\"Lat\": -0.2201641, \"Lng\": -78.5123274}]","Start Year":1971,"Start Month":3.0,"Start Day":9.0,"End Year":1971,"End Month":3.0,"End Day":9.0,"Total Affected":6.0,"Total Deaths":20.0},{"Year":1971,"Type":"Flood","Subtype":null,"Country":"Ecuador","Location":"Putumayo river, North East","Latitude":null,"Longitude":null,"Country Latitude":-1.3397668,"Country Longitude":-79.3666965,"Location Latitude":null,"Location Longitude":null,"Smart Coords":null,"Start Year":1971,"Start Month":7.0,"Start Day":null,"End Year":1971,"End Month":7.0,"End Day":null,"Total Affected":2400.0,"Total Deaths":null},{"Year":1971,"Type":"Extreme temperature","Subtype":"Cold wave","Country":"Spain","Location":null,"Latitude":null,"Longitude":null,"Country Latitude":39.3260685,"Country Longitude":-4.8379791,"Location Latitude":null,"Location Longitude":null,"Smart Coords":null,"Start Year":1971,"Start Month":1.0,"Start Day":null,"End Year":1971,"End Month":1.0,"End Day":null,"Total Affected":null,"Total Deaths":400.0},{"Year":1971,"Type":"Storm","Subtype":null,"Country":"Spain","Location":"Leon province","Latitude":null,"Longitude":null,"Country Latitude":39.3260685,"Country Longitude":-4.8379791,"Location Latitude":36.1357002,"Location Longitude":-5.4571672,"Smart Coords":null,"Start Year":1971,"Start Month":8.0,"Start Day":null,"End Year":1971,"End Month":8.0,"End Day":null,"Total Affected":null,"Total Deaths":null},{"Year":1971,"Type":"Drought","Subtype":"Drought","Country":"Ghana","Location":"Countrywide","Latitude":null,"Longitude":null,"Country Latitude":8.0300284,"Country Longitude":-1.0800271,"Location Latitude":null,"Location Longitude":null,"Smart Coords":null,"Start Year":1971,"Start Month":1.0,"Start Day":null,"End Year":1971,"End Month":null,"End Day":null,"Total Affected":12000.0,"Total Deaths":null},{"Year":1971,"Type":"Flood","Subtype":null,"Country":"Guyana","Location":"East coast, Cane Grove","Latitude":null,"Longitude":null,"Country Latitude":4.8417097,"Country Longitude":-58.6416891,"Location Latitude":null,"Location Longitude":null,"Smart Coords":"[{\"Lat\": 6.2933659, \"Lng\": -57.4676097}, {\"Lat\": 6.6368006, \"Lng\": -57.92932991389755}]","Start Year":1971,"Start Month":7.0,"Start Day":null,"End Year":1971,"End Month":7.0,"End Day":null,"Total Affected":21000.0,"Total Deaths":null},{"Year":1971,"Type":"Storm","Subtype":"Tropical cyclone","Country":"Hong Kong","Location":"West of Cheung Chau","Latitude":null,"Longitude":null,"Country Latitude":22.352957,"Country Longitude":113.962891,"Location Latitude":null,"Location Longitude":null,"Smart Coords":null,"Start Year":1971,"Start Month":8.0,"Start Day":17.0,"End Year":1971,"End Month":8.0,"End Day":17.0,"Total Affected":1486.0,"Total Deaths":115.0},{"Year":1971,"Type":"Wildfire","Subtype":"Land fire (Brush, Bush, Pasture)","Country":"Hong Kong","Location":null,"Latitude":null,"Longitude":null,"Country Latitude":22.352957,"Country Longitude":113.962891,"Location Latitude":null,"Location Longitude":null,"Smart Coords":null,"Start Year":1971,"Start Month":4.0,"Start Day":null,"End Year":1971,"End Month":4.0,"End Day":null,"Total Affected":null,"Total Deaths":null},{"Year":1971,"Type":"Wildfire","Subtype":"Land fire (Brush, Bush, Pasture)","Country":"Hong Kong","Location":null,"Latitude":null,"Longitude":null,"Country Latitude":22.352957,"Country Longitude":113.962891,"Location Latitude":null,"Location Longitude":null,"Smart Coords":null,"Start Year":1971,"Start Month":10.0,"Start Day":null,"End Year":1971,"End Month":10.0,"End Day":null,"Total Affected":null,"Total Deaths":null},{"Year":1971,"Type":"Storm","Subtype":"Tropical cyclone","Country":"Honduras","Location":null,"Latitude":null,"Longitude":null,"Country Latitude":15.2572432,"Country Longitude":-86.0755145,"Location Latitude":null,"Location Longitude":null,"Smart Coords":null,"Start Year":1971,"Start Month":9.0,"Start Day":9.0,"End Year":1971,"End Month":9.0,"End Day":9.0,"Total Affected":null,"Total Deaths":null},{"Year":1971,"Type":"Storm","Subtype":"Tropical cyclone","Country":"India","Location":"East coast, Orissa state","Latitude":null,"Longitude":null,"Country Latitude":22.3511148,"Country Longitude":78.6677428,"Location Latitude":null,"Location Longitude":null,"Smart Coords":"[{\"Lat\": 13.0362055, \"Lng\": 77.5747083}, {\"Lat\": 20.5431241, \"Lng\": 84.6897321}]","Start Year":1971,"Start Month":10.0,"Start Day":27.0,"End Year":1971,"End Month":10.0,"End Day":27.0,"Total Affected":6900000.0,"Total Deaths":9658.0},{"Year":1971,"Type":"Storm","Subtype":"Tropical cyclone","Country":"India","Location":"Bihar, West Bengal","Latitude":null,"Longitude":null,"Country Latitude":22.3511148,"Country Longitude":78.6677428,"Location Latitude":26.3223696,"Location Longitude":89.4592445,"Smart Coords":"[{\"Lat\": 25.6440845, \"Lng\": 85.906508}, {\"Lat\": 22.9964948, \"Lng\": 87.6855882}]","Start Year":1971,"Start Month":9.0,"Start Day":27.0,"End Year":1971,"End Month":9.0,"End Day":27.0,"Total Affected":null,"Total Deaths":60.0},{"Year":1971,"Type":"Flood","Subtype":null,"Country":"India","Location":"North","Latitude":null,"Longitude":null,"Country Latitude":22.3511148,"Country Longitude":78.6677428,"Location Latitude":9.260591,"Location Longitude":76.7638196,"Smart Coords":null,"Start Year":1971,"Start Month":6.0,"Start Day":null,"End Year":1971,"End Month":6.0,"End Day":null,"Total Affected":null,"Total Deaths":1023.0},{"Year":1971,"Type":"Flood","Subtype":null,"Country":"India","Location":"Uttar Pradesh","Latitude":null,"Longitude":null,"Country Latitude":22.3511148,"Country Longitude":78.6677428,"Location Latitude":27.1303344,"Location Longitude":80.859666,"Smart Coords":"[{\"Lat\": 27.1303344, \"Lng\": 80.859666}]","Start Year":1971,"Start Month":9.0,"Start Day":9.0,"End Year":1971,"End Month":9.0,"End Day":9.0,"Total Affected":35000.0,"Total Deaths":300.0},{"Year":1971,"Type":"Flood","Subtype":null,"Country":"India","Location":"Brahmaputra, Dhemaji, North Lakhimpur, Jorhat, Tezpur sub-divisions","Latitude":null,"Longitude":null,"Country Latitude":22.3511148,"Country Longitude":78.6677428,"Location Latitude":null,"Location Longitude":null,"Smart Coords":"[{\"Lat\": 27.6945673, \"Lng\": 95.0895131}, {\"Lat\": 27.4668315, \"Lng\": 94.51786508708852}, {\"Lat\": 27.1609011, \"Lng\": 94.16266801115614}, {\"Lat\": 26.7577925, \"Lng\": 94.2079645}]","Start Year":1971,"Start Month":6.0,"Start Day":null,"End Year":1971,"End Month":6.0,"End Day":null,"Total Affected":130000.0,"Total Deaths":null},{"Year":1971,"Type":"Earthquake","Subtype":"Ground movement","Country":"Italy","Location":"Toscana","Latitude":"42.5","Longitude":"11.8","Country Latitude":42.6384261,"Country Longitude":12.674297,"Location Latitude":43.4586541,"Location Longitude":11.1389204,"Smart Coords":null,"Start Year":1971,"Start Month":2.0,"Start Day":6.0,"End Year":1971,"End Month":2.0,"End Day":6.0,"Total Affected":4220.0,"Total Deaths":22.0},{"Year":1971,"Type":"Storm","Subtype":"Tropical cyclone","Country":"Japan","Location":"Kyushu Island","Latitude":null,"Longitude":null,"Country Latitude":36.5748441,"Country Longitude":139.2394179,"Location Latitude":32.4821145,"Location Longitude":131.1009013145,"Smart Coords":"[{\"Lat\": 32.4821145, \"Lng\": 131.10090131445313}]","Start Year":1971,"Start Month":8.0,"Start Day":5.0,"End Year":1971,"End Month":8.0,"End Day":5.0,"Total Affected":null,"Total Deaths":135.0},{"Year":1971,"Type":"Drought","Subtype":"Drought","Country":"Kenya","Location":"Countrywide","Latitude":null,"Longitude":null,"Country Latitude":1.4419683,"Country Longitude":38.4313975,"Location Latitude":null,"Location Longitude":null,"Smart Coords":null,"Start Year":1971,"Start Month":1.0,"Start Day":null,"End Year":1971,"End Month":null,"End Day":null,"Total Affected":150000.0,"Total Deaths":null},{"Year":1971,"Type":"Storm","Subtype":null,"Country":"Korea, Republic of","Location":"Seoul","Latitude":null,"Longitude":null,"Country Latitude":36.638392,"Country Longitude":127.6961188,"Location Latitude":37.5666791,"Location Longitude":126.9782914,"Smart Coords":"[{\"Lat\": 37.5666791, \"Lng\": 126.9782914}]","Start Year":1971,"Start Month":7.0,"Start Day":27.0,"End Year":1971,"End Month":7.0,"End Day":27.0,"Total Affected":50.0,"Total Deaths":64.0},{"Year":1971,"Type":"Storm","Subtype":null,"Country":"Korea, Republic of","Location":null,"Latitude":null,"Longitude":null,"Country Latitude":36.638392,"Country Longitude":127.6961188,"Location Latitude":null,"Location Longitude":null,"Smart Coords":null,"Start Year":1971,"Start Month":7.0,"Start Day":null,"End Year":1971,"End Month":7.0,"End Day":null,"Total Affected":null,"Total Deaths":45.0},{"Year":1971,"Type":"Flood","Subtype":null,"Country":"Lao People's Democratic Republic","Location":"Vientiane","Latitude":null,"Longitude":null,"Country Latitude":20.0171109,"Country Longitude":103.378253,"Location Latitude":17.9640988,"Location Longitude":102.6133707,"Smart Coords":"[{\"Lat\": 17.9640988, \"Lng\": 102.6133707}]","Start Year":1971,"Start Month":8.0,"Start Day":17.0,"End Year":1971,"End Month":8.0,"End Day":17.0,"Total Affected":115000.0,"Total Deaths":14.0},{"Year":1971,"Type":"Drought","Subtype":"Drought","Country":"Morocco","Location":null,"Latitude":null,"Longitude":null,"Country Latitude":31.1728205,"Country Longitude":-7.3362482,"Location Latitude":null,"Location Longitude":null,"Smart Coords":null,"Start Year":1971,"Start Month":1.0,"Start Day":null,"End Year":1971,"End Month":null,"End Day":null,"Total Affected":137000.0,"Total Deaths":null},{"Year":1971,"Type":"Storm","Subtype":"Tropical cyclone","Country":"Mexico","Location":"Acapulco","Latitude":null,"Longitude":null,"Country Latitude":23.6585116,"Country Longitude":-102.0077097,"Location Latitude":16.8680495,"Location Longitude":-99.8940182,"Smart Coords":"[{\"Lat\": 16.8680495, \"Lng\": -99.8940182}]","Start Year":1971,"Start Month":6.0,"Start Day":16.0,"End Year":1971,"End Month":6.0,"End Day":16.0,"Total Affected":null,"Total Deaths":17.0},{"Year":1971,"Type":"Flood","Subtype":"Riverine flood","Country":"Mozambique","Location":null,"Latitude":null,"Longitude":null,"Country Latitude":-19.302233,"Country Longitude":34.9144977,"Location Latitude":null,"Location Longitude":null,"Smart Coords":null,"Start Year":1971,"Start Month":1.0,"Start Day":29.0,"End Year":1971,"End Month":1.0,"End Day":29.0,"Total Affected":500000.0,"Total Deaths":500.0},{"Year":1971,"Type":"Volcanic activity","Subtype":"Ash fall","Country":"Nicaragua","Location":"North West, near Managua","Latitude":null,"Longitude":null,"Country Latitude":12.6090157,"Country Longitude":-85.2936911,"Location Latitude":null,"Location Longitude":null,"Smart Coords":null,"Start Year":1971,"Start Month":2.0,"Start Day":3.0,"End Year":1971,"End Month":2.0,"End Day":3.0,"Total Affected":3600.0,"Total Deaths":null},{"Year":1971,"Type":"Storm","Subtype":"Tropical cyclone","Country":"Nicaragua","Location":"Coco River Valley","Latitude":null,"Longitude":null,"Country Latitude":12.6090157,"Country Longitude":-85.2936911,"Location Latitude":null,"Location Longitude":null,"Smart Coords":null,"Start Year":1971,"Start Month":9.0,"Start Day":9.0,"End Year":1971,"End Month":9.0,"End Day":9.0,"Total Affected":4650.0,"Total Deaths":35.0},{"Year":1971,"Type":"Landslide","Subtype":"Landslide","Country":"Peru","Location":"Chungar","Latitude":null,"Longitude":null,"Country Latitude":-6.8699697,"Country Longitude":-75.0458515,"Location Latitude":-11.1218206,"Location Longitude":-76.5321711,"Smart Coords":null,"Start Year":1971,"Start Month":3.0,"Start Day":18.0,"End Year":1971,"End Month":3.0,"End Day":18.0,"Total Affected":null,"Total Deaths":600.0},{"Year":1971,"Type":"Flood","Subtype":null,"Country":"Peru","Location":null,"Latitude":null,"Longitude":null,"Country Latitude":-6.8699697,"Country Longitude":-75.0458515,"Location Latitude":null,"Location Longitude":null,"Smart Coords":null,"Start Year":1971,"Start Month":2.0,"Start Day":null,"End Year":1971,"End Month":2.0,"End Day":null,"Total Affected":330000.0,"Total Deaths":250.0},{"Year":1971,"Type":"Storm","Subtype":"Tropical cyclone","Country":"Philippines","Location":"Visayas, Palawan","Latitude":null,"Longitude":null,"Country Latitude":12.7503486,"Country Longitude":122.7312101,"Location Latitude":11.0366,"Location Longitude":124.3964,"Smart Coords":"[{\"Lat\": 10.89925685, \"Lng\": 123.01894327152785}, {\"Lat\": 11.08336535, \"Lng\": 120.91639641658888}]","Start Year":1971,"Start Month":4.0,"Start Day":22.0,"End Year":1971,"End Month":4.0,"End Day":22.0,"Total Affected":null,"Total Deaths":95.0},{"Year":1971,"Type":"Storm","Subtype":"Tropical cyclone","Country":"Philippines","Location":"Central","Latitude":null,"Longitude":null,"Country Latitude":12.7503486,"Country Longitude":122.7312101,"Location Latitude":14.5927991,"Location Longitude":120.9816188455,"Smart Coords":null,"Start Year":1971,"Start Month":5.0,"Start Day":24.0,"End Year":1971,"End Month":5.0,"End Day":24.0,"Total Affected":32503.0,"Total Deaths":57.0},{"Year":1971,"Type":"Storm","Subtype":"Tropical cyclone","Country":"Philippines","Location":"Central","Latitude":null,"Longitude":null,"Country Latitude":12.7503486,"Country Longitude":122.7312101,"Location Latitude":14.5927991,"Location Longitude":120.9816188455,"Smart Coords":null,"Start Year":1971,"Start Month":10.0,"Start Day":2.0,"End Year":1971,"End Month":10.0,"End Day":2.0,"Total Affected":12000.0,"Total Deaths":37.0},{"Year":1971,"Type":"Storm","Subtype":"Tropical cyclone","Country":"Philippines","Location":"North Luzon","Latitude":null,"Longitude":null,"Country Latitude":12.7503486,"Country Longitude":122.7312101,"Location Latitude":14.5101233,"Location Longitude":121.0529078,"Smart Coords":null,"Start Year":1971,"Start Month":10.0,"Start Day":9.0,"End Year":1971,"End Month":10.0,"End Day":9.0,"Total Affected":2008.0,"Total Deaths":57.0},{"Year":1971,"Type":"Landslide","Subtype":"Landslide","Country":"Papua New Guinea","Location":"Telefumin","Latitude":null,"Longitude":null,"Country Latitude":-5.6816069,"Country Longitude":144.2489081,"Location Latitude":null,"Location Longitude":null,"Smart Coords":null,"Start Year":1971,"Start Month":3.0,"Start Day":21.0,"End Year":1971,"End Month":3.0,"End Day":21.0,"Total Affected":null,"Total Deaths":100.0},{"Year":1971,"Type":"Flood","Subtype":null,"Country":"Paraguay","Location":"Asuncion, Concepcion","Latitude":null,"Longitude":null,"Country Latitude":-23.3165935,"Country Longitude":-58.1693445,"Location Latitude":-25.29869505,"Location Longitude":-57.6258887119,"Smart Coords":"[{\"Lat\": -25.2800459, \"Lng\": -57.6343814}, {\"Lat\": -23.1775, \"Lng\": -57.1675}]","Start Year":1971,"Start Month":1.0,"Start Day":null,"End Year":1971,"End Month":1.0,"End Day":null,"Total Affected":27000.0,"Total Deaths":null},{"Year":1971,"Type":"Volcanic activity","Subtype":"Ash fall","Country":"Solomon Islands","Location":"Santa Cruz","Latitude":null,"Longitude":null,"Country Latitude":-8.7053941,"Country Longitude":159.1070693852,"Location Latitude":-10.7192996,"Location Longitude":165.7981790837,"Smart Coords":null,"Start Year":1971,"Start Month":null,"Start Day":null,"End Year":1971,"End Month":null,"End Day":null,"Total Affected":6000.0,"Total Deaths":null},{"Year":1971,"Type":"Epidemic","Subtype":"Bacterial disease","Country":"Chad","Location":null,"Latitude":null,"Longitude":null,"Country Latitude":15.6134137,"Country Longitude":19.0156172,"Location Latitude":null,"Location Longitude":null,"Smart Coords":null,"Start Year":1971,"Start Month":5.0,"Start Day":null,"End Year":1971,"End Month":5.0,"End Day":null,"Total Affected":7476.0,"Total Deaths":2312.0},{"Year":1971,"Type":"Drought","Subtype":"Drought","Country":"Togo","Location":"Countrywide","Latitude":null,"Longitude":null,"Country Latitude":8.7800265,"Country Longitude":1.0199765,"Location Latitude":null,"Location Longitude":null,"Smart Coords":null,"Start Year":1971,"Start Month":1.0,"Start Day":null,"End Year":1971,"End Month":null,"End Day":null,"Total Affected":150000.0,"Total Deaths":null},{"Year":1971,"Type":"Earthquake","Subtype":"Ground movement","Country":"Turkey","Location":"Burdur","Latitude":"37.6","Longitude":"29.8","Country Latitude":38.9597594,"Country Longitude":34.9249653,"Location Latitude":37.5183407,"Location Longitude":30.1691254,"Smart Coords":"[{\"Lat\": 37.5183407, \"Lng\": 30.1691254}]","Start Year":1971,"Start Month":5.0,"Start Day":12.0,"End Year":1971,"End Month":5.0,"End Day":12.0,"Total Affected":null,"Total Deaths":57.0},{"Year":1971,"Type":"Earthquake","Subtype":"Ground movement","Country":"Turkey","Location":"Bingol, Erzincan","Latitude":"38.934","Longitude":"40.653","Country Latitude":38.9597594,"Country Longitude":34.9249653,"Location Latitude":null,"Location Longitude":null,"Smart Coords":"[{\"Lat\": 39.073803, \"Lng\": 40.7296181}, {\"Lat\": 39.7467552, \"Lng\": 39.49103}]","Start Year":1971,"Start Month":5.0,"Start Day":22.0,"End Year":1971,"End Month":5.0,"End Day":22.0,"Total Affected":88665.0,"Total Deaths":878.0},{"Year":1971,"Type":"Earthquake","Subtype":"Ground movement","Country":"United States","Location":"San Fernando (Los Angeles)","Latitude":"34.416","Longitude":"-118.37","Country Latitude":39.7837304,"Country Longitude":-100.445882,"Location Latitude":34.28497,"Location Longitude":-118.437652,"Smart Coords":"[{\"Lat\": 40.7660623, \"Lng\": -111.8236019}]","Start Year":1971,"Start Month":2.0,"Start Day":9.0,"End Year":1971,"End Month":2.0,"End Day":9.0,"Total Affected":2000.0,"Total Deaths":65.0},{"Year":1971,"Type":"Storm","Subtype":null,"Country":"United States","Location":null,"Latitude":null,"Longitude":null,"Country Latitude":39.7837304,"Country Longitude":-100.445882,"Location Latitude":null,"Location Longitude":null,"Smart Coords":null,"Start Year":1971,"Start Month":1.0,"Start Day":null,"End Year":1971,"End Month":1.0,"End Day":null,"Total Affected":null,"Total Deaths":37.0},{"Year":1971,"Type":"Storm","Subtype":null,"Country":"United States","Location":null,"Latitude":null,"Longitude":null,"Country Latitude":39.7837304,"Country Longitude":-100.445882,"Location Latitude":null,"Location Longitude":null,"Smart Coords":null,"Start Year":1971,"Start Month":2.0,"Start Day":null,"End Year":1971,"End Month":2.0,"End Day":null,"Total Affected":null,"Total Deaths":121.0},{"Year":1971,"Type":"Volcanic activity","Subtype":"Ash fall","Country":"Saint Vincent and the Grenadines","Location":null,"Latitude":null,"Longitude":null,"Country Latitude":12.90447,"Country Longitude":-61.2765569,"Location Latitude":null,"Location Longitude":null,"Smart Coords":null,"Start Year":1971,"Start Month":10.0,"Start Day":17.0,"End Year":1971,"End Month":10.0,"End Day":17.0,"Total Affected":2000.0,"Total Deaths":null},{"Year":1971,"Type":"Epidemic","Subtype":"Viral disease","Country":"Venezuela, Bolivarian Republic of","Location":"Tachira, Santa Ana","Latitude":null,"Longitude":null,"Country Latitude":8.0018709,"Country Longitude":-66.1109318,"Location Latitude":8.1141033,"Location Longitude":-72.0204348,"Smart Coords":"[{\"Lat\": 8.02187305, \"Lng\": -72.02106491784804}]","Start Year":1971,"Start Month":12.0,"Start Day":22.0,"End Year":1971,"End Month":12.0,"End Day":22.0,"Total Affected":null,"Total Deaths":1.0},{"Year":1971,"Type":"Storm","Subtype":"Tropical cyclone","Country":"Viet Nam","Location":"Quang Ngai province","Latitude":null,"Longitude":null,"Country Latitude":15.9266657,"Country Longitude":107.9650855,"Location Latitude":14.9635349,"Location Longitude":108.6642632,"Smart Coords":"[{\"Lat\": 14.9953739, \"Lng\": 108.691729}]","Start Year":1971,"Start Month":5.0,"Start Day":1.0,"End Year":1971,"End Month":5.0,"End Day":1.0,"Total Affected":50000.0,"Total Deaths":23.0},{"Year":1971,"Type":"Storm","Subtype":"Tropical cyclone","Country":"Viet Nam","Location":"North","Latitude":null,"Longitude":null,"Country Latitude":15.9266657,"Country Longitude":107.9650855,"Location Latitude":null,"Location Longitude":null,"Smart Coords":null,"Start Year":1971,"Start Month":10.0,"Start Day":23.0,"End Year":1971,"End Month":10.0,"End Day":23.0,"Total Affected":null,"Total Deaths":89.0},{"Year":1971,"Type":"Earthquake","Subtype":"Ground movement","Country":"Indonesia","Location":"Buaran, Bantar Kawsun, Jipang (Java)","Latitude":"-7.2","Longitude":"109.1","Country Latitude":-2.4833826,"Country Longitude":117.8902853,"Location Latitude":null,"Location Longitude":null,"Smart Coords":null,"Start Year":1971,"Start Month":6.0,"Start Day":16.0,"End Year":1971,"End Month":6.0,"End Day":16.0,"Total Affected":6891.0,"Total Deaths":1.0}]