[{"Year":1976,"Type":"Earthquake","Subtype":"Ground movement","Country":"Afghanistan","Location":"Shamagan province (Hindu Kush)","Latitude":"36.61","Longitude":"67.79","Country Latitude":33.7680065,"Country Longitude":66.2385139,"Location Latitude":null,"Location Longitude":null,"Smart Coords":null,"Start Year":1976,"Start Month":3.0,"Start Day":19.0,"End Year":1976,"End Month":3.0,"End Day":19.0,"Total Affected":90000.0,"Total Deaths":50.0},{"Year":1976,"Type":"Flood","Subtype":null,"Country":"Afghanistan","Location":"Herat, Farah, Kandahar","Latitude":null,"Longitude":null,"Country Latitude":33.7680065,"Country Longitude":66.2385139,"Location Latitude":33.053844,"Location Longitude":62.5311437,"Smart Coords":"[{\"Lat\": 34.3508273, \"Lng\": 62.2164003}, {\"Lat\": 32.607111, \"Lng\": 62.671011}, {\"Lat\": 34.5691988, \"Lng\": 69.2032629}]","Start Year":1976,"Start Month":4.0,"Start Day":null,"End Year":1976,"End Month":4.0,"End Day":null,"Total Affected":80000.0,"Total Deaths":51.0},{"Year":1976,"Type":"Storm","Subtype":"Convective storm","Country":"Australia","Location":"Too-Woomba, Queensland","Latitude":null,"Longitude":null,"Country Latitude":-24.7761086,"Country Longitude":134.755,"Location Latitude":null,"Location Longitude":null,"Smart Coords":null,"Start Year":1976,"Start Month":1.0,"Start Day":10.0,"End Year":1976,"End Month":1.0,"End Day":10.0,"Total Affected":null,"Total Deaths":null},{"Year":1976,"Type":"Storm","Subtype":"Convective storm","Country":"Australia","Location":"Sandon, Castlemaine, Mortlake (Victoria)","Latitude":null,"Longitude":null,"Country Latitude":-24.7761086,"Country Longitude":134.755,"Location Latitude":null,"Location Longitude":null,"Smart Coords":"[{\"Lat\": -37.8722432, \"Lng\": 144.6084185}, {\"Lat\": -37.0664778, \"Lng\": 144.2200032}, {\"Lat\": -38.081358, \"Lng\": 142.805697}]","Start Year":1976,"Start Month":11.0,"Start Day":2.0,"End Year":1976,"End Month":11.0,"End Day":2.0,"Total Affected":null,"Total Deaths":null},{"Year":1976,"Type":"Storm","Subtype":"Tropical cyclone","Country":"Australia","Location":"Queensland","Latitude":null,"Longitude":null,"Country Latitude":-24.7761086,"Country Longitude":134.755,"Location Latitude":-22.1646782,"Location Longitude":144.5844903,"Smart Coords":null,"Start Year":1976,"Start Month":1.0,"Start Day":null,"End Year":1976,"End Month":1.0,"End Day":null,"Total Affected":null,"Total Deaths":null},{"Year":1976,"Type":"Storm","Subtype":"Tropical cyclone","Country":"Australia","Location":"Bundaberg Qld","Latitude":null,"Longitude":null,"Country Latitude":-24.7761086,"Country Longitude":134.755,"Location Latitude":-24.8653253,"Location Longitude":152.3516785,"Smart Coords":null,"Start Year":1976,"Start Month":2.0,"Start Day":null,"End Year":1976,"End Month":2.0,"End Day":null,"Total Affected":null,"Total Deaths":null},{"Year":1976,"Type":"Storm","Subtype":"Tropical cyclone","Country":"Australia","Location":"Queensland","Latitude":null,"Longitude":null,"Country Latitude":-24.7761086,"Country Longitude":134.755,"Location Latitude":-22.1646782,"Location Longitude":144.5844903,"Smart Coords":null,"Start Year":1976,"Start Month":12.0,"Start Day":null,"End Year":1976,"End Month":12.0,"End Day":null,"Total Affected":null,"Total Deaths":null},{"Year":1976,"Type":"Drought","Subtype":"Drought","Country":"Australia","Location":"Victoria, South Australia, Southern Inland New South Wales","Latitude":null,"Longitude":null,"Country Latitude":-24.7761086,"Country Longitude":134.755,"Location Latitude":null,"Location Longitude":null,"Smart Coords":"[{\"Lat\": -36.5986096, \"Lng\": 144.6780052}, {\"Lat\": -30.5343665, \"Lng\": 135.6301212}, {\"Lat\": -31.8759835, \"Lng\": 147.2869493}]","Start Year":1976,"Start Month":null,"Start Day":null,"End Year":1976,"End Month":null,"End Day":null,"Total Affected":null,"Total Deaths":null},{"Year":1976,"Type":"Drought","Subtype":"Drought","Country":"Australia","Location":"Southwest of Western Australia","Latitude":null,"Longitude":null,"Country Latitude":-24.7761086,"Country Longitude":134.755,"Location Latitude":null,"Location Longitude":null,"Smart Coords":null,"Start Year":1976,"Start Month":5.0,"Start Day":null,"End Year":1976,"End Month":8.0,"End Day":null,"Total Affected":null,"Total Deaths":null},{"Year":1976,"Type":"Flood","Subtype":null,"Country":"Australia","Location":"Queanreyan","Latitude":null,"Longitude":null,"Country Latitude":-24.7761086,"Country Longitude":134.755,"Location Latitude":null,"Location Longitude":null,"Smart Coords":null,"Start Year":1976,"Start Month":10.0,"Start Day":null,"End Year":1976,"End Month":10.0,"End Day":null,"Total Affected":10000.0,"Total Deaths":null},{"Year":1976,"Type":"Storm","Subtype":null,"Country":"Australia","Location":"Sydney","Latitude":null,"Longitude":null,"Country Latitude":-24.7761086,"Country Longitude":134.755,"Location Latitude":-33.8698439,"Location Longitude":151.2082848,"Smart Coords":"[{\"Lat\": -33.8698439, \"Lng\": 151.2082848}]","Start Year":1976,"Start Month":11.0,"Start Day":10.0,"End Year":1976,"End Month":11.0,"End Day":10.0,"Total Affected":null,"Total Deaths":null},{"Year":1976,"Type":"Storm","Subtype":null,"Country":"Austria","Location":null,"Latitude":null,"Longitude":null,"Country Latitude":47.59397,"Country Longitude":14.12456,"Location Latitude":null,"Location Longitude":null,"Smart Coords":null,"Start Year":1976,"Start Month":1.0,"Start Day":null,"End Year":1976,"End Month":1.0,"End Day":null,"Total Affected":null,"Total Deaths":null},{"Year":1976,"Type":"Drought","Subtype":"Drought","Country":"Belgium","Location":null,"Latitude":null,"Longitude":null,"Country Latitude":50.6402809,"Country Longitude":4.6667145,"Location Latitude":null,"Location Longitude":null,"Smart Coords":null,"Start Year":1976,"Start Month":7.0,"Start Day":null,"End Year":1976,"End Month":null,"End Day":null,"Total Affected":null,"Total Deaths":null},{"Year":1976,"Type":"Storm","Subtype":null,"Country":"Belgium","Location":"Ruisbroek","Latitude":null,"Longitude":null,"Country Latitude":50.6402809,"Country Longitude":4.6667145,"Location Latitude":50.7900129,"Location Longitude":4.2980824,"Smart Coords":null,"Start Year":1976,"Start Month":1.0,"Start Day":2.0,"End Year":1976,"End Month":1.0,"End Day":2.0,"Total Affected":null,"Total Deaths":null},{"Year":1976,"Type":"Epidemic","Subtype":"Viral disease","Country":"Benin","Location":null,"Latitude":null,"Longitude":null,"Country Latitude":9.5293472,"Country Longitude":2.2584408,"Location Latitude":null,"Location Longitude":null,"Smart Coords":null,"Start Year":1976,"Start Month":3.0,"Start Day":null,"End Year":1976,"End Month":3.0,"End Day":null,"Total Affected":7.0,"Total Deaths":1.0},{"Year":1976,"Type":"Drought","Subtype":"Drought","Country":"Burkina Faso","Location":"Nationwide","Latitude":null,"Longitude":null,"Country Latitude":12.0753083,"Country Longitude":-1.6880314,"Location Latitude":null,"Location Longitude":null,"Smart Coords":null,"Start Year":1977,"Start Month":null,"Start Day":null,"End Year":1978,"End Month":null,"End Day":null,"Total Affected":442000.0,"Total Deaths":null},{"Year":1976,"Type":"Storm","Subtype":"Convective storm","Country":"Bangladesh","Location":"Faridpur district","Latitude":null,"Longitude":null,"Country Latitude":24.4769288,"Country Longitude":90.2934413,"Location Latitude":23.46492195,"Location Longitude":89.8619453609,"Smart Coords":"[{\"Lat\": 24.1606327, \"Lng\": 89.4427491}]","Start Year":1976,"Start Month":4.0,"Start Day":10.0,"End Year":1976,"End Month":4.0,"End Day":10.0,"Total Affected":200.0,"Total Deaths":46.0},{"Year":1976,"Type":"Storm","Subtype":"Convective storm","Country":"Bangladesh","Location":"Dhamgarh (near Dacca)","Latitude":null,"Longitude":null,"Country Latitude":24.4769288,"Country Longitude":90.2934413,"Location Latitude":null,"Location Longitude":null,"Smart Coords":null,"Start Year":1976,"Start Month":5.0,"Start Day":9.0,"End Year":1976,"End Month":5.0,"End Day":9.0,"Total Affected":null,"Total Deaths":1.0},{"Year":1976,"Type":"Flood","Subtype":null,"Country":"Bangladesh","Location":"Easr","Latitude":null,"Longitude":null,"Country Latitude":24.4769288,"Country Longitude":90.2934413,"Location Latitude":null,"Location Longitude":null,"Smart Coords":null,"Start Year":1976,"Start Month":6.0,"Start Day":15.0,"End Year":1976,"End Month":6.0,"End Day":15.0,"Total Affected":4000000.0,"Total Deaths":168.0},{"Year":1976,"Type":"Flood","Subtype":null,"Country":"Canada","Location":"Quebec","Latitude":null,"Longitude":null,"Country Latitude":61.0666922,"Country Longitude":-107.991707,"Location Latitude":52.4760892,"Location Longitude":-71.8258668,"Smart Coords":"[{\"Lat\": 52.4760892, \"Lng\": -71.8258668}]","Start Year":1976,"Start Month":null,"Start Day":null,"End Year":1976,"End Month":null,"End Day":null,"Total Affected":null,"Total Deaths":null},{"Year":1976,"Type":"Storm","Subtype":null,"Country":"Switzerland","Location":null,"Latitude":null,"Longitude":null,"Country Latitude":46.7985624,"Country Longitude":8.2319736,"Location Latitude":null,"Location Longitude":null,"Smart Coords":null,"Start Year":1976,"Start Month":1.0,"Start Day":null,"End Year":1976,"End Month":1.0,"End Day":null,"Total Affected":null,"Total Deaths":null},{"Year":1976,"Type":"Earthquake","Subtype":"Ground movement","Country":"China","Location":"Tangshan, Pek.,Tientsin","Latitude":"39.57","Longitude":"117.978","Country Latitude":35.000074,"Country Longitude":104.999927,"Location Latitude":null,"Location Longitude":null,"Smart Coords":null,"Start Year":1976,"Start Month":7.0,"Start Day":28.0,"End Year":1976,"End Month":7.0,"End Day":28.0,"Total Affected":164000.0,"Total Deaths":242000.0},{"Year":1976,"Type":"Earthquake","Subtype":"Ground movement","Country":"China","Location":"Szechwan, Chengtu","Latitude":"30.37 N","Longitude":"104.06 E","Country Latitude":35.000074,"Country Longitude":104.999927,"Location Latitude":null,"Location Longitude":null,"Smart Coords":null,"Start Year":1976,"Start Month":8.0,"Start Day":16.0,"End Year":1976,"End Month":8.0,"End Day":16.0,"Total Affected":null,"Total Deaths":null},{"Year":1976,"Type":"Landslide","Subtype":"Landslide","Country":"Colombia","Location":"Near Fresno","Latitude":null,"Longitude":null,"Country Latitude":4.099917,"Country Longitude":-72.9088133,"Location Latitude":null,"Location Longitude":null,"Smart Coords":null,"Start Year":1976,"Start Month":5.0,"Start Day":2.0,"End Year":1976,"End Month":5.0,"End Day":2.0,"Total Affected":16.0,"Total Deaths":13.0},{"Year":1976,"Type":"Flood","Subtype":null,"Country":"Colombia","Location":null,"Latitude":null,"Longitude":null,"Country Latitude":4.099917,"Country Longitude":-72.9088133,"Location Latitude":null,"Location Longitude":null,"Smart Coords":null,"Start Year":1976,"Start Month":10.0,"Start Day":null,"End Year":1976,"End Month":10.0,"End Day":null,"Total Affected":null,"Total Deaths":47.0},{"Year":1976,"Type":"Volcanic activity","Subtype":"Ash fall","Country":"Costa Rica","Location":null,"Latitude":null,"Longitude":null,"Country Latitude":10.2735633,"Country Longitude":-84.0739102,"Location Latitude":null,"Location Longitude":null,"Smart Coords":null,"Start Year":1976,"Start Month":10.0,"Start Day":21.0,"End Year":1976,"End Month":10.0,"End Day":21.0,"Total Affected":70000.0,"Total Deaths":null},{"Year":1976,"Type":"Wildfire","Subtype":"Forest fire","Country":"Costa Rica","Location":"Chirripo Mountain","Latitude":null,"Longitude":null,"Country Latitude":10.2735633,"Country Longitude":-84.0739102,"Location Latitude":null,"Location Longitude":null,"Smart Coords":null,"Start Year":1976,"Start Month":4.0,"Start Day":null,"End Year":1976,"End Month":4.0,"End Day":null,"Total Affected":null,"Total Deaths":null},{"Year":1976,"Type":"Earthquake","Subtype":"Ground movement","Country":"Cuba","Location":"Camaron area","Latitude":null,"Longitude":null,"Country Latitude":23.0131338,"Country Longitude":-80.8328748,"Location Latitude":null,"Location Longitude":null,"Smart Coords":"[{\"Lat\": 20.7257825, \"Lng\": -77.9969949}]","Start Year":1976,"Start Month":2.0,"Start Day":19.0,"End Year":1976,"End Month":2.0,"End Day":19.0,"Total Affected":8.0,"Total Deaths":1.0},{"Year":1976,"Type":"Storm","Subtype":null,"Country":"Germany Fed Rep","Location":null,"Latitude":null,"Longitude":null,"Country Latitude":50.626761,"Country Longitude":9.037884,"Location Latitude":null,"Location Longitude":null,"Smart Coords":null,"Start Year":1976,"Start Month":1.0,"Start Day":2.0,"End Year":1976,"End Month":1.0,"End Day":2.0,"Total Affected":null,"Total Deaths":82.0},{"Year":1976,"Type":"Storm","Subtype":null,"Country":"Denmark","Location":null,"Latitude":null,"Longitude":null,"Country Latitude":55.670249,"Country Longitude":10.3333283,"Location Latitude":null,"Location Longitude":null,"Smart Coords":null,"Start Year":1976,"Start Month":1.0,"Start Day":2.0,"End Year":1976,"End Month":1.0,"End Day":4.0,"Total Affected":null,"Total Deaths":null},{"Year":1976,"Type":"Earthquake","Subtype":"Ground movement","Country":"Ecuador","Location":"Esmeraldas","Latitude":"0.782","Longitude":"79.804","Country Latitude":-1.3397668,"Country Longitude":-79.3666965,"Location Latitude":0.7343619,"Location Longitude":-79.3858867,"Smart Coords":"[{\"Lat\": 0.7343619, \"Lng\": -79.3858867}]","Start Year":1976,"Start Month":4.0,"Start Day":9.0,"End Year":1976,"End Month":4.0,"End Day":9.0,"Total Affected":null,"Total Deaths":10.0},{"Year":1976,"Type":"Earthquake","Subtype":"Ground movement","Country":"Ecuador","Location":"Cotopaxi Pinchincha province","Latitude":"0.14 S","Longitude":"78.30 W","Country Latitude":-1.3397668,"Country Longitude":-79.3666965,"Location Latitude":null,"Location Longitude":null,"Smart Coords":null,"Start Year":1976,"Start Month":10.0,"Start Day":4.0,"End Year":1976,"End Month":10.0,"End Day":4.0,"Total Affected":20000.0,"Total Deaths":10.0},{"Year":1976,"Type":"Volcanic activity","Subtype":"Ash fall","Country":"Ecuador","Location":"Cotopaxi","Latitude":"-0.677","Longitude":"-78.436","Country Latitude":-1.3397668,"Country Longitude":-79.3666965,"Location Latitude":-0.8268521,"Location Longitude":-78.8937757,"Smart Coords":"[{\"Lat\": -0.8268521, \"Lng\": -78.8937757}]","Start Year":1976,"Start Month":12.0,"Start Day":null,"End Year":1976,"End Month":12.0,"End Day":null,"Total Affected":25000.0,"Total Deaths":1.0},{"Year":1976,"Type":"Landslide","Subtype":"Landslide","Country":"Ecuador","Location":"Esmeraldas","Latitude":null,"Longitude":null,"Country Latitude":-1.3397668,"Country Longitude":-79.3666965,"Location Latitude":0.7343619,"Location Longitude":-79.3858867,"Smart Coords":"[{\"Lat\": 0.7343619, \"Lng\": -79.3858867}]","Start Year":1976,"Start Month":2.0,"Start Day":11.0,"End Year":1976,"End Month":2.0,"End Day":11.0,"Total Affected":null,"Total Deaths":60.0},{"Year":1976,"Type":"Flood","Subtype":null,"Country":"Ethiopia","Location":"Gode, Kelafo, Mustahil","Latitude":null,"Longitude":null,"Country Latitude":10.2116702,"Country Longitude":38.6521203,"Location Latitude":null,"Location Longitude":null,"Smart Coords":"[{\"Lat\": 5.6572136, \"Lng\": 44.3496766}, {\"Lat\": 5.22139, \"Lng\": 44.73361}]","Start Year":1976,"Start Month":4.0,"Start Day":null,"End Year":1976,"End Month":4.0,"End Day":null,"Total Affected":70000.0,"Total Deaths":null},{"Year":1976,"Type":"Storm","Subtype":null,"Country":"France","Location":null,"Latitude":null,"Longitude":null,"Country Latitude":46.603354,"Country Longitude":1.8883335,"Location Latitude":null,"Location Longitude":null,"Smart Coords":null,"Start Year":1976,"Start Month":1.0,"Start Day":null,"End Year":1976,"End Month":1.0,"End Day":null,"Total Affected":null,"Total Deaths":null},{"Year":1976,"Type":"Storm","Subtype":null,"Country":"United Kingdom","Location":null,"Latitude":null,"Longitude":null,"Country Latitude":54.7023545,"Country Longitude":-3.2765753,"Location Latitude":null,"Location Longitude":null,"Smart Coords":null,"Start Year":1976,"Start Month":1.0,"Start Day":null,"End Year":1976,"End Month":1.0,"End Day":null,"Total Affected":null,"Total Deaths":null},{"Year":1976,"Type":"Volcanic activity","Subtype":"Ash fall","Country":"Guadeloupe","Location":null,"Latitude":null,"Longitude":null,"Country Latitude":16.2528827,"Country Longitude":-61.5686855,"Location Latitude":null,"Location Longitude":null,"Smart Coords":null,"Start Year":1976,"Start Month":8.0,"Start Day":30.0,"End Year":1976,"End Month":8.0,"End Day":30.0,"Total Affected":75003.0,"Total Deaths":null},{"Year":1976,"Type":"Drought","Subtype":"Drought","Country":"Gambia","Location":null,"Latitude":null,"Longitude":null,"Country Latitude":13.470062,"Country Longitude":-15.4900464,"Location Latitude":null,"Location Longitude":null,"Smart Coords":null,"Start Year":1977,"Start Month":null,"Start Day":null,"End Year":1978,"End Month":null,"End Day":null,"Total Affected":null,"Total Deaths":null},{"Year":1976,"Type":"Earthquake","Subtype":"Ground movement","Country":"Guatemala","Location":"Guatemala city, Chimaltenango","Latitude":"15.324","Longitude":"-89.101","Country Latitude":15.5855545,"Country Longitude":-90.345759,"Location Latitude":14.6238701,"Location Longitude":-90.5529289,"Smart Coords":"[{\"Lat\": 15.5855545, \"Lng\": -90.345759}, {\"Lat\": 14.6539748, \"Lng\": -90.92727412053142}]","Start Year":1976,"Start Month":2.0,"Start Day":4.0,"End Year":1976,"End Month":2.0,"End Day":4.0,"Total Affected":4993000.0,"Total Deaths":23000.0},{"Year":1976,"Type":"Storm","Subtype":"Tropical cyclone","Country":"Guam","Location":null,"Latitude":null,"Longitude":null,"Country Latitude":13.4501257,"Country Longitude":144.7575510297,"Location Latitude":null,"Location Longitude":null,"Smart Coords":null,"Start Year":1976,"Start Month":5.0,"Start Day":null,"End Year":1976,"End Month":5.0,"End Day":null,"Total Affected":null,"Total Deaths":9.0},{"Year":1976,"Type":"Storm","Subtype":"Tropical cyclone","Country":"Hong Kong","Location":null,"Latitude":null,"Longitude":null,"Country Latitude":22.352957,"Country Longitude":113.962891,"Location Latitude":null,"Location Longitude":null,"Smart Coords":null,"Start Year":1976,"Start Month":6.0,"Start Day":26.0,"End Year":1976,"End Month":6.0,"End Day":26.0,"Total Affected":2.0,"Total Deaths":5.0},{"Year":1976,"Type":"Storm","Subtype":"Tropical cyclone","Country":"Hong Kong","Location":null,"Latitude":null,"Longitude":null,"Country Latitude":22.352957,"Country Longitude":113.962891,"Location Latitude":null,"Location Longitude":null,"Smart Coords":null,"Start Year":1976,"Start Month":7.0,"Start Day":22.0,"End Year":1976,"End Month":7.0,"End Day":22.0,"Total Affected":1.0,"Total Deaths":3.0},{"Year":1976,"Type":"Storm","Subtype":"Tropical cyclone","Country":"Hong Kong","Location":"Sau Mau Ping, Lantao Isl., Ping Shan, Ngau Tam Mei, Lo Wu","Latitude":null,"Longitude":null,"Country Latitude":22.352957,"Country Longitude":113.962891,"Location Latitude":null,"Location Longitude":null,"Smart Coords":null,"Start Year":1976,"Start Month":8.0,"Start Day":24.0,"End Year":1976,"End Month":8.0,"End Day":24.0,"Total Affected":2489.0,"Total Deaths":30.0},{"Year":1976,"Type":"Drought","Subtype":"Drought","Country":"Hong Kong","Location":"Hong Kong","Latitude":null,"Longitude":null,"Country Latitude":22.352957,"Country Longitude":113.962891,"Location Latitude":null,"Location Longitude":null,"Smart Coords":null,"Start Year":1976,"Start Month":1.0,"Start Day":null,"End Year":1976,"End Month":5.0,"End Day":null,"Total Affected":null,"Total Deaths":null},{"Year":1976,"Type":"Flood","Subtype":null,"Country":"Hong Kong","Location":"Sam Shing Hui, Tuen Mun (Southwest)","Latitude":null,"Longitude":null,"Country Latitude":22.352957,"Country Longitude":113.962891,"Location Latitude":null,"Location Longitude":null,"Smart Coords":null,"Start Year":1976,"Start Month":6.0,"Start Day":null,"End Year":1976,"End Month":6.0,"End Day":null,"Total Affected":200.0,"Total Deaths":null},{"Year":1976,"Type":"Flood","Subtype":null,"Country":"Honduras","Location":"North coast","Latitude":null,"Longitude":null,"Country Latitude":15.2572432,"Country Longitude":-86.0755145,"Location Latitude":null,"Location Longitude":null,"Smart Coords":null,"Start Year":1976,"Start Month":11.0,"Start Day":null,"End Year":1976,"End Month":11.0,"End Day":null,"Total Affected":15000.0,"Total Deaths":20.0},{"Year":1976,"Type":"Earthquake","Subtype":"Ground movement","Country":"Indonesia","Location":"Wanena Region (Irian Jaya)","Latitude":"-4.603","Longitude":"140.091","Country Latitude":-2.4833826,"Country Longitude":117.8902853,"Location Latitude":null,"Location Longitude":null,"Smart Coords":null,"Start Year":1976,"Start Month":6.0,"Start Day":26.0,"End Year":1976,"End Month":6.0,"End Day":26.0,"Total Affected":15000.0,"Total Deaths":420.0},{"Year":1976,"Type":"Earthquake","Subtype":"Ground movement","Country":"Indonesia","Location":"Bali","Latitude":"-8.17","Longitude":"114.888","Country Latitude":-2.4833826,"Country Longitude":117.8902853,"Location Latitude":-8.3304977,"Location Longitude":115.0906401,"Smart Coords":"[{\"Lat\": -8.3304977, \"Lng\": 115.0906401}]","Start Year":1976,"Start Month":7.0,"Start Day":14.0,"End Year":1976,"End Month":7.0,"End Day":14.0,"Total Affected":454755.0,"Total Deaths":573.0},{"Year":1976,"Type":"Earthquake","Subtype":"Ground movement","Country":"Indonesia","Location":"Irian Jaya, Jayawijaya (New guinea)","Latitude":"-4.517","Longitude":"139.918","Country Latitude":-2.4833826,"Country Longitude":117.8902853,"Location Latitude":null,"Location Longitude":null,"Smart Coords":null,"Start Year":1976,"Start Month":10.0,"Start Day":29.0,"End Year":1976,"End Month":10.0,"End Day":29.0,"Total Affected":7000.0,"Total Deaths":133.0},{"Year":1976,"Type":"Volcanic activity","Subtype":"Ash fall","Country":"Indonesia","Location":null,"Latitude":null,"Longitude":null,"Country Latitude":-2.4833826,"Country Longitude":117.8902853,"Location Latitude":null,"Location Longitude":null,"Smart Coords":null,"Start Year":1976,"Start Month":null,"Start Day":null,"End Year":1976,"End Month":null,"End Day":null,"Total Affected":null,"Total Deaths":40.0},{"Year":1976,"Type":"Flood","Subtype":"Flash flood","Country":"Indonesia","Location":"East Java, Lumajang","Latitude":null,"Longitude":null,"Country Latitude":-2.4833826,"Country Longitude":117.8902853,"Location Latitude":-8.135205,"Location Longitude":113.2244162,"Smart Coords":"[{\"Lat\": -7.6977397, \"Lng\": 112.4914199}, {\"Lat\": -8.135205, \"Lng\": 113.2244162}]","Start Year":1976,"Start Month":11.0,"Start Day":13.0,"End Year":1976,"End Month":11.0,"End Day":13.0,"Total Affected":20020.0,"Total Deaths":163.0},{"Year":1976,"Type":"Storm","Subtype":null,"Country":"Indonesia","Location":null,"Latitude":null,"Longitude":null,"Country Latitude":-2.4833826,"Country Longitude":117.8902853,"Location Latitude":null,"Location Longitude":null,"Smart Coords":null,"Start Year":1976,"Start Month":12.0,"Start Day":null,"End Year":1976,"End Month":12.0,"End Day":null,"Total Affected":null,"Total Deaths":25.0},{"Year":1976,"Type":"Storm","Subtype":"Tropical cyclone","Country":"India","Location":"Midnapore, Parganas districts (West Bengal), Balasore district (Orissa)","Latitude":null,"Longitude":null,"Country Latitude":22.3511148,"Country Longitude":78.6677428,"Location Latitude":null,"Location Longitude":null,"Smart Coords":"[{\"Lat\": 22.4671958, \"Lng\": 87.17500550608798}, {\"Lat\": 22.1815262, \"Lng\": 88.54843766912074}]","Start Year":1976,"Start Month":9.0,"Start Day":8.0,"End Year":1976,"End Month":9.0,"End Day":8.0,"Total Affected":null,"Total Deaths":40.0},{"Year":1976,"Type":"Storm","Subtype":"Tropical cyclone","Country":"India","Location":"Madras\/Nellore (Andhra Pradesh)","Latitude":null,"Longitude":null,"Country Latitude":22.3511148,"Country Longitude":78.6677428,"Location Latitude":null,"Location Longitude":null,"Smart Coords":null,"Start Year":1976,"Start Month":11.0,"Start Day":22.0,"End Year":1976,"End Month":11.0,"End Day":22.0,"Total Affected":300000.0,"Total Deaths":95.0},{"Year":1976,"Type":"Storm","Subtype":"Tropical cyclone","Country":"India","Location":"Gujarat, Maharastra","Latitude":null,"Longitude":null,"Country Latitude":22.3511148,"Country Longitude":78.6677428,"Location Latitude":20.6088306,"Location Longitude":79.8588701,"Smart Coords":"[{\"Lat\": 22.3850051, \"Lng\": 71.745261}]","Start Year":1976,"Start Month":5.0,"Start Day":29.0,"End Year":1976,"End Month":5.0,"End Day":29.0,"Total Affected":250000.0,"Total Deaths":87.0},{"Year":1976,"Type":"Storm","Subtype":"Tropical cyclone","Country":"India","Location":"Krishna District, near Masulipatnam (Andhra Pradesh)","Latitude":null,"Longitude":null,"Country Latitude":22.3511148,"Country Longitude":78.6677428,"Location Latitude":null,"Location Longitude":null,"Smart Coords":"[{\"Lat\": 16.21399145, \"Lng\": 81.02572813603345}]","Start Year":1976,"Start Month":11.0,"Start Day":3.0,"End Year":1976,"End Month":11.0,"End Day":3.0,"Total Affected":null,"Total Deaths":18.0},{"Year":1976,"Type":"Storm","Subtype":"Tropical cyclone","Country":"India","Location":"Between Nellore and Kavali (Andhra Pradesh)","Latitude":null,"Longitude":null,"Country Latitude":22.3511148,"Country Longitude":78.6677428,"Location Latitude":null,"Location Longitude":null,"Smart Coords":"[{\"Lat\": 14.91098925, \"Lng\": 80.01534335527676}]","Start Year":1976,"Start Month":11.0,"Start Day":15.0,"End Year":1976,"End Month":11.0,"End Day":15.0,"Total Affected":50000.0,"Total Deaths":30.0},{"Year":1976,"Type":"Storm","Subtype":"Tropical cyclone","Country":"India","Location":"Neil & Havelock Isl. (Little Andaman, South Andaman Sea areas)","Latitude":null,"Longitude":null,"Country Latitude":22.3511148,"Country Longitude":78.6677428,"Location Latitude":null,"Location Longitude":null,"Smart Coords":null,"Start Year":1976,"Start Month":12.0,"Start Day":29.0,"End Year":1976,"End Month":12.0,"End Day":29.0,"Total Affected":null,"Total Deaths":null},{"Year":1976,"Type":"Earthquake","Subtype":"Ground movement","Country":"Philippines","Location":"Gulf of Moro, Sulu (Mindanao)","Latitude":"6.262","Longitude":"124.023","Country Latitude":12.7503486,"Country Longitude":122.7312101,"Location Latitude":null,"Location Longitude":null,"Smart Coords":"[{\"Lat\": 5.9942808, \"Lng\": 121.0787926}]","Start Year":1976,"Start Month":8.0,"Start Day":17.0,"End Year":1976,"End Month":8.0,"End Day":17.0,"Total Affected":181348.0,"Total Deaths":6000.0},{"Year":1976,"Type":"Drought","Subtype":"Drought","Country":"Rwanda","Location":"Widespread","Latitude":null,"Longitude":null,"Country Latitude":-1.9646631,"Country Longitude":30.0644358,"Location Latitude":null,"Location Longitude":null,"Smart Coords":null,"Start Year":1976,"Start Month":null,"Start Day":null,"End Year":1977,"End Month":null,"End Day":null,"Total Affected":1700000.0,"Total Deaths":null},{"Year":1976,"Type":"Earthquake","Subtype":"Ground movement","Country":"Iran, Islamic Republic of","Location":"South Khorasan province","Latitude":"33.8","Longitude":"59.15","Country Latitude":32.6475314,"Country Longitude":54.5643516,"Location Latitude":33.129577,"Location Longitude":58.1065069,"Smart Coords":null,"Start Year":1976,"Start Month":11.0,"Start Day":6.0,"End Year":1976,"End Month":11.0,"End Day":6.0,"Total Affected":null,"Total Deaths":16.0},{"Year":1976,"Type":"Earthquake","Subtype":"Ground movement","Country":"Iceland","Location":"Kopasker","Latitude":"66.157","Longitude":"-16.582","Country Latitude":64.9841821,"Country Longitude":-18.1059013,"Location Latitude":66.3009478,"Location Longitude":-16.4466147,"Smart Coords":null,"Start Year":1976,"Start Month":1.0,"Start Day":13.0,"End Year":1976,"End Month":1.0,"End Day":13.0,"Total Affected":6.0,"Total Deaths":1.0},{"Year":1976,"Type":"Earthquake","Subtype":"Ground movement","Country":"Italy","Location":"Friuli region","Latitude":"46.356","Longitude":"13.275","Country Latitude":42.6384261,"Country Longitude":12.674297,"Location Latitude":45.9045969,"Location Longitude":11.0124335,"Smart Coords":null,"Start Year":1976,"Start Month":5.0,"Start Day":6.0,"End Year":1976,"End Month":5.0,"End Day":6.0,"Total Affected":218222.0,"Total Deaths":922.0},{"Year":1976,"Type":"Earthquake","Subtype":"Ground movement","Country":"Italy","Location":"Friuli","Latitude":null,"Longitude":null,"Country Latitude":42.6384261,"Country Longitude":12.674297,"Location Latitude":41.4627807,"Location Longitude":12.904768,"Smart Coords":null,"Start Year":1976,"Start Month":9.0,"Start Day":9.0,"End Year":1976,"End Month":9.0,"End Day":9.0,"Total Affected":32000.0,"Total Deaths":12.0},{"Year":1976,"Type":"Storm","Subtype":"Tropical cyclone","Country":"Japan","Location":"Kyushu (Southern)","Latitude":null,"Longitude":null,"Country Latitude":36.5748441,"Country Longitude":139.2394179,"Location Latitude":null,"Location Longitude":null,"Smart Coords":"[{\"Lat\": 32.4821145, \"Lng\": 131.10090131445313}]","Start Year":1976,"Start Month":9.0,"Start Day":8.0,"End Year":1976,"End Month":9.0,"End Day":8.0,"Total Affected":325107.0,"Total Deaths":169.0},{"Year":1976,"Type":"Flood","Subtype":null,"Country":"Japan","Location":"North","Latitude":null,"Longitude":null,"Country Latitude":36.5748441,"Country Longitude":139.2394179,"Location Latitude":35.7174337,"Location Longitude":139.4020784,"Smart Coords":null,"Start Year":1976,"Start Month":7.0,"Start Day":null,"End Year":1976,"End Month":7.0,"End Day":null,"Total Affected":null,"Total Deaths":null},{"Year":1976,"Type":"Landslide","Subtype":"Landslide","Country":"Korea, Republic of","Location":"Chonju","Latitude":null,"Longitude":null,"Country Latitude":36.638392,"Country Longitude":127.6961188,"Location Latitude":37.5686637,"Location Longitude":126.9759429,"Smart Coords":null,"Start Year":1976,"Start Month":8.0,"Start Day":7.0,"End Year":1976,"End Month":8.0,"End Day":7.0,"Total Affected":null,"Total Deaths":25.0},{"Year":1976,"Type":"Storm","Subtype":"Tropical cyclone","Country":"Madagascar","Location":"North","Latitude":null,"Longitude":null,"Country Latitude":-18.9249604,"Country Longitude":46.4416422,"Location Latitude":null,"Location Longitude":null,"Smart Coords":null,"Start Year":1976,"Start Month":1.0,"Start Day":10.0,"End Year":1976,"End Month":1.0,"End Day":10.0,"Total Affected":508876.0,"Total Deaths":16.0},{"Year":1976,"Type":"Storm","Subtype":"Tropical cyclone","Country":"Mexico","Location":"La Paz, Baja Peninsula","Latitude":null,"Longitude":null,"Country Latitude":23.6585116,"Country Longitude":-102.0077097,"Location Latitude":24.11840675,"Location Longitude":-110.3482779409,"Smart Coords":"[{\"Lat\": 19.36376855, \"Lng\": -98.94631359855612}, {\"Lat\": 24.11840675, \"Lng\": -110.3482779408994}]","Start Year":1976,"Start Month":10.0,"Start Day":1.0,"End Year":1976,"End Month":10.0,"End Day":1.0,"Total Affected":276400.0,"Total Deaths":600.0},{"Year":1976,"Type":"Storm","Subtype":null,"Country":"Mexico","Location":"Central, East regions","Latitude":null,"Longitude":null,"Country Latitude":23.6585116,"Country Longitude":-102.0077097,"Location Latitude":null,"Location Longitude":null,"Smart Coords":null,"Start Year":1976,"Start Month":7.0,"Start Day":15.0,"End Year":1976,"End Month":7.0,"End Day":15.0,"Total Affected":300000.0,"Total Deaths":120.0},{"Year":1976,"Type":"Drought","Subtype":"Drought","Country":"Mali","Location":"Niger River area","Latitude":null,"Longitude":null,"Country Latitude":16.3700359,"Country Longitude":-2.2900239,"Location Latitude":null,"Location Longitude":null,"Smart Coords":"[{\"Lat\": 14.9296916, \"Lng\": -4.1652238}]","Start Year":1978,"Start Month":null,"Start Day":null,"End Year":1978,"End Month":null,"End Day":null,"Total Affected":null,"Total Deaths":null},{"Year":1976,"Type":"Flood","Subtype":null,"Country":"Myanmar","Location":"Arakan, Magwe divisions","Latitude":null,"Longitude":null,"Country Latitude":17.1750495,"Country Longitude":95.9999652,"Location Latitude":null,"Location Longitude":null,"Smart Coords":"[{\"Lat\": 19.5212991, \"Lng\": 94.0072428}]","Start Year":1976,"Start Month":6.0,"Start Day":null,"End Year":1976,"End Month":6.0,"End Day":null,"Total Affected":200000.0,"Total Deaths":null},{"Year":1976,"Type":"Drought","Subtype":"Drought","Country":"Mauritania","Location":null,"Latitude":null,"Longitude":null,"Country Latitude":20.2540382,"Country Longitude":-9.2399263,"Location Latitude":null,"Location Longitude":null,"Smart Coords":null,"Start Year":1976,"Start Month":null,"Start Day":null,"End Year":1977,"End Month":null,"End Day":null,"Total Affected":1420000.0,"Total Deaths":null},{"Year":1976,"Type":"Storm","Subtype":"Tropical cyclone","Country":"New Caledonia","Location":"Ouvea, Grande Terre","Latitude":null,"Longitude":null,"Country Latitude":-21.3019905,"Country Longitude":165.4880773,"Location Latitude":null,"Location Longitude":null,"Smart Coords":null,"Start Year":1976,"Start Month":1.0,"Start Day":16.0,"End Year":1976,"End Month":1.0,"End Day":16.0,"Total Affected":null,"Total Deaths":null},{"Year":1976,"Type":"Flood","Subtype":null,"Country":"Nicaragua","Location":null,"Latitude":null,"Longitude":null,"Country Latitude":12.6090157,"Country Longitude":-85.2936911,"Location Latitude":null,"Location Longitude":null,"Smart Coords":null,"Start Year":1976,"Start Month":7.0,"Start Day":null,"End Year":1976,"End Month":7.0,"End Day":null,"Total Affected":8000.0,"Total Deaths":16.0},{"Year":1976,"Type":"Storm","Subtype":null,"Country":"Netherlands","Location":null,"Latitude":null,"Longitude":null,"Country Latitude":52.2434979,"Country Longitude":5.6343227,"Location Latitude":null,"Location Longitude":null,"Smart Coords":null,"Start Year":1976,"Start Month":1.0,"Start Day":2.0,"End Year":1976,"End Month":1.0,"End Day":4.0,"Total Affected":null,"Total Deaths":null},{"Year":1976,"Type":"Landslide","Subtype":"Landslide","Country":"Nepal","Location":"Pahire Phedi","Latitude":null,"Longitude":null,"Country Latitude":28.1083929,"Country Longitude":84.0917139,"Location Latitude":null,"Location Longitude":null,"Smart Coords":null,"Start Year":1976,"Start Month":6.0,"Start Day":4.0,"End Year":1976,"End Month":6.0,"End Day":4.0,"Total Affected":null,"Total Deaths":150.0},{"Year":1976,"Type":"Earthquake","Subtype":"Ground movement","Country":"New Zealand","Location":"Kermandec Is., Raoul","Latitude":"-28.427","Longitude":"-177.657","Country Latitude":-41.5000831,"Country Longitude":172.8344077,"Location Latitude":null,"Location Longitude":null,"Smart Coords":null,"Start Year":1976,"Start Month":1.0,"Start Day":15.0,"End Year":1976,"End Month":1.0,"End Day":15.0,"Total Affected":null,"Total Deaths":null},{"Year":1976,"Type":"Flood","Subtype":null,"Country":"New Zealand","Location":"Lower Hutt","Latitude":null,"Longitude":null,"Country Latitude":-41.5000831,"Country Longitude":172.8344077,"Location Latitude":-41.2125751,"Location Longitude":174.9057626,"Smart Coords":null,"Start Year":1976,"Start Month":12.0,"Start Day":20.0,"End Year":1976,"End Month":12.0,"End Day":20.0,"Total Affected":129.0,"Total Deaths":null},{"Year":1976,"Type":"Flood","Subtype":null,"Country":"Pakistan","Location":"Punjab, Sind, North West Frontier","Latitude":null,"Longitude":null,"Country Latitude":30.3308401,"Country Longitude":71.247499,"Location Latitude":null,"Location Longitude":null,"Smart Coords":"[{\"Lat\": 31.0, \"Lng\": 72.0}, {\"Lat\": 25.5, \"Lng\": 69.0}, {\"Lat\": 33.712802, \"Lng\": 71.2678805}]","Start Year":1976,"Start Month":8.0,"Start Day":2.0,"End Year":1976,"End Month":8.0,"End Day":2.0,"Total Affected":5566000.0,"Total Deaths":338.0},{"Year":1976,"Type":"Volcanic activity","Subtype":"Ash fall","Country":"Philippines","Location":"40 miles South Manilla","Latitude":null,"Longitude":null,"Country Latitude":12.7503486,"Country Longitude":122.7312101,"Location Latitude":null,"Location Longitude":null,"Smart Coords":null,"Start Year":1976,"Start Month":9.0,"Start Day":3.0,"End Year":1976,"End Month":9.0,"End Day":3.0,"Total Affected":11510.0,"Total Deaths":null},{"Year":1976,"Type":"Flood","Subtype":"Flash flood","Country":"Philippines","Location":"Misamis Oriental","Latitude":null,"Longitude":null,"Country Latitude":12.7503486,"Country Longitude":122.7312101,"Location Latitude":8.6534807,"Location Longitude":124.8235205,"Smart Coords":"[{\"Lat\": 8.6534807, \"Lng\": 124.8235205}]","Start Year":1976,"Start Month":1.0,"Start Day":25.0,"End Year":1976,"End Month":1.0,"End Day":25.0,"Total Affected":1565.0,"Total Deaths":8.0},{"Year":1976,"Type":"Flood","Subtype":"Flash flood","Country":"Philippines","Location":"Capz, Aklan","Latitude":null,"Longitude":null,"Country Latitude":12.7503486,"Country Longitude":122.7312101,"Location Latitude":null,"Location Longitude":null,"Smart Coords":"[{\"Lat\": 11.6297894, \"Lng\": 122.2481177}]","Start Year":1976,"Start Month":11.0,"Start Day":30.0,"End Year":1976,"End Month":11.0,"End Day":30.0,"Total Affected":14313.0,"Total Deaths":10.0},{"Year":1976,"Type":"Storm","Subtype":"Tropical cyclone","Country":"Philippines","Location":"Luzon, Manila","Latitude":null,"Longitude":null,"Country Latitude":12.7503486,"Country Longitude":122.7312101,"Location Latitude":14.5830475,"Location Longitude":120.7728410554,"Smart Coords":"[{\"Lat\": 15.5627393, \"Lng\": 120.7465440792776}]","Start Year":1976,"Start Month":5.0,"Start Day":17.0,"End Year":1976,"End Month":5.0,"End Day":17.0,"Total Affected":2700000.0,"Total Deaths":274.0},{"Year":1976,"Type":"Storm","Subtype":"Tropical cyclone","Country":"Philippines","Location":null,"Latitude":null,"Longitude":null,"Country Latitude":12.7503486,"Country Longitude":122.7312101,"Location Latitude":null,"Location Longitude":null,"Smart Coords":null,"Start Year":1976,"Start Month":6.0,"Start Day":22.0,"End Year":1976,"End Month":6.0,"End Day":22.0,"Total Affected":2812.0,"Total Deaths":3.0},{"Year":1976,"Type":"Storm","Subtype":"Tropical cyclone","Country":"Philippines","Location":null,"Latitude":null,"Longitude":null,"Country Latitude":12.7503486,"Country Longitude":122.7312101,"Location Latitude":null,"Location Longitude":null,"Smart Coords":null,"Start Year":1976,"Start Month":12.0,"Start Day":2.0,"End Year":1976,"End Month":12.0,"End Day":2.0,"Total Affected":1758.0,"Total Deaths":110.0},{"Year":1976,"Type":"Epidemic","Subtype":"Viral disease","Country":"Sudan","Location":"West Equatoria province","Latitude":null,"Longitude":null,"Country Latitude":14.5844444,"Country Longitude":29.4917691,"Location Latitude":null,"Location Longitude":null,"Smart Coords":null,"Start Year":1976,"Start Month":9.0,"Start Day":null,"End Year":1976,"End Month":9.0,"End Day":null,"Total Affected":299.0,"Total Deaths":150.0},{"Year":1976,"Type":"Drought","Subtype":"Drought","Country":"Senegal","Location":"Countrywide","Latitude":null,"Longitude":null,"Country Latitude":14.4750607,"Country Longitude":-14.4529612,"Location Latitude":null,"Location Longitude":null,"Smart Coords":null,"Start Year":1977,"Start Month":null,"Start Day":null,"End Year":1978,"End Month":null,"End Day":null,"Total Affected":3715000.0,"Total Deaths":null},{"Year":1976,"Type":"Earthquake","Subtype":"Ground movement","Country":"Soviet Union","Location":"Gazli, Bukhara (Uzbekistan)","Latitude":"40.381","Longitude":"63.472","Country Latitude":52.872309,"Country Longitude":78.615662,"Location Latitude":null,"Location Longitude":null,"Smart Coords":"[{\"Lat\": 40.1338971, \"Lng\": 63.4540161}]","Start Year":1976,"Start Month":5.0,"Start Day":17.0,"End Year":1976,"End Month":5.0,"End Day":17.0,"Total Affected":null,"Total Deaths":null},{"Year":1976,"Type":"Storm","Subtype":null,"Country":"Sweden","Location":null,"Latitude":null,"Longitude":null,"Country Latitude":59.6749712,"Country Longitude":14.5208584,"Location Latitude":null,"Location Longitude":null,"Smart Coords":null,"Start Year":1976,"Start Month":1.0,"Start Day":2.0,"End Year":1976,"End Month":1.0,"End Day":4.0,"Total Affected":null,"Total Deaths":null},{"Year":1976,"Type":"Earthquake","Subtype":"Ground movement","Country":"Turkey","Location":null,"Latitude":"41.13","Longitude":"43.01","Country Latitude":38.9597594,"Country Longitude":34.9249653,"Location Latitude":null,"Location Longitude":null,"Smart Coords":null,"Start Year":1976,"Start Month":3.0,"Start Day":25.0,"End Year":1976,"End Month":3.0,"End Day":25.0,"Total Affected":6.0,"Total Deaths":2.0},{"Year":1976,"Type":"Earthquake","Subtype":"Ground movement","Country":"Turkey","Location":"Denizli","Latitude":"37.7","Longitude":"28.89","Country Latitude":38.9597594,"Country Longitude":34.9249653,"Location Latitude":37.7833152,"Location Longitude":29.0844832,"Smart Coords":"[{\"Lat\": 37.7833152, \"Lng\": 29.0844832}]","Start Year":1976,"Start Month":8.0,"Start Day":19.0,"End Year":1976,"End Month":8.0,"End Day":19.0,"Total Affected":9050.0,"Total Deaths":4.0},{"Year":1976,"Type":"Earthquake","Subtype":"Ground movement","Country":"Turkey","Location":"Muradiye","Latitude":"39.121","Longitude":"44.029","Country Latitude":38.9597594,"Country Longitude":34.9249653,"Location Latitude":38.9902954,"Location Longitude":43.7611745,"Smart Coords":null,"Start Year":1976,"Start Month":11.0,"Start Day":24.0,"End Year":1976,"End Month":11.0,"End Day":24.0,"Total Affected":216000.0,"Total Deaths":3840.0},{"Year":1976,"Type":"Landslide","Subtype":"Landslide","Country":"Turkey","Location":"Ordu province","Latitude":null,"Longitude":null,"Country Latitude":38.9597594,"Country Longitude":34.9249653,"Location Latitude":39.76809095,"Location Longitude":39.4887565967,"Smart Coords":"[{\"Lat\": 40.8292569, \"Lng\": 37.4082764}]","Start Year":1976,"Start Month":9.0,"Start Day":12.0,"End Year":1976,"End Month":9.0,"End Day":12.0,"Total Affected":null,"Total Deaths":40.0},{"Year":1976,"Type":"Landslide","Subtype":"Landslide","Country":"Turkey","Location":null,"Latitude":null,"Longitude":null,"Country Latitude":38.9597594,"Country Longitude":34.9249653,"Location Latitude":null,"Location Longitude":null,"Smart Coords":null,"Start Year":1976,"Start Month":2.0,"Start Day":null,"End Year":1976,"End Month":2.0,"End Day":null,"Total Affected":null,"Total Deaths":27.0},{"Year":1976,"Type":"Flood","Subtype":null,"Country":"United States","Location":"Colorado (Big Thompson Canyon)","Latitude":null,"Longitude":null,"Country Latitude":39.7837304,"Country Longitude":-100.445882,"Location Latitude":40.4320254,"Location Longitude":-105.3399394,"Smart Coords":"[{\"Lat\": 38.7251776, \"Lng\": -105.607716}]","Start Year":1976,"Start Month":7.0,"Start Day":31.0,"End Year":1976,"End Month":7.0,"End Day":31.0,"Total Affected":null,"Total Deaths":139.0},{"Year":1976,"Type":"Epidemic","Subtype":"Viral disease","Country":"Congo, the Democratic Republic of the","Location":"Equator province","Latitude":null,"Longitude":null,"Country Latitude":-2.9814344,"Country Longitude":23.8222636,"Location Latitude":null,"Location Longitude":null,"Smart Coords":"[{\"Lat\": -4.3312715, \"Lng\": 29.221098}]","Start Year":1976,"Start Month":9.0,"Start Day":null,"End Year":1976,"End Month":9.0,"End Day":null,"Total Affected":262.0,"Total Deaths":245.0},{"Year":1976,"Type":"Earthquake","Subtype":"Ground movement","Country":"Italy","Location":"Northeastern","Latitude":"46.302","Longitude":"13.197","Country Latitude":42.6384261,"Country Longitude":12.674297,"Location Latitude":null,"Location Longitude":null,"Smart Coords":null,"Start Year":1976,"Start Month":9.0,"Start Day":15.0,"End Year":1976,"End Month":9.0,"End Day":15.0,"Total Affected":null,"Total Deaths":11.0}]